[{"id":"MA010120220800046931","name":"두꺼비짬뽕","industry":"중국집","coordinates":[127.440159485094,36.3310267411369],"sales":{"202602":4699}},{"id":"MA010120220800059031","name":"대전랜드공인중개사사무소","industry":"부동산 중개/대리업","coordinates":[127.430015987467,36.3335689354986],"sales":{"202602":90}},{"id":"MA010120220800100072","name":"애니원유통대전","industry":"건강보조식품 소매업","coordinates":[127.433496509669,36.3285277995792],"sales":{"202602":3103}},{"id":"MA010120220800130500","name":"케이댄스토탈","industry":"운동용품 소매업","coordinates":[127.440807462163,36.3333583980127],"sales":{"202602":2074}},{"id":"MA010120220800146343","name":"오가네즉석왕족발","industry":"족발/보쌈","coordinates":[127.432086191014,36.3292718709743],"sales":{"202602":1114}},{"id":"MA010120220800227587","name":"양말천국","industry":"기타 의류 소매업","coordinates":[127.431169457853,36.3306629930764],"sales":{"202602":1651}},{"id":"MA010120220800325973","name":"중앙무도학원","industry":"레크리에이션 교육기관","coordinates":[127.430603885241,36.3311066083675],"sales":{"202602":137}},{"id":"MA010120220800370080","name":"또와의상실","industry":"의류/이불 수선업","coordinates":[127.432648304319,36.3282064493383],"sales":{"202602":97}},{"id":"MA010120220800378763","name":"천안종합인쇄사","industry":"명함/간판/광고물 제작","coordinates":[127.429934309627,36.332893347427],"sales":{"202602":2817}},{"id":"MA010120220800520733","name":"소매","industry":"그 외 기타 상품 전문 소매업","coordinates":[127.432111500649,36.3298214970563],"sales":{"202602":2377}},{"id":"MA010120220800604579","name":"보석상자","industry":"중고 상품 소매업","coordinates":[127.434520212585,36.3283618706156],"sales":{"202602":127}},{"id":"MA010120220800608944","name":"산호","industry":"여관/모텔","coordinates":[127.431997157714,36.3333184735096],"sales":{"202602":571}},{"id":"MA010120220800662899","name":"슈올즈","industry":"신발 소매업","coordinates":[127.432883177261,36.3283858342323],"sales":{"202602":804}},{"id":"MA010120220800664063","name":"앤의다락방","industry":"침구류/커튼 소매업","coordinates":[127.433634449655,36.3272926873327],"sales":{"202602":242}},{"id":"MA010120220800667454","name":"메종드연","industry":"경영 컨설팅업","coordinates":[127.441352801457,36.3332842914031],"sales":{"202602":10677}},{"id":"MA010120220800760552","name":"화성전자","industry":"주방/가정용품 소매업","coordinates":[127.431787431558,36.3336616781766],"sales":{"202602":237}},{"id":"MA010120220800891305","name":"백년가교동짬뽕","industry":"중국집","coordinates":[127.432103468514,36.3344175235728],"sales":{"202602":1295}},{"id":"MA010120220800894490","name":"매일바자회","industry":"슈퍼마켓","coordinates":[127.431952059745,36.3332195071685],"sales":{"202602":9563}},{"id":"MA010120220801027556","name":"대전건설","industry":"중고 상품 소매업","coordinates":[127.437040625755,36.3309660921903],"sales":{"202602":1178}},{"id":"MA010120220801048801","name":"커피오피스길건너점","industry":"카페","coordinates":[127.431704196996,36.3327067324735],"sales":{"202602":686}},{"id":"MA010120220801355561","name":"허리우드BC당구장","industry":"당구장","coordinates":[127.43927420024,36.3360134986533],"sales":{"202602":242}},{"id":"MA010120220801356579","name":"중앙구제","industry":"중고 상품 소매업","coordinates":[127.430719055047,36.3297724524926],"sales":{"202602":232}},{"id":"MA010120220801784147","name":"디자인에세이","industry":"광고물 설계/제작업","coordinates":[127.429101755418,36.3334009979261],"sales":{"202602":516}},{"id":"MA010120220801912199","name":"별통신","industry":"가방 소매업","coordinates":[127.431169457853,36.3306629930764],"sales":{"202602":217}},{"id":"MA010120220801938558","name":"동광침구","industry":"침구류/커튼 소매업","coordinates":[127.433954319359,36.3267327968907],"sales":{"202602":334}},{"id":"MA010120220801985218","name":"풋젠워킹화","industry":"신발 소매업","coordinates":[127.432139000391,36.3307676326944],"sales":{"202602":1065}},{"id":"MA010120220802242081","name":"블랙박스구제","industry":"중고 상품 소매업","coordinates":[127.43078602694,36.3297992464209],"sales":{"202602":367}},{"id":"MA010120220802243921","name":"석이상회","industry":"기타 의류 소매업","coordinates":[127.432389083715,36.3296672932087],"sales":{"202602":1368}},{"id":"MA010120220802287337","name":"무주천마사업단","industry":"건강보조식품 소매업","coordinates":[127.431169457853,36.3306629930764],"sales":{"202602":850}},{"id":"MA010120220802510633","name":"퀀텀의료기","industry":"의료기기 소매업","coordinates":[127.433473132053,36.3303392487888],"sales":{"202602":1796}},{"id":"MA010120220802673411","name":"개천만두","industry":"김밥/만두/분식","coordinates":[127.431558224696,36.3284537078487],"sales":{"202602":1797}},{"id":"MA010120220802684805","name":"덕수구제","industry":"중고 상품 소매업","coordinates":[127.435061665791,36.3275939009651],"sales":{"202602":222}},{"id":"MA010120220802687395","name":"가미림공방","industry":"침구류/커튼 소매업","coordinates":[127.433634449655,36.3272926873327],"sales":{"202602":723}},{"id":"MA010120220802779684","name":"영웅유통","industry":"반찬/식료품 소매업","coordinates":[127.432331655381,36.3293520892235],"sales":{"202602":1417}},{"id":"MA010120220802859573","name":"토지에너지","industry":"가정용 연료 소매업","coordinates":[127.433805048591,36.3279319036658],"sales":{"202602":5472}},{"id":"MA010120220802886844","name":"대창이용원","industry":"미용실","coordinates":[127.436081043924,36.3366470032999],"sales":{"202602":66}},{"id":"MA010120220802925847","name":"정동철물","industry":"철물/공구 소매업","coordinates":[127.429800163518,36.3348313578662],"sales":{"202602":444}},{"id":"MA010120220802944627","name":"동원홈푸드국가철도공단","industry":"구내식당","coordinates":[127.436495097232,36.3310041327656],"sales":{"202602":1445}},{"id":"MA010120220802948506","name":"육앤족","industry":"돼지고기 구이/찜","coordinates":[127.432521334997,36.3294144853215],"sales":{"202602":1020}},{"id":"MA010120220803010050","name":"자매양품","industry":"기타 의류 소매업","coordinates":[127.431996895188,36.3292361466963],"sales":{"202602":730}},{"id":"MA010120220803011154","name":"의류토탈패션","industry":"기타 의류 소매업","coordinates":[127.431776689039,36.329696542349],"sales":{"202602":884}},{"id":"MA010120220803018354","name":"하이뚱딴지","industry":"그 외 기타 종합 소매업","coordinates":[127.43927420024,36.3360134986533],"sales":{"202602":1648}},{"id":"MA010120220803037646","name":"카페1424,철도전문인재뱅크","industry":"카페","coordinates":[127.432008792957,36.3334085490328],"sales":{"202602":888}},{"id":"MA010120220803047279","name":"우진사라온","industry":"기타 의류 소매업","coordinates":[127.432648304319,36.3282064493383],"sales":{"202602":1257}},{"id":"MA010120220803075185","name":"미도리컬러","industry":"카페","coordinates":[127.436769546344,36.336275007297],"sales":{"202602":878}},{"id":"MA010120220803124380","name":"엘피매니아","industry":"중고 상품 소매업","coordinates":[127.433954319359,36.3267327968907],"sales":{"202602":345}},{"id":"MA010120220803130328","name":"아삭앤달콤","industry":"슈퍼마켓","coordinates":[127.437854496315,36.3271331144366],"sales":{"202602":7627}},{"id":"MA010120220803166209","name":"쥬봉쌀국수","industry":"베트남식 전문","coordinates":[127.430715037412,36.32904251406],"sales":{"202602":804}},{"id":"MA010120220803173592","name":"황금연못","industry":"일반 유흥 주점","coordinates":[127.431076370977,36.3319610224809],"sales":{"202602":291}},{"id":"MA010120220803190989","name":"로얄칼라현상소","industry":"사진촬영업","coordinates":[127.431604952826,36.3328873260826],"sales":{"202602":561}},{"id":"MA010120220803191520","name":"자이르커피앤호프","industry":"요리 주점","coordinates":[127.432546179021,36.327864371864],"sales":{"202602":1157}},{"id":"MA010120220803213467","name":"대웅다방","industry":"카페","coordinates":[127.435481857771,36.3270516648192],"sales":{"202602":1024}},{"id":"MA010120220803213887","name":"탑스테이볼링센터","industry":"볼링장","coordinates":[127.432546179021,36.327864371864],"sales":{"202602":3254}},{"id":"MA010120220803215024","name":"기대에스테틱","industry":"화장품 소매업","coordinates":[127.431635830359,36.3324276148587],"sales":{"202602":615}},{"id":"MA010120220803230618","name":"아이지에이편의점","industry":"편의점","coordinates":[127.430739170658,36.3314035090223],"sales":{"202602":64880}},{"id":"MA010120220803251079","name":"우분투커피숍","industry":"카페","coordinates":[127.431256880402,36.3283376425589],"sales":{"202602":1272}},{"id":"MA010120220803251624","name":"삼촌네구제","industry":"중고 상품 소매업","coordinates":[127.431879758429,36.3302098404619],"sales":{"202602":139}},{"id":"MA010120220803274511","name":"대전호프","industry":"생맥주 전문","coordinates":[127.43156776244,36.3322025666708],"sales":{"202602":525}},{"id":"MA010120220803276685","name":"장미기획","industry":"명함/간판/광고물 제작","coordinates":[127.428348190822,36.3340976064675],"sales":{"202602":476}},{"id":"MA010120220803295385","name":"신도장여관","industry":"여관/모텔","coordinates":[127.429904706545,36.3315597133755],"sales":{"202602":1015}},{"id":"MA010120220803307163","name":"비어하우스","industry":"요리 주점","coordinates":[127.431734129155,36.3320758011902],"sales":{"202602":447}},{"id":"MA010120220803317256","name":"문앤봉","industry":"카페","coordinates":[127.43170220821,36.3323462692853],"sales":{"202602":274}},{"id":"MA010120220803331034","name":"브띠끄","industry":"기타 의류 소매업","coordinates":[127.431169457853,36.3306629930764],"sales":{"202602":4507}},{"id":"MA010120220803378500","name":"해피데이구제","industry":"중고 상품 소매업","coordinates":[127.434520212585,36.3283618706156],"sales":{"202602":316}},{"id":"MA010120220803385452","name":"별난집","industry":"백반/한정식","coordinates":[127.430692041772,36.3309350672526],"sales":{"202602":667}},{"id":"MA010120220803388487","name":"복떡방아간","industry":"떡/한과","coordinates":[127.434413745296,36.3292454104844],"sales":{"202602":936}},{"id":"MA010120220803417142","name":"대박창꼬","industry":"기타 의류 소매업","coordinates":[127.433251135374,36.3304752301331],"sales":{"202602":1046}},{"id":"MA010120220803417573","name":"순이포차","industry":"요리 주점","coordinates":[127.430347031927,36.3309813688021],"sales":{"202602":703}},{"id":"MA010120220803418613","name":"지영구제샵","industry":"중고 상품 소매업","coordinates":[127.430703801142,36.3290245310207],"sales":{"202602":90}},{"id":"MA010120220803419539","name":"옥로당","industry":"백반/한정식","coordinates":[127.433954319359,36.3267327968907],"sales":{"202602":1202}},{"id":"MA010120220803420277","name":"관사마을","industry":"경양식","coordinates":[127.438392779066,36.3357463825029],"sales":{"202602":21285}},{"id":"MA010120220803423485","name":"베스티안우송병원매점","industry":"슈퍼마켓","coordinates":[127.439080136498,36.3292193473708],"sales":{"202602":22315}},{"id":"MA010120220803455064","name":"은성식당","industry":"백반/한정식","coordinates":[127.430138543099,36.3315498602943],"sales":{"202602":1346}},{"id":"MA010120220803504471","name":"하나보청기","industry":"의료기기 소매업","coordinates":[127.432474016392,36.3309286326546],"sales":{"202602":1587}},{"id":"MA010120220803537925","name":"금강약국","industry":"약국","coordinates":[127.433682092885,36.3298608673637],"sales":{"202602":4586}},{"id":"MA010120220803550828","name":"보은여인숙","industry":"여관/모텔","coordinates":[127.431531259536,36.3356812367615],"sales":{"202602":798}},{"id":"MA010120220803557956","name":"덕영장","industry":"여관/모텔","coordinates":[127.431516647051,36.3330318330788],"sales":{"202602":487}},{"id":"MA010120220803585925","name":"이스트시티공인중개사사무소","industry":"부동산 중개/대리업","coordinates":[127.437854496315,36.3271331144366],"sales":{"202602":64}},{"id":"MA010120220803587914","name":"장수여인숙","industry":"여관/모텔","coordinates":[127.431468767044,36.3324282180805],"sales":{"202602":116}},{"id":"MA010120220803589222","name":"중앙당구장","industry":"당구장","coordinates":[127.430692041772,36.3309350672526],"sales":{"202602":208}},{"id":"MA010120220803606322","name":"육일서점헌책","industry":"중고 상품 소매업","coordinates":[127.435548929234,36.3270964792624],"sales":{"202602":67}},{"id":"MA010120220803702001","name":"착한미용실","industry":"미용실","coordinates":[127.431803637668,36.3305435507038],"sales":{"202602":70}},{"id":"MA010120220803707375","name":"정석건축","industry":"가전제품 수리업","coordinates":[127.442162912218,36.3347321893813],"sales":{"202602":567}},{"id":"MA010120220803708402","name":"완도상회","industry":"건어물/젓갈 소매업","coordinates":[127.430936736759,36.3288524678745],"sales":{"202602":5833}},{"id":"MA010120220803722365","name":"아이엠코팅","industry":"명함/간판/광고물 제작","coordinates":[127.430056179581,36.3327757560997],"sales":{"202602":1008}},{"id":"MA010120220803846307","name":"홈패션","industry":"의류/이불 수선업","coordinates":[127.432217944898,36.3289289475588],"sales":{"202602":49}},{"id":"MA010120220803847428","name":"카페22도","industry":"카페","coordinates":[127.438772795078,36.3300225227637],"sales":{"202602":1024}},{"id":"MA010120220803937940","name":"옷나라","industry":"기타 의류 소매업","coordinates":[127.431724980608,36.3304176701745],"sales":{"202602":2724}},{"id":"MA010120220804036732","name":"역전하나부동산공인중개사사무소","industry":"부동산 중개/대리업","coordinates":[127.430813662619,36.3348186970968],"sales":{"202602":119}},{"id":"MA010120220804038493","name":"파란나라","industry":"건축물 일반 청소업","coordinates":[127.438567931501,36.329239251432],"sales":{"202602":242}},{"id":"MA010120220804047236","name":"잔치집","industry":"백반/한정식","coordinates":[127.430784340244,36.3294928525259],"sales":{"202602":1811}},{"id":"MA010120220804198149","name":"원셀프안경콘택트대동역점","industry":"안경렌즈 소매업","coordinates":[127.440257727037,36.328692333404],"sales":{"202602":3814}},{"id":"MA010120220804287674","name":"다비치히어링","industry":"의료기기 소매업","coordinates":[127.431156632342,36.3303566394177],"sales":{"202602":2548}},{"id":"MA010120220804471864","name":"터미널건축","industry":"경영 컨설팅업","coordinates":[127.431034154188,36.3323847274612],"sales":{"202602":5573}},{"id":"MA010120220804531294","name":"만경집식당","industry":"백반/한정식","coordinates":[127.430985305035,36.3295822456804],"sales":{"202602":885}},{"id":"MA010120220804539222","name":"구제천사","industry":"중고 상품 소매업","coordinates":[127.430493188266,36.3292055250769],"sales":{"202602":212}},{"id":"MA010120220804547752","name":"금양타이테라피","industry":"마사지/안마","coordinates":[127.431256880402,36.3283376425589],"sales":{"202602":567}},{"id":"MA010120220804682848","name":"곤지암할매소머리국밥","industry":"국/탕/찌개류","coordinates":[127.430739170658,36.3314035090223],"sales":{"202602":219}},{"id":"MA010120220804687162","name":"칠성패션","industry":"신발 소매업","coordinates":[127.431256880402,36.3283376425589],"sales":{"202602":2337}},{"id":"MA010120220804762217","name":"비범","industry":"백반/한정식","coordinates":[127.437246771975,36.3359668627377],"sales":{"202602":846}},{"id":"MA010120220804781092","name":"성심홈패션","industry":"침구류/커튼 소매업","coordinates":[127.433358723795,36.3277803227114],"sales":{"202602":97}},{"id":"MA010120220804787560","name":"아름다운나날","industry":"그 외 기타 상품 전문 소매업","coordinates":[127.439317892203,36.3358601382816],"sales":{"202602":4010}},{"id":"MA010120220804798324","name":"카페사랑","industry":"카페","coordinates":[127.431084331056,36.3313842410797],"sales":{"202602":313}},{"id":"MA010120220804804070","name":"웰빙식당","industry":"백반/한정식","coordinates":[127.433979848272,36.3293280925897],"sales":{"202602":768}},{"id":"MA010120220804813376","name":"세븐대전역광장점","industry":"편의점","coordinates":[127.432458017062,36.3320641723773],"sales":{"202602":39811}},{"id":"MA010120220804854821","name":"서울여인숙","industry":"여관/모텔","coordinates":[127.434990870637,36.3288828409641],"sales":{"202602":349}},{"id":"MA010120220804867705","name":"컬러인스타일","industry":"경영 컨설팅업","coordinates":[127.429532019492,36.3326514763636],"sales":{"202602":5667}},{"id":"MA010120220804868420","name":"울엄마밥상","industry":"백반/한정식","coordinates":[127.431140132849,36.3293834284797],"sales":{"202602":1822}},{"id":"MA010120220804883365","name":"명중원단","industry":"가방 소매업","coordinates":[127.433358723795,36.3277803227114],"sales":{"202602":156}},{"id":"MA010120220804885412","name":"대한민국이미용능력개발연수원","industry":"기타 기술/직업 훈련학원","coordinates":[127.432176642915,36.33153349629],"sales":{"202602":1018}},{"id":"MA010120220804900443","name":"왕자병구제","industry":"중고 상품 소매업","coordinates":[127.431879058871,36.3280650430811],"sales":{"202602":254}},{"id":"MA010120220804910157","name":"국제통신","industry":"중고 상품 소매업","coordinates":[127.43232605993,36.3323710495894],"sales":{"202602":188}},{"id":"MA010120220804911600","name":"문방","industry":"문구/회화용품 소매업","coordinates":[127.433296553147,36.3266090184301],"sales":{"202602":8466}},{"id":"MA010120220804934699","name":"재인유통","industry":"침구류/커튼 소매업","coordinates":[127.432757806055,36.3298822410515],"sales":{"202602":226}},{"id":"MA010120220804941848","name":"다올구제","industry":"중고 상품 소매업","coordinates":[127.430997881549,36.3298435414797],"sales":{"202602":114}},{"id":"MA010120220804955463","name":"강변","industry":"화장품 소매업","coordinates":[127.431610977261,36.3279218231821],"sales":{"202602":656}},{"id":"MA010120220804956739","name":"오늘은맑음","industry":"부동산 중개/대리업","coordinates":[127.437905598697,36.3283044565819],"sales":{"202602":46}},{"id":"MA010120220804969754","name":"잉카모텔","industry":"여관/모텔","coordinates":[127.428566931131,36.3313302119452],"sales":{"202602":1198}},{"id":"MA010120220804995186","name":"성지수입","industry":"주방/가정용품 소매업","coordinates":[127.43254699643,36.330027192355],"sales":{"202602":458}},{"id":"MA010120220804996050","name":"씨엔문","industry":"부동산 중개/대리업","coordinates":[127.429580280532,36.3333271848626],"sales":{"202602":40}},{"id":"MA010120220805011252","name":"삼성진비뇨의학과의원","industry":"피부/비뇨기과 의원","coordinates":[127.433825527405,36.329617029238],"sales":{"202602":6344}},{"id":"MA010120220805047118","name":"디자인인포협동조합","industry":"시각 디자인업","coordinates":[127.435084991618,36.3277830631313],"sales":{"202602":1144}},{"id":"MA010120220805063570","name":"스타샵","industry":"기타 의류 소매업","coordinates":[127.432744351061,36.3274491132928],"sales":{"202602":1481}},{"id":"MA010120220805064815","name":"소제주택수리","industry":"전기용품/조명장치 소매업","coordinates":[127.442162912218,36.3347321893813],"sales":{"202602":837}},{"id":"MA010120220805066989","name":"비알던킨도너츠대전역","industry":"빵/도넛","coordinates":[127.432103468514,36.3344175235728],"sales":{"202602":1631}},{"id":"MA010120220805078049","name":"협신닭집","industry":"정육점","coordinates":[127.431695646655,36.3291381057219],"sales":{"202602":6302}},{"id":"MA010120220805096603","name":"세븐일레븐","industry":"편의점","coordinates":[127.432458017062,36.3320641723773],"sales":{"202602":108621}},{"id":"MA010120220805109837","name":"엘에스퍼니처","industry":"사무기기 소매업","coordinates":[127.440171600834,36.3331805064118],"sales":{"202602":1081}},{"id":"MA010120220805123490","name":"초코렛","industry":"여성 의류 소매업","coordinates":[127.431169457853,36.3306629930764],"sales":{"202602":222}},{"id":"MA010120220805135890","name":"캄보디아식당","industry":"베트남식 전문","coordinates":[127.432265095151,36.3314160235317],"sales":{"202602":2473}},{"id":"MA010120220805138709","name":"강원도상회","industry":"채소/과일 소매업","coordinates":[127.434462896627,36.3300743139914],"sales":{"202602":2781}},{"id":"MA010120220805143010","name":"스무이레","industry":"침구류/커튼 소매업","coordinates":[127.43294969999,36.3283315226967],"sales":{"202602":1567}},{"id":"MA010120220805153231","name":"대림전자","industry":"가전제품 소매업","coordinates":[127.43178668559,36.3335265045068],"sales":{"202602":438}},{"id":"MA010120220805178534","name":"을동유통","industry":"주방/가정용품 소매업","coordinates":[127.432111500649,36.3298214970563],"sales":{"202602":719}},{"id":"MA010120220805206317","name":"아라투어","industry":"여행사","coordinates":[127.432362443825,36.3308929892699],"sales":{"202602":2171}},{"id":"MA010120220805221205","name":"황금유통","industry":"기타 의류 소매업","coordinates":[127.433315772934,36.3280688549296],"sales":{"202602":1455}},{"id":"MA010120220805225552","name":"궁월장","industry":"여관/모텔","coordinates":[127.430062222456,36.3338751689142],"sales":{"202602":399}},{"id":"MA010120220805250360","name":"일구구공식당","industry":"백반/한정식","coordinates":[127.431933907789,36.331948914734],"sales":{"202602":394}},{"id":"MA010120220805276188","name":"짱가옷수선","industry":"의류/이불 수선업","coordinates":[127.431169457853,36.3306629930764],"sales":{"202602":51}},{"id":"MA010120220805301097","name":"한월","industry":"카페","coordinates":[127.432717293691,36.3306123404795],"sales":{"202602":555}},{"id":"MA010120220805344125","name":"이스트다산공인중개사사무소","industry":"부동산 중개/대리업","coordinates":[127.438915759056,36.3296975744637],"sales":{"202602":101}},{"id":"MA010120220805362875","name":"동서전자","industry":"가전제품 수리업","coordinates":[127.431169457853,36.3306629930764],"sales":{"202602":260}},{"id":"MA010120220805379511","name":"아시아중고폰","industry":"핸드폰 소매업","coordinates":[127.431662183634,36.3311478497034],"sales":{"202602":533}},{"id":"MA010120220805392525","name":"모텔","industry":"여관/모텔","coordinates":[127.429667752487,36.331001836208],"sales":{"202602":490}},{"id":"MA010120220805394496","name":"은성","industry":"카페","coordinates":[127.430927344706,36.3332141944538],"sales":{"202602":285}},{"id":"MA010120220805399330","name":"마성소국밥","industry":"국/탕/찌개류","coordinates":[127.431692612813,36.3306070340948],"sales":{"202602":1864}},{"id":"MA010120220805400681","name":"중국집","industry":"중국집","coordinates":[127.430828988021,36.3295107151265],"sales":{"202602":2458}},{"id":"MA010120220805431125","name":"다비치안경원","industry":"안경렌즈 소매업","coordinates":[127.431156632342,36.3303566394177],"sales":{"202602":1252}},{"id":"MA010120220805431202","name":"베리도넛","industry":"빵/도넛","coordinates":[127.437079248121,36.3358863697401],"sales":{"202602":875}},{"id":"MA010120220805459457","name":"남다른현이네구제","industry":"중고 상품 소매업","coordinates":[127.430453745617,36.330133878828],"sales":{"202602":98}},{"id":"MA010120220805471098","name":"홍도가","industry":"돼지고기 구이/찜","coordinates":[127.430692041772,36.3309350672526],"sales":{"202602":1385}},{"id":"MA010120220805508640","name":"근화떡집","industry":"떡/한과","coordinates":[127.431831927301,36.3296152369154],"sales":{"202602":2363}},{"id":"MA010120220805512950","name":"동인","industry":"카페","coordinates":[127.42627096328,36.3330776925891],"sales":{"202602":173}},{"id":"MA010120220805520550","name":"올레축산","industry":"정육점","coordinates":[127.437854496315,36.3271331144366],"sales":{"202602":3813}},{"id":"MA010120220805521831","name":"육앤족1","industry":"백반/한정식","coordinates":[127.432499010943,36.3294055543404],"sales":{"202602":825}},{"id":"MA010120220805527669","name":"서진상회","industry":"채소/과일 소매업","coordinates":[127.433984446159,36.3301571580597],"sales":{"202602":1416}},{"id":"MA010120220805529168","name":"현대리본&레이스","industry":"액세서리/잡화 소매업","coordinates":[127.433282761288,36.3281410687259],"sales":{"202602":316}},{"id":"MA010120220805537058","name":"화인","industry":"인테리어 디자인업","coordinates":[127.429791005534,36.3331642156137],"sales":{"202602":1023}},{"id":"MA010120220805554465","name":"계영제과","industry":"슈퍼마켓","coordinates":[127.432331655381,36.3293520892235],"sales":{"202602":17579}},{"id":"MA010120220805559137","name":"중부인쇄기획","industry":"명함/간판/광고물 제작","coordinates":[127.431276994777,36.3319873339959],"sales":{"202602":499}},{"id":"MA010120220805569150","name":"복비디오만화","industry":"만화방","coordinates":[127.43156303319,36.3353837341233],"sales":{}},{"id":"MA010120220805607968","name":"혁신도시황금공인중개사사무소","industry":"부동산 중개/대리업","coordinates":[127.438550330222,36.3280858103977],"sales":{"202602":41}},{"id":"MA010120220805618605","name":"복순도가","industry":"슈퍼마켓","coordinates":[127.432103468514,36.3344175235728],"sales":{"202602":5332}},{"id":"MA010120220805646409","name":"속옷세상","industry":"기타 의류 소매업","coordinates":[127.431169457853,36.3306629930764],"sales":{"202602":1826}},{"id":"MA010120220805648530","name":"장군님닭","industry":"치킨","coordinates":[127.431364713259,36.3297160534325],"sales":{"202602":5422}},{"id":"MA010120220805689893","name":"부부상점","industry":"기타 의류 소매업","coordinates":[127.430581937953,36.3291421230366],"sales":{"202602":1547}},{"id":"MA010120220805708361","name":"중앙미용실","industry":"미용실","coordinates":[127.433761150275,36.3280492159326],"sales":{"202602":115}},{"id":"MA010120220805738296","name":"오씨칼국수","industry":"국수/칼국수","coordinates":[127.433793362208,36.3278328166591],"sales":{"202602":2447}},{"id":"MA010120220805738847","name":"월드하우스","industry":"기타 의류 소매업","coordinates":[127.432204916556,36.3285865476093],"sales":{"202602":2818}},{"id":"MA010120220805739363","name":"세기보청기","industry":"의료기기 소매업","coordinates":[127.432208810794,36.3313080859497],"sales":{"202602":1931}},{"id":"MA010120220805739589","name":"참새와방앗간","industry":"떡/한과","coordinates":[127.440517604927,36.3313318215292],"sales":{"202602":1005}},{"id":"MA010120220805740837","name":"만물상회","industry":"액세서리/잡화 소매업","coordinates":[127.43732203773,36.3295051576108],"sales":{"202602":247}},{"id":"MA010120220805741503","name":"디케이홈","industry":"침구류/커튼 소매업","coordinates":[127.433358723795,36.3277803227114],"sales":{"202602":372}},{"id":"MA010120220805741515","name":"김가네왕꽈배기","industry":"빵/도넛","coordinates":[127.43364343787,36.3289147724675],"sales":{"202602":777}},{"id":"MA010120220805741822","name":"화장품나라","industry":"화장품 소매업","coordinates":[127.43354400321,36.329059321408],"sales":{"202602":2692}},{"id":"MA010120220805741990","name":"제인바디아트","industry":"마사지/안마","coordinates":[127.432130699736,36.3312813331054],"sales":{"202602":548}},{"id":"MA010120220805742429","name":"유성문화사","industry":"명함/간판/광고물 제작","coordinates":[127.429477312838,36.3348595537261],"sales":{"202602":802}},{"id":"MA010120220805742969","name":"한아름직물","industry":"실/섬유제품 소매업","coordinates":[127.433954319359,36.3267327968907],"sales":{"202602":476}},{"id":"MA010120220805743190","name":"청화사","industry":"화장품 소매업","coordinates":[127.43271191186,36.3296390896096],"sales":{"202602":439}},{"id":"MA010120220805743200","name":"가야개발","industry":"소독, 구충 및 방제 서비스업","coordinates":[127.432204828811,36.3305871594304],"sales":{"202602":239}},{"id":"MA010120220805743247","name":"선미식당","industry":"백반/한정식","coordinates":[127.431050787681,36.3293386919081],"sales":{"202602":3826}},{"id":"MA010120220805743401","name":"오케이자원","industry":"중고 상품 소매업","coordinates":[127.434387719419,36.3285696227913],"sales":{"202602":562}},{"id":"MA010120220805743609","name":"곽미용실","industry":"미용실","coordinates":[127.431095485075,36.329365565995],"sales":{"202602":112}},{"id":"MA010120220805743641","name":"대전이용원","industry":"미용실","coordinates":[127.433529371509,36.3284285509776],"sales":{"202602":61}},{"id":"MA010120220805743741","name":"탐나라","industry":"신발 소매업","coordinates":[127.431169457853,36.3306629930764],"sales":{"202602":1718}},{"id":"MA010120220805743759","name":"노총이용원","industry":"미용실","coordinates":[127.435230673273,36.3279447445152],"sales":{"202602":144}},{"id":"MA010120220805744355","name":"평화유통","industry":"장난감 소매업","coordinates":[127.43254699643,36.330027192355],"sales":{"202602":29005}},{"id":"MA010120220805744403","name":"수미용실","industry":"미용실","coordinates":[127.434090219594,36.3291474565208],"sales":{"202602":299}},{"id":"MA010120220805744423","name":"번개오토바이센타","industry":"모터사이클 수리업","coordinates":[127.439492405261,36.3352016387759],"sales":{"202602":594}},{"id":"MA010120220805744534","name":"대구세탁소","industry":"세탁소","coordinates":[127.431249244339,36.3330147747099],"sales":{"202602":156}},{"id":"MA010120220805744726","name":"충남스포츠","industry":"기타 의류 소매업","coordinates":[127.431803637668,36.3305435507038],"sales":{"202602":1291}},{"id":"MA010120220805744740","name":"수복상회","industry":"슈퍼마켓","coordinates":[127.433724899016,36.3355741667872],"sales":{"202602":15687}},{"id":"MA010120220805744860","name":"대전한우","industry":"소고기 구이/찜","coordinates":[127.430528799431,36.3316295610236],"sales":{"202602":1918}},{"id":"MA010120220805744912","name":"싸지롱일호네","industry":"여성 의류 소매업","coordinates":[127.432663526744,36.3289453589567],"sales":{"202602":464}},{"id":"MA010120220805745164","name":"힘기획","industry":"명함/간판/광고물 제작","coordinates":[127.427946786517,36.3340179385988],"sales":{"202602":886}},{"id":"MA010120220805745827","name":"현대세차장","industry":"자동차 정비소","coordinates":[127.430270433212,36.3352802535709],"sales":{"202602":1606}},{"id":"MA010120220805746083","name":"에이그래픽스","industry":"광고물 설계/제작업","coordinates":[127.429668887145,36.3332367487646],"sales":{"202602":555}},{"id":"MA010120220805746091","name":"남강인쇄","industry":"명함/간판/광고물 제작","coordinates":[127.428657432436,36.3336188745538],"sales":{"202602":585}},{"id":"MA010120220805746098","name":"명재사","industry":"기념품점","coordinates":[127.432757806055,36.3298822410515],"sales":{"202602":575}},{"id":"MA010120220805746148","name":"청나라","industry":"여성 의류 소매업","coordinates":[127.431169457853,36.3306629930764],"sales":{"202602":71}},{"id":"MA010120220805746175","name":"금정","industry":"시계/귀금속 소매업","coordinates":[127.432148196776,36.3304161407242],"sales":{"202602":2692}},{"id":"MA010120220805746223","name":"나르시스","industry":"기념품점","coordinates":[127.430421127013,36.3302781845099],"sales":{"202602":1213}},{"id":"MA010120220805746368","name":"별채","industry":"요리 주점","coordinates":[127.43130583739,36.3311581479164],"sales":{"202602":538}},{"id":"MA010120220805746503","name":"재경양품","industry":"기타 의류 소매업","coordinates":[127.432217944898,36.3289289475588],"sales":{"202602":1860}},{"id":"MA010120220805746534","name":"경남침구","industry":"침구류/커튼 소매업","coordinates":[127.432744351061,36.3274491132928],"sales":{"202602":826}},{"id":"MA010120220805746839","name":"새꽃수족관","industry":"애완동물/애완용품 소매업","coordinates":[127.432851560734,36.3287103722691],"sales":{"202602":451}},{"id":"MA010120220805747057","name":"손미용실","industry":"미용실","coordinates":[127.433176878888,36.329132746615],"sales":{"202602":107}},{"id":"MA010120220805747083","name":"자양상회","industry":"슈퍼마켓","coordinates":[127.432217944898,36.3289289475588],"sales":{"202602":25318}},{"id":"MA010120220805747139","name":"중도양품","industry":"기타 의류 소매업","coordinates":[127.432217944898,36.3289289475588],"sales":{"202602":1239}},{"id":"MA010120220805747170","name":"한사랑약국","industry":"약국","coordinates":[127.428211569866,36.3315207326475],"sales":{"202602":4713}},{"id":"MA010120220805747242","name":"땡이네","industry":"기타 의류 소매업","coordinates":[127.432177726513,36.3297131164513],"sales":{"202602":1255}},{"id":"MA010120220805747426","name":"독일약국","industry":"약국","coordinates":[127.433136171232,36.3298267999195],"sales":{"202602":4160}},{"id":"MA010120220805747437","name":"청룡제과원동점","industry":"빵/도넛","coordinates":[127.434812399036,36.3268288078902],"sales":{"202602":1505}},{"id":"MA010120220805747513","name":"은성장","industry":"여관/모텔","coordinates":[127.430927344706,36.3332141944538],"sales":{"202602":1198}},{"id":"MA010120220805748169","name":"공주사","industry":"여성 의류 소매업","coordinates":[127.431517006049,36.3290576449236],"sales":{"202602":231}},{"id":"MA010120220805748435","name":"남성오토바이쎈타","industry":"모터사이클 및 부품 소매업","coordinates":[127.434399488836,36.326677109221],"sales":{"202602":941}},{"id":"MA010120220805748598","name":"호돌이만두","industry":"김밥/만두/분식","coordinates":[127.438104197331,36.3279702935515],"sales":{"202602":1826}},{"id":"MA010120220805748728","name":"기영광고기획","industry":"광고물 설계/제작업","coordinates":[127.429030511865,36.3346268527774],"sales":{"202602":617}},{"id":"MA010120220805748757","name":"한밭떡집","industry":"떡/한과","coordinates":[127.433682092885,36.3298608673637],"sales":{"202602":1255}},{"id":"MA010120220805748858","name":"태극출판인쇄사","industry":"명함/간판/광고물 제작","coordinates":[127.429356043303,36.3330576378483],"sales":{"202602":437}},{"id":"MA010120220805748873","name":"큰별통신","industry":"핸드폰 소매업","coordinates":[127.431169457853,36.3306629930764],"sales":{"202602":115}},{"id":"MA010120220805748946","name":"극동오디오","industry":"가전제품 소매업","coordinates":[127.427845266501,36.3317473385098],"sales":{"202602":1099}},{"id":"MA010120220805749053","name":"조선옥식당","industry":"백반/한정식","coordinates":[127.432123076195,36.327883925804],"sales":{"202602":3504}},{"id":"MA010120220805749127","name":"스타식당","industry":"백반/한정식","coordinates":[127.433309575813,36.3289610421059],"sales":{"202602":258}},{"id":"MA010120220805749162","name":"바이타임","industry":"요리 주점","coordinates":[127.440517604927,36.3313318215292],"sales":{"202602":506}},{"id":"MA010120220805749340","name":"코끼리아동복","industry":"유아용 의류 소매업","coordinates":[127.432232864817,36.3296137876685],"sales":{"202602":169}},{"id":"MA010120220805749599","name":"별보석금나라","industry":"시계/귀금속 소매업","coordinates":[127.431724980608,36.3304176701745],"sales":{"202602":1214}},{"id":"MA010120220805749635","name":"지선네","industry":"여성 의류 소매업","coordinates":[127.431934847715,36.3301015002368],"sales":{"202602":132}},{"id":"MA010120220805749642","name":"소망","industry":"여성 의류 소매업","coordinates":[127.432665121115,36.3292337296369],"sales":{"202602":274}},{"id":"MA010120220805749643","name":"현대종합신발","industry":"신발 소매업","coordinates":[127.43254699643,36.330027192355],"sales":{"202602":4776}},{"id":"MA010120220805749668","name":"코끼리왕만두","industry":"김밥/만두/분식","coordinates":[127.432331655381,36.3293520892235],"sales":{"202602":2235}},{"id":"MA010120220805749705","name":"빅아이","industry":"신발 소매업","coordinates":[127.43364343787,36.3289147724675],"sales":{"202602":1142}},{"id":"MA010120220805749765","name":"명동패션","industry":"여성 의류 소매업","coordinates":[127.433340392113,36.3284923186337],"sales":{"202602":314}},{"id":"MA010120220805749785","name":"우리손칼국수","industry":"국수/칼국수","coordinates":[127.430493188266,36.3292055250769],"sales":{"202602":2099}},{"id":"MA010120220805749817","name":"못난이","industry":"의류/이불 수선업","coordinates":[127.430421127013,36.3302781845099],"sales":{"202602":46}},{"id":"MA010120220805750066","name":"시트하우스","industry":"벽지/장판/마루 소매업","coordinates":[127.426997369727,36.3335256875897],"sales":{"202602":194}},{"id":"MA010120220805750139","name":"커먼프라자","industry":"여성 의류 소매업","coordinates":[127.430421127013,36.3302781845099],"sales":{"202602":567}},{"id":"MA010120220805750454","name":"센스","industry":"기타 의류 소매업","coordinates":[127.432333895785,36.3297576104786],"sales":{"202602":938}},{"id":"MA010120220805750586","name":"금오전기철물","industry":"철물/공구 소매업","coordinates":[127.426997369727,36.3335256875897],"sales":{"202602":504}},{"id":"MA010120220805750671","name":"영광여인숙","industry":"여관/모텔","coordinates":[127.43085689622,36.3325565900269],"sales":{"202602":705}},{"id":"MA010120220805750875","name":"최윤미용실","industry":"미용실","coordinates":[127.433499904205,36.3291405872331],"sales":{"202602":127}},{"id":"MA010120220805750940","name":"돼지마을","industry":"돼지고기 구이/찜","coordinates":[127.430576543212,36.3342337874095],"sales":{"202602":1275}},{"id":"MA010120220805751028","name":"골드박스","industry":"시계/귀금속 소매업","coordinates":[127.431835706784,36.3303001172562],"sales":{"202602":4488}},{"id":"MA010120220805751066","name":"아리랑생불고기","industry":"돼지고기 구이/찜","coordinates":[127.437815393887,36.3281065282353],"sales":{"202602":2602}},{"id":"MA010120220805751110","name":"정성당","industry":"시계/귀금속 소매업","coordinates":[127.43232605993,36.3323710495894],"sales":{"202602":1059}},{"id":"MA010120220805751345","name":"목포여인숙","industry":"여관/모텔","coordinates":[127.430995877074,36.3315017129765],"sales":{"202602":166}},{"id":"MA010120220805751436","name":"중앙다방","industry":"카페","coordinates":[127.431177019975,36.3300141188768],"sales":{"202602":119}},{"id":"MA010120220805751765","name":"란기획","industry":"명함/간판/광고물 제작","coordinates":[127.430817605463,36.3335119780982],"sales":{"202602":672}},{"id":"MA010120220805751826","name":"광일슈퍼","industry":"슈퍼마켓","coordinates":[127.432474016392,36.3309286326546],"sales":{"202602":61088}},{"id":"MA010120220805751983","name":"사랑사","industry":"가전제품 소매업","coordinates":[127.431601178356,36.3301838114676],"sales":{"202602":309}},{"id":"MA010120220805752297","name":"화개장터","industry":"가방 소매업","coordinates":[127.431169457853,36.3306629930764],"sales":{"202602":466}},{"id":"MA010120220805752304","name":"동양타올산업","industry":"침구류/커튼 소매업","coordinates":[127.433358723795,36.3277803227114],"sales":{"202602":411}},{"id":"MA010120220805752491","name":"중앙보청기","industry":"의료기기 소매업","coordinates":[127.432198569343,36.3314703346791],"sales":{"202602":4274}},{"id":"MA010120220805752617","name":"정","industry":"화장품 소매업","coordinates":[127.431952059745,36.3332195071685],"sales":{"202602":975}},{"id":"MA010120220805752646","name":"새서울","industry":"꽃집","coordinates":[127.432665121115,36.3292337296369],"sales":{"202602":162}},{"id":"MA010120220805752698","name":"남광사","industry":"주방/가정용품 소매업","coordinates":[127.431879758429,36.3302098404619],"sales":{"202602":355}},{"id":"MA010120220805752829","name":"내가가고싶은현대카클리닉","industry":"자동차 정비소","coordinates":[127.440566112077,36.3320345598108],"sales":{"202602":245}},{"id":"MA010120220805752841","name":"은하칼국수","industry":"국수/칼국수","coordinates":[127.432026632146,36.3305878036791],"sales":{"202602":831}},{"id":"MA010120220805752935","name":"카피프레스","industry":"복사업","coordinates":[127.429347773736,36.3335803495739],"sales":{"202602":350}},{"id":"MA010120220805753063","name":"군산여인숙","industry":"여관/모텔","coordinates":[127.431423620579,36.3323202399371],"sales":{"202602":621}},{"id":"MA010120220805753153","name":"아트박스","industry":"명함/간판/광고물 제작","coordinates":[127.437956742385,36.3374421903114],"sales":{"202602":757}},{"id":"MA010120220805753154","name":"서울이용특수가발","industry":"가발 소매업","coordinates":[127.432012069204,36.33198467928],"sales":{"202602":956}},{"id":"MA010120220805753275","name":"호진상회","industry":"기타 의류 소매업","coordinates":[127.432232864817,36.3296137876685],"sales":{"202602":845}},{"id":"MA010120220805753400","name":"올스타","industry":"요리 주점","coordinates":[127.431662183634,36.3311478497034],"sales":{"202602":231}},{"id":"MA010120220805753503","name":"우리상회","industry":"기타 의류 소매업","coordinates":[127.432413947458,36.3301358149334],"sales":{"202602":2465}},{"id":"MA010120220805753869","name":"경덕이네","industry":"기타 의류 소매업","coordinates":[127.432177726513,36.3297131164513],"sales":{"202602":608}},{"id":"MA010120220805754106","name":"천하명당복권방","industry":"복권 발행/판매업","coordinates":[127.431891894617,36.3324086663056],"sales":{"202602":156}},{"id":"MA010120220805754174","name":"흥진산업","industry":"광고물 설계/제작업","coordinates":[127.426997369727,36.3335256875897],"sales":{"202602":301}},{"id":"MA010120220805754207","name":"정하네","industry":"기타 의류 소매업","coordinates":[127.432378245308,36.3297214029975],"sales":{"202602":2295}},{"id":"MA010120220805754734","name":"석정뼈대가","industry":"백반/한정식","coordinates":[127.438805492189,36.3358530089371],"sales":{"202602":1035}},{"id":"MA010120220805754840","name":"갠조","industry":"기타 의류 소매업","coordinates":[127.432177726513,36.3297131164513],"sales":{"202602":1746}},{"id":"MA010120220805754872","name":"희망여인숙","industry":"여관/모텔","coordinates":[127.430624147866,36.3327646993084],"sales":{"202602":551}},{"id":"MA010120220805755158","name":"선물의집","industry":"액세서리/잡화 소매업","coordinates":[127.431169457853,36.3306629930764],"sales":{"202602":157}},{"id":"MA010120220805755347","name":"원금당","industry":"시계/귀금속 소매업","coordinates":[127.431169457853,36.3306629930764],"sales":{"202602":1034}},{"id":"MA010120220805755490","name":"유진보석","industry":"시계/귀금속 소매업","coordinates":[127.431993469018,36.3306329823575],"sales":{"202602":1786}},{"id":"MA010120220805755504","name":"대성전단지","industry":"기타 광고 관련 서비스업","coordinates":[127.44020173784,36.328638469051],"sales":{"202602":474}},{"id":"MA010120220805755572","name":"원진네","industry":"기타 의류 소매업","coordinates":[127.43229928947,36.329541453329],"sales":{"202602":954}},{"id":"MA010120220805755582","name":"세담기획","industry":"명함/간판/광고물 제작","coordinates":[127.427946786517,36.3340179385988],"sales":{"202602":1674}},{"id":"MA010120220805755802","name":"한독약국","industry":"약국","coordinates":[127.430556955699,36.3306742128502],"sales":{"202602":9385}},{"id":"MA010120220805755851","name":"대원여인숙","industry":"여관/모텔","coordinates":[127.4309526178,36.3317361747476],"sales":{"202602":395}},{"id":"MA010120220805755925","name":"해광상회","industry":"수산물 소매업","coordinates":[127.430915653604,36.3290688262453],"sales":{"202602":5697}},{"id":"MA010120220805755944","name":"스텔라","industry":"여성 의류 소매업","coordinates":[127.431169457853,36.3306629930764],"sales":{"202602":125}},{"id":"MA010120220805755982","name":"번성상회","industry":"기타 의류 소매업","coordinates":[127.432217944898,36.3289289475588],"sales":{"202602":3775}},{"id":"MA010120220805756209","name":"오시네","industry":"여성 의류 소매업","coordinates":[127.430421127013,36.3302781845099],"sales":{"202602":142}},{"id":"MA010120220805756308","name":"전기줄위의참새","industry":"백반/한정식","coordinates":[127.432055574225,36.3317952750577],"sales":{"202602":749}},{"id":"MA010120220805757854","name":"금성철물","industry":"철물/공구 소매업","coordinates":[127.438358982068,36.3376660093515],"sales":{"202602":1290}},{"id":"MA010120220805757913","name":"추억의김삿갓","industry":"카페","coordinates":[127.432198569343,36.3314703346791],"sales":{"202602":749}},{"id":"MA010120220805758065","name":"신영상회","industry":"기타 의류 소매업","coordinates":[127.433358723795,36.3277803227114],"sales":{"202602":1102}},{"id":"MA010120220805758082","name":"모텔파인파크","industry":"여관/모텔","coordinates":[127.431729952552,36.3313188283927],"sales":{"202602":344}},{"id":"MA010120220805758269","name":"헬렌","industry":"침구류/커튼 소매업","coordinates":[127.433238662518,36.3282223344654],"sales":{"202602":1068}},{"id":"MA010120220805758890","name":"건강클리닉","industry":"유사 의료업","coordinates":[127.430443881013,36.3344145004113],"sales":{"202602":549}},{"id":"MA010120220805758948","name":"소영상회","industry":"기타 의류 소매업","coordinates":[127.432378245308,36.3297214029975],"sales":{"202602":1113}},{"id":"MA010120220805759249","name":"태전한약방","industry":"건강보조식품 소매업","coordinates":[127.430200968458,36.3327752350278],"sales":{"202602":1481}},{"id":"MA010120220805759310","name":"화신상회","industry":"기타 의류 소매업","coordinates":[127.433499904205,36.3291405872331],"sales":{"202602":971}},{"id":"MA010120220805759320","name":"영바지","industry":"여성 의류 소매업","coordinates":[127.430421127013,36.3302781845099],"sales":{"202602":218}},{"id":"MA010120220805759571","name":"세종디자인기획인쇄","industry":"명함/간판/광고물 제작","coordinates":[127.430248888483,36.3333878621431],"sales":{"202602":318}},{"id":"MA010120220805759587","name":"아문젠콜렉션","industry":"그 외 기타 개인/가정용품 수리업","coordinates":[127.433417552499,36.3283478506227],"sales":{"202602":194}},{"id":"MA010120220805759707","name":"대동약국","industry":"약국","coordinates":[127.432130699736,36.3312813331054],"sales":{"202602":1934}},{"id":"MA010120220805759843","name":"러브러브","industry":"여성 의류 소매업","coordinates":[127.431169457853,36.3306629930764],"sales":{"202602":483}},{"id":"MA010120220805759846","name":"모던의류잡화","industry":"남성 의류 소매업","coordinates":[127.432177726513,36.3297131164513],"sales":{"202602":1306}},{"id":"MA010120220805759847","name":"A+에이플러스광고","industry":"광고물 설계/제작업","coordinates":[127.429386775358,36.3345985380882],"sales":{"202602":651}},{"id":"MA010120220805759873","name":"가방공판장","industry":"가방 소매업","coordinates":[127.432002467047,36.3302454440552],"sales":{"202602":476}},{"id":"MA010120220805759914","name":"복권방","industry":"복권 발행/판매업","coordinates":[127.43255118074,36.3307841652349],"sales":{"202602":179}},{"id":"MA010120220805760240","name":"가람노래연습실","industry":"노래방","coordinates":[127.431734129155,36.3320758011902],"sales":{"202602":346}},{"id":"MA010120220805760244","name":"현대광고기획","industry":"명함/간판/광고물 제작","coordinates":[127.427995968548,36.3328282102636],"sales":{"202602":461}},{"id":"MA010120220805760272","name":"승차권판매소","industry":"기타 여행 보조/예약 서비스업","coordinates":[127.429954204234,36.3304330650493],"sales":{}},{"id":"MA010120220805760380","name":"천하명당홍명복권방","industry":"복권 발행/판매업","coordinates":[127.432012069204,36.33198467928],"sales":{"202602":237}},{"id":"MA010120220805760405","name":"한밭식당","industry":"백반/한정식","coordinates":[127.430926124482,36.3309702705582],"sales":{"202602":2838}},{"id":"MA010120220805760490","name":"윤돌이낙원","industry":"시계/귀금속 소매업","coordinates":[127.431835706784,36.3303001172562],"sales":{"202602":650}},{"id":"MA010120220805760670","name":"별난단추","industry":"실/섬유제품 소매업","coordinates":[127.432792513477,36.3301164212107],"sales":{"202602":721}},{"id":"MA010120220805761031","name":"금성삼계탕","industry":"국/탕/찌개류","coordinates":[127.428760711088,36.3321405754855],"sales":{"202602":1673}},{"id":"MA010120220805761079","name":"얼큰이칼국수","industry":"국수/칼국수","coordinates":[127.438958037039,36.3352486613684],"sales":{"202602":838}},{"id":"MA010120220805761233","name":"우리정보통신","industry":"핸드폰 소매업","coordinates":[127.430421127013,36.3302781845099],"sales":{"202602":335}},{"id":"MA010120220805761255","name":"피코코","industry":"신발 소매업","coordinates":[127.430421127013,36.3302781845099],"sales":{"202602":2026}},{"id":"MA010120220805761264","name":"전자종합","industry":"가전제품 소매업","coordinates":[127.431936141012,36.3303358013926],"sales":{"202602":351}},{"id":"MA010120220805761282","name":"골드매니아","industry":"시계/귀금속 소매업","coordinates":[127.431869914295,36.3304441818582],"sales":{"202602":2585}},{"id":"MA010120220805761339","name":"라쿠퍼Ⅲ","industry":"명함/간판/광고물 제작","coordinates":[127.428504613515,36.3341871633273],"sales":{"202602":1012}},{"id":"MA010120220805761495","name":"연지다방","industry":"카페","coordinates":[127.430223007239,36.3347577424486],"sales":{"202602":556}},{"id":"MA010120220805761499","name":"장미다방","industry":"카페","coordinates":[127.431650549152,36.3310577741075],"sales":{"202602":326}},{"id":"MA010120220805761827","name":"유리네","industry":"기타 의류 소매업","coordinates":[127.431996895188,36.3292361466963],"sales":{"202602":2315}},{"id":"MA010120220805761858","name":"동해아구찜","industry":"해산물 구이/찜","coordinates":[127.429835357317,36.3311003629494],"sales":{"202602":2015}},{"id":"MA010120220805762059","name":"손공예사","industry":"가구 소매업","coordinates":[127.431256880402,36.3283376425589],"sales":{"202602":4864}},{"id":"MA010120220805762332","name":"훈복이네","industry":"기타 의류 소매업","coordinates":[127.432232864817,36.3296137876685],"sales":{"202602":1612}},{"id":"MA010120220805762374","name":"조은통신","industry":"핸드폰 소매업","coordinates":[127.431169457853,36.3306629930764],"sales":{"202602":202}},{"id":"MA010120220805762781","name":"우림부동산","industry":"부동산 중개/대리업","coordinates":[127.439186562868,36.3362751615153],"sales":{"202602":87}},{"id":"MA010120220805762789","name":"대전출력","industry":"명함/간판/광고물 제작","coordinates":[127.428980031278,36.3335456230282],"sales":{"202602":2184}},{"id":"MA010120220805762809","name":"김화식당","industry":"백반/한정식","coordinates":[127.431021130295,36.3320423275497],"sales":{"202602":355}},{"id":"MA010120220805762929","name":"동원여인숙","industry":"여관/모텔","coordinates":[127.434802041572,36.3289736456697],"sales":{"202602":848}},{"id":"MA010120220805762936","name":"미광인쇄사","industry":"광고 대행업","coordinates":[127.430019200906,36.3321270424316],"sales":{"202602":269}},{"id":"MA010120220805762940","name":"태리안","industry":"명함/간판/광고물 제작","coordinates":[127.429934309627,36.332893347427],"sales":{"202602":927}},{"id":"MA010120220805762992","name":"삼성이동통신","industry":"핸드폰 소매업","coordinates":[127.432744351061,36.3274491132928],"sales":{"202602":315}},{"id":"MA010120220805763154","name":"동신스폰지","industry":"주방/가정용품 소매업","coordinates":[127.433634449655,36.3272926873327],"sales":{"202602":933}},{"id":"MA010120220805763287","name":"미화기획","industry":"명함/간판/광고물 제작","coordinates":[127.426762592917,36.3333643144649],"sales":{"202602":911}},{"id":"MA010120220805763322","name":"아란비뷰티","industry":"주방/가정용품 소매업","coordinates":[127.431240863551,36.3294731827255],"sales":{"202602":961}},{"id":"MA010120220805763462","name":"C.M.G","industry":"시계/귀금속 소매업","coordinates":[127.432070833004,36.3305245615661],"sales":{"202602":1877}},{"id":"MA010120220805763569","name":"오월문화사","industry":"명함/간판/광고물 제작","coordinates":[127.429712497494,36.3330653685548],"sales":{"202602":714}},{"id":"MA010120220805763687","name":"도모","industry":"기타 의류 소매업","coordinates":[127.431169457853,36.3306629930764],"sales":{"202602":1902}},{"id":"MA010120220805763802","name":"포토사랑","industry":"사진촬영업","coordinates":[127.431169457853,36.3306629930764],"sales":{"202602":635}},{"id":"MA010120220805763858","name":"효성종합인쇄사","industry":"명함/간판/광고물 제작","coordinates":[127.430223007239,36.3347577424486],"sales":{"202602":280}},{"id":"MA010120220805763975","name":"아씨방","industry":"여성 의류 소매업","coordinates":[127.430421127013,36.3302781845099],"sales":{"202602":374}},{"id":"MA010120220805763991","name":"클푸","industry":"침구류/커튼 소매업","coordinates":[127.432883177261,36.3283858342323],"sales":{"202602":2037}},{"id":"MA010120220805764002","name":"국일세탁소","industry":"세탁소","coordinates":[127.428762017723,36.3344115341192],"sales":{"202602":228}},{"id":"MA010120220805764011","name":"천흥여인숙","industry":"여관/모텔","coordinates":[127.435511703846,36.3284123326091],"sales":{"202602":1555}},{"id":"MA010120220805764097","name":"이모칼국수","industry":"국수/칼국수","coordinates":[127.429957076108,36.330955736953],"sales":{"202602":702}},{"id":"MA010120220805764116","name":"라성여관","industry":"여관/모텔","coordinates":[127.434853570592,36.3282254817892],"sales":{"202602":939}},{"id":"MA010120220805764171","name":"몽실","industry":"여성 의류 소매업","coordinates":[127.431169457853,36.3306629930764],"sales":{"202602":148}},{"id":"MA010120220805764214","name":"가오공인중개사사무소","industry":"부동산 중개/대리업","coordinates":[127.438892877614,36.3355462884982],"sales":{"202602":64}},{"id":"MA010120220805764231","name":"상덕사","industry":"주방/가정용품 소매업","coordinates":[127.432102105097,36.330136942728],"sales":{"202602":369}},{"id":"MA010120220805764263","name":"BYC왕자상회","industry":"기타 의류 소매업","coordinates":[127.432273779511,36.3289557809317],"sales":{"202602":634}},{"id":"MA010120220805764387","name":"신도다방","industry":"카페","coordinates":[127.432359024411,36.3322898245112],"sales":{"202602":521}},{"id":"MA010120220805764413","name":"옥천식당","industry":"백반/한정식","coordinates":[127.431675858014,36.3295887653958],"sales":{"202602":2146}},{"id":"MA010120220805764476","name":"시민상회","industry":"슈퍼마켓","coordinates":[127.433729938234,36.3304554700497],"sales":{"202602":25781}},{"id":"MA010120220805764573","name":"로또잭팟금정사","industry":"복권 발행/판매업","coordinates":[127.438067317585,36.3372975970591],"sales":{"202602":66}},{"id":"MA010120220805764758","name":"오뚜기순대","industry":"국/탕/찌개류","coordinates":[127.431519242208,36.3294631662423],"sales":{"202602":481}},{"id":"MA010120220805764780","name":"유정아구탕식당","industry":"백반/한정식","coordinates":[127.429101755418,36.3334009979261],"sales":{"202602":547}},{"id":"MA010120220805764840","name":"시작커뮤니케이션","industry":"광고물 설계/제작업","coordinates":[127.427983352183,36.3325579026312],"sales":{"202602":431}},{"id":"MA010120220805764918","name":"오렌지","industry":"화장품 소매업","coordinates":[127.430219318805,36.3300355934779],"sales":{"202602":1184}},{"id":"MA010120220805765272","name":"대전밀라노","industry":"기타 의류 소매업","coordinates":[127.432217944898,36.3289289475588],"sales":{"202602":900}},{"id":"MA010120220805765329","name":"２０세기","industry":"여성 의류 소매업","coordinates":[127.431169457853,36.3306629930764],"sales":{"202602":307}},{"id":"MA010120220805765402","name":"이모집","industry":"요리 주점","coordinates":[127.431755210237,36.3298408081541],"sales":{"202602":582}},{"id":"MA010120220805765535","name":"라일락","industry":"여성 의류 소매업","coordinates":[127.431169457853,36.3306629930764],"sales":{"202602":34}},{"id":"MA010120220805765603","name":"미래바이오","industry":"건어물/젓갈 소매업","coordinates":[127.43354400321,36.329059321408],"sales":{"202602":1898}},{"id":"MA010120220805765614","name":"각국옷나라","industry":"중고 상품 소매업","coordinates":[127.431320561949,36.329788306878],"sales":{"202602":111}},{"id":"MA010120220805765644","name":"한밭의료기","industry":"의료기기 소매업","coordinates":[127.431649105593,36.3328150725595],"sales":{"202602":1923}},{"id":"MA010120220805765799","name":"남도장여관","industry":"여관/모텔","coordinates":[127.4302673481,36.3326938902441],"sales":{"202602":312}},{"id":"MA010120220805766112","name":"공익사","industry":"기타 의류 소매업","coordinates":[127.432703490809,36.3281161319097],"sales":{"202602":2977}},{"id":"MA010120220805766196","name":"대륙공구","industry":"철물/공구 소매업","coordinates":[127.432318960603,36.3270541349216],"sales":{"202602":730}},{"id":"MA010120220805766253","name":"시대남성패션","industry":"핸드폰 소매업","coordinates":[127.431169457853,36.3306629930764],"sales":{"202602":417}},{"id":"MA010120220805766290","name":"홍가네칼국수","industry":"국수/칼국수","coordinates":[127.430235460232,36.3309457234261],"sales":{"202602":1821}},{"id":"MA010120220805766369","name":"충청여인숙","industry":"여관/모텔","coordinates":[127.435610180972,36.3280965619956],"sales":{"202602":390}},{"id":"MA010120220805766404","name":"조은컴퓨터","industry":"컴퓨터/노트북/프린터 수리업","coordinates":[127.439186562868,36.3362751615153],"sales":{"202602":1103}},{"id":"MA010120220805766448","name":"동구상회","industry":"슈퍼마켓","coordinates":[127.433634449655,36.3272926873327],"sales":{"202602":80592}},{"id":"MA010120220805766493","name":"미가즉석김구이","industry":"반찬/식료품 소매업","coordinates":[127.433729938234,36.3304554700497],"sales":{"202602":1004}},{"id":"MA010120220805766784","name":"기독교","industry":"서점","coordinates":[127.430528799431,36.3316295610236],"sales":{"202602":10606}},{"id":"MA010120220805766807","name":"신새한기사식당","industry":"백반/한정식","coordinates":[127.43927420024,36.3360134986533],"sales":{"202602":713}},{"id":"MA010120220805766991","name":"홍명디지탈","industry":"가전제품 소매업","coordinates":[127.431169457853,36.3306629930764],"sales":{"202602":671}},{"id":"MA010120220805767001","name":"정동상회","industry":"슈퍼마켓","coordinates":[127.431596198553,36.3353385555851],"sales":{"202602":8392}},{"id":"MA010120220805767202","name":"영기획","industry":"명함/간판/광고물 제작","coordinates":[127.429198123714,36.3347253803062],"sales":{"202602":828}},{"id":"MA010120220805767204","name":"멋쟁이","industry":"기타 의류 소매업","coordinates":[127.432217944898,36.3289289475588],"sales":{"202602":1814}},{"id":"MA010120220805767276","name":"현대앵글진열장","industry":"철물/공구 소매업","coordinates":[127.435986820268,36.3257341059909],"sales":{"202602":675}},{"id":"MA010120220805767722","name":"순흥식당","industry":"백반/한정식","coordinates":[127.437995249164,36.3284032574891],"sales":{"202602":1065}},{"id":"MA010120220805767750","name":"쥬얼리정금","industry":"시계/귀금속 소매업","coordinates":[127.432744351061,36.3274491132928],"sales":{"202602":1075}},{"id":"MA010120220805767924","name":"모스트프린트","industry":"명함/간판/광고물 제작","coordinates":[127.428083984808,36.3326296363192],"sales":{"202602":333}},{"id":"MA010120220805768254","name":"동보종합목공","industry":"철물/공구 소매업","coordinates":[127.432131526048,36.3273972598647],"sales":{"202602":684}},{"id":"MA010120220805768261","name":"쥬델","industry":"시계/귀금속 소매업","coordinates":[127.43034984318,36.3294673824567],"sales":{"202602":1854}},{"id":"MA010120220805768323","name":"명중원단","industry":"실/섬유제품 소매업","coordinates":[127.433358723795,36.3277803227114],"sales":{"202602":756}},{"id":"MA010120220805768360","name":"지오엠미디어","industry":"가전제품 소매업","coordinates":[127.433954319359,36.3267327968907],"sales":{"202602":891}},{"id":"MA010120220805768511","name":"엘리패션","industry":"기타 의류 소매업","coordinates":[127.432389083715,36.3296672932087],"sales":{"202602":1541}},{"id":"MA010120220805768647","name":"아나이스원동점","industry":"침구류/커튼 소매업","coordinates":[127.432744351061,36.3274491132928],"sales":{"202602":579}},{"id":"MA010120220805768657","name":"버스정류장","industry":"백반/한정식","coordinates":[127.440274255707,36.3316301062025],"sales":{"202602":873}},{"id":"MA010120220805768672","name":"대명물산","industry":"건강보조식품 소매업","coordinates":[127.435320269838,36.3280345358783],"sales":{"202602":479}},{"id":"MA010120220805768852","name":"올포유","industry":"여성 의류 소매업","coordinates":[127.430421127013,36.3302781845099],"sales":{"202602":91}},{"id":"MA010120220805768969","name":"미광사","industry":"액세서리/잡화 소매업","coordinates":[127.432757806055,36.3298822410515],"sales":{"202602":881}},{"id":"MA010120220805769016","name":"한복대여점","industry":"의류 대여업","coordinates":[127.432217944898,36.3289289475588],"sales":{"202602":783}},{"id":"MA010120220805769137","name":"중도한약국","industry":"건강보조식품 소매업","coordinates":[127.430818869084,36.331718633408],"sales":{"202602":1130}},{"id":"MA010120220805769186","name":"홍명서적","industry":"서점","coordinates":[127.430632338022,36.3302053296074],"sales":{"202602":11983}},{"id":"MA010120220805769298","name":"광천즉석김구이","industry":"반찬/식료품 소매업","coordinates":[127.434009169692,36.3305986446092],"sales":{"202602":1521}},{"id":"MA010120220805769345","name":"디자인드바이엠","industry":"명함/간판/광고물 제작","coordinates":[127.430166168438,36.3325230310132],"sales":{"202602":519}},{"id":"MA010120220805769441","name":"남성장여관","industry":"여관/모텔","coordinates":[127.435454965935,36.3282232922824],"sales":{"202602":271}},{"id":"MA010120220805769532","name":"전통칼국수식당","industry":"국수/칼국수","coordinates":[127.43085689622,36.3325565900269],"sales":{"202602":979}},{"id":"MA010120220805769574","name":"대전모자점","industry":"액세서리/잡화 소매업","coordinates":[127.432648304319,36.3282064493383],"sales":{"202602":283}},{"id":"MA010120220805769594","name":"친친양꼬치.중국식품","industry":"중국집","coordinates":[127.43139651791,36.3334648311394],"sales":{"202602":4662}},{"id":"MA010120220805769672","name":"꽃미용실","industry":"미용실","coordinates":[127.431580589936,36.332508920178],"sales":{"202602":88}},{"id":"MA010120220805769920","name":"콩깍지","industry":"여성 의류 소매업","coordinates":[127.430421127013,36.3302781845099],"sales":{"202602":105}},{"id":"MA010120220805769970","name":"대전수족관","industry":"애완동물/애완용품 소매업","coordinates":[127.431622552969,36.3340587910505],"sales":{"202602":1084}},{"id":"MA010120220805770071","name":"애림상사","industry":"반찬/식료품 소매업","coordinates":[127.432792513477,36.3301164212107],"sales":{"202602":1080}},{"id":"MA010120220805770241","name":"김밥천국","industry":"김밥/만두/분식","coordinates":[127.432403026748,36.3321905359712],"sales":{"202602":942}},{"id":"MA010120220805770424","name":"민들레다방","industry":"카페","coordinates":[127.431831927301,36.3296152369154],"sales":{"202602":1385}},{"id":"MA010120220805770445","name":"대전어항","industry":"장난감 소매업","coordinates":[127.43876049574,36.3298152974192],"sales":{"202602":5081}},{"id":"MA010120220805770677","name":"여학생서점","industry":"문구/회화용품 소매업","coordinates":[127.438882582784,36.3376821111884],"sales":{"202602":6047}},{"id":"MA010120220805770709","name":"365~행복타운","industry":"여성 의류 소매업","coordinates":[127.431550855222,36.3331758977022],"sales":{"202602":109}},{"id":"MA010120220805771086","name":"금호상회","industry":"기타 의류 소매업","coordinates":[127.431996895188,36.3292361466963],"sales":{"202602":734}},{"id":"MA010120220805771459","name":"남도식당","industry":"백반/한정식","coordinates":[127.43140582534,36.331112728248],"sales":{"202602":275}},{"id":"MA010120220805771665","name":"미네헤어샵","industry":"미용실","coordinates":[127.438717614301,36.3301128429275],"sales":{"202602":96}},{"id":"MA010120220805772378","name":"유정식당","industry":"백반/한정식","coordinates":[127.430492313253,36.331070963234],"sales":{"202602":641}},{"id":"MA010120220805772621","name":"수정종합인테리어","industry":"벽지/장판/마루 소매업","coordinates":[127.431716379083,36.3349145690236],"sales":{"202602":454}},{"id":"MA010120220805772662","name":"승현사","industry":"기타 의류 소매업","coordinates":[127.432648304319,36.3282064493383],"sales":{"202602":582}},{"id":"MA010120220805772665","name":"빵빵전자통신악세사리","industry":"핸드폰 소매업","coordinates":[127.431169457853,36.3306629930764],"sales":{"202602":226}},{"id":"MA010120220805772763","name":"카라","industry":"액세서리/잡화 소매업","coordinates":[127.432757806055,36.3298822410515],"sales":{"202602":253}},{"id":"MA010120220805772768","name":"국제P.R","industry":"그 외 기타 종합 소매업","coordinates":[127.432311969932,36.3298207721285],"sales":{"202602":1717}},{"id":"MA010120220805773089","name":"광일무선","industry":"중고 상품 소매업","coordinates":[127.432628045869,36.3305856282748],"sales":{"202602":340}},{"id":"MA010120220805773359","name":"옥천이불","industry":"실/섬유제품 소매업","coordinates":[127.432217944898,36.3289289475588],"sales":{"202602":142}},{"id":"MA010120220805773396","name":"명문어패럴","industry":"기타 의류 소매업","coordinates":[127.432217944898,36.3289289475588],"sales":{"202602":1073}},{"id":"MA010120220805773482","name":"혜림이네","industry":"기타 의류 소매업","coordinates":[127.432217944898,36.3289289475588],"sales":{"202602":831}},{"id":"MA010120220805773827","name":"동보장","industry":"여관/모텔","coordinates":[127.428342270649,36.3330162166128],"sales":{"202602":1907}},{"id":"MA010120220805774416","name":"떡두꺼비","industry":"떡/한과","coordinates":[127.433505046125,36.3300687801768],"sales":{"202602":1252}},{"id":"MA010120220805774459","name":"디지탈우주상사","industry":"핸드폰 소매업","coordinates":[127.430421127013,36.3302781845099],"sales":{"202602":680}},{"id":"MA010120220805774517","name":"백옥당","industry":"시계/귀금속 소매업","coordinates":[127.432295470461,36.3308661962397],"sales":{"202602":2303}},{"id":"MA010120220805774631","name":"실내마차식당","industry":"백반/한정식","coordinates":[127.430692041772,36.3309350672526],"sales":{"202602":850}},{"id":"MA010120220805774707","name":"홍명종합전자.통신","industry":"핸드폰 소매업","coordinates":[127.431169457853,36.3306629930764],"sales":{"202602":183}},{"id":"MA010120220805774716","name":"모두랑","industry":"기타 의류 소매업","coordinates":[127.432217944898,36.3289289475588],"sales":{"202602":1055}},{"id":"MA010120220805774797","name":"월드푸드","industry":"슈퍼마켓","coordinates":[127.432041401587,36.3312456088882],"sales":{"202602":6246}},{"id":"MA010120220805774842","name":"디자인숲","industry":"명함/간판/광고물 제작","coordinates":[127.430715037412,36.32904251406],"sales":{"202602":836}},{"id":"MA010120220805774909","name":"경일사","industry":"기타 의류 소매업","coordinates":[127.433358723795,36.3277803227114],"sales":{"202602":4011}},{"id":"MA010120220805775049","name":"유일사","industry":"화장품 소매업","coordinates":[127.432937546668,36.3301609547661],"sales":{"202602":290}},{"id":"MA010120220805775065","name":"삼영상회","industry":"채소/과일 소매업","coordinates":[127.434085681003,36.3303370256705],"sales":{"202602":1288}},{"id":"MA010120220805775090","name":"보문서점붓다존","industry":"그 외 기타 상품 전문 소매업","coordinates":[127.430620109789,36.3300071148716],"sales":{"202602":3622}},{"id":"MA010120220805775247","name":"미소야식당","industry":"일식 카레/돈가스/덮밥","coordinates":[127.432045033854,36.3319034542821],"sales":{"202602":1150}},{"id":"MA010120220805775258","name":"2900냥식당","industry":"백반/한정식","coordinates":[127.431757448393,36.3322649639091],"sales":{"202602":1674}},{"id":"MA010120220805775458","name":"퀼트마을","industry":"침구류/커튼 소매업","coordinates":[127.432546179021,36.327864371864],"sales":{"202602":350}},{"id":"MA010120220805775638","name":"업소명없음","industry":"카페","coordinates":[127.431441523054,36.3315271404083],"sales":{"202602":609}},{"id":"MA010120220805775781","name":"삼부슈퍼","industry":"슈퍼마켓","coordinates":[127.431240863551,36.3294731827255],"sales":{"202602":12709}},{"id":"MA010120220805776114","name":"장미양품","industry":"기타 의류 소매업","coordinates":[127.431996895188,36.3292361466963],"sales":{"202602":976}},{"id":"MA010120220805776406","name":"세종유학원","industry":"기타 교육지원 서비스업","coordinates":[127.431573077551,36.3351854392389],"sales":{"202602":39}},{"id":"MA010120220805776708","name":"루꼬베르","industry":"침구류/커튼 소매업","coordinates":[127.431169457853,36.3306629930764],"sales":{"202602":920}},{"id":"MA010120220805777150","name":"설록다방","industry":"카페","coordinates":[127.433065258705,36.3290880922774],"sales":{"202602":1058}},{"id":"MA010120220805777248","name":"금성모텔","industry":"여관/모텔","coordinates":[127.431580589936,36.332508920178],"sales":{"202602":1292}},{"id":"MA010120220805777388","name":"윤채헤어클럽","industry":"미용실","coordinates":[127.433315772934,36.3280688549296],"sales":{"202602":72}},{"id":"MA010120220805777525","name":"개천식당","industry":"백반/한정식","coordinates":[127.431580796862,36.3285076969393],"sales":{"202602":949}},{"id":"MA010120220805777722","name":"우리세탁소","industry":"세탁소","coordinates":[127.429227943034,36.3320397690696],"sales":{"202602":120}},{"id":"MA010120220805777801","name":"실로암유통","industry":"기타 의류 소매업","coordinates":[127.432757806055,36.3298822410515],"sales":{"202602":1571}},{"id":"MA010120220805777908","name":"진까페","industry":"카페","coordinates":[127.431249244339,36.3330147747099],"sales":{"202602":568}},{"id":"MA010120220805778099","name":"동해당약국","industry":"약국","coordinates":[127.43187921514,36.3321293475752],"sales":{"202602":26207}},{"id":"MA010120220805778375","name":"미술관옆소품가게","industry":"기념품점","coordinates":[127.433954319359,36.3267327968907],"sales":{"202602":2188}},{"id":"MA010120220805778901","name":"단발머리우리네","industry":"기타 의류 소매업","coordinates":[127.431169457853,36.3306629930764],"sales":{"202602":1533}},{"id":"MA010120220805779081","name":"정현희공인중개사","industry":"부동산 중개/대리업","coordinates":[127.430108449622,36.3321537565717],"sales":{"202602":62}},{"id":"MA010120220805779121","name":"홍명코닥칼라","industry":"사진촬영업","coordinates":[127.43104873459,36.3309878519554],"sales":{"202602":373}},{"id":"MA010120220805779262","name":"더스타일","industry":"전시/컨벤션/행사 대행 서비스업","coordinates":[127.43176918112,36.3283357930251],"sales":{"202602":70}},{"id":"MA010120220805779489","name":"대동수예","industry":"침구류/커튼 소매업","coordinates":[127.433161202642,36.3283127328596],"sales":{"202602":316}},{"id":"MA010120220805779614","name":"신안방아떡집，기름집","industry":"떡/한과","coordinates":[127.437482142386,36.3282609484452],"sales":{"202602":2998}},{"id":"MA010120220805779732","name":"인맥","industry":"컴퓨터/노트북/프린터 수리업","coordinates":[127.431017953366,36.3314655863219],"sales":{"202602":751}},{"id":"MA010120220805779868","name":"파츠","industry":"여성 의류 소매업","coordinates":[127.431169457853,36.3306629930764],"sales":{"202602":306}},{"id":"MA010120220805779952","name":"송씨종가","industry":"그 외 기타 간이 음식점","coordinates":[127.434691521968,36.3291272476447],"sales":{"202602":558}},{"id":"MA010120220805780167","name":"털실댁","industry":"실/섬유제품 소매업","coordinates":[127.432792513477,36.3301164212107],"sales":{"202602":437}},{"id":"MA010120220805780179","name":"단골식당","industry":"백반/한정식","coordinates":[127.432194549763,36.3327590308565],"sales":{"202602":909}},{"id":"MA010120220805780251","name":"대지","industry":"세탁소","coordinates":[127.437946179732,36.3315755771169],"sales":{"202602":144}},{"id":"MA010120220805780405","name":"대현사","industry":"명함/간판/광고물 제작","coordinates":[127.429955153177,36.3346595770214],"sales":{"202602":515}},{"id":"MA010120220805780442","name":"진주여인숙","industry":"여관/모텔","coordinates":[127.435640481559,36.3275377221332],"sales":{"202602":164}},{"id":"MA010120220805780536","name":"사토리얼","industry":"중고 상품 소매업","coordinates":[127.430407957548,36.3299087496351],"sales":{"202602":774}},{"id":"MA010120220805780948","name":"미소기획","industry":"명함/간판/광고물 제작","coordinates":[127.427946786517,36.3340179385988],"sales":{"202602":316}},{"id":"MA010120220805780953","name":"광흥침구","industry":"침구류/커튼 소매업","coordinates":[127.432204916556,36.3285865476093],"sales":{"202602":253}},{"id":"MA010120220805781017","name":"시계대학병원귀빈당","industry":"가전제품 수리업","coordinates":[127.43079974389,36.3302678086759],"sales":{"202602":762}},{"id":"MA010120220805781525","name":"천보당안경콘택트","industry":"안경렌즈 소매업","coordinates":[127.430421127013,36.3302781845099],"sales":{"202602":1645}},{"id":"MA010120220805781547","name":"정","industry":"카페","coordinates":[127.431287448412,36.3298424969512],"sales":{"202602":371}},{"id":"MA010120220805781607","name":"약손뷰티샵","industry":"피부 관리실","coordinates":[127.440881431399,36.3366023560032],"sales":{"202602":184}},{"id":"MA010120220805782000","name":"루시아침구，수예","industry":"침구류/커튼 소매업","coordinates":[127.432204916556,36.3285865476093],"sales":{"202602":350}},{"id":"MA010120220805782116","name":"대광상회","industry":"건어물/젓갈 소매업","coordinates":[127.431384006948,36.3291752779567],"sales":{"202602":2725}},{"id":"MA010120220805782185","name":"유림약국","industry":"약국","coordinates":[127.433277312213,36.3291684296373],"sales":{"202602":9333}},{"id":"MA010120220805782256","name":"백성당","industry":"시계/귀금속 소매업","coordinates":[127.432270806275,36.3304337208733],"sales":{"202602":3714}},{"id":"MA010120220805782631","name":"도니도니","industry":"백반/한정식","coordinates":[127.430915653604,36.3290688262453],"sales":{"202602":2292}},{"id":"MA010120220805783333","name":"휴파크","industry":"여관/모텔","coordinates":[127.431585862255,36.3314455134409],"sales":{"202602":2124}},{"id":"MA010120220805783391","name":"샤크통신","industry":"핸드폰 소매업","coordinates":[127.431169457853,36.3306629930764],"sales":{"202602":276}},{"id":"MA010120220805783541","name":"현아통신","industry":"핸드폰 소매업","coordinates":[127.431169457853,36.3306629930764],"sales":{"202602":290}},{"id":"MA010120220805783914","name":"일등의료기","industry":"의료기기 소매업","coordinates":[127.433737329273,36.3297795610644],"sales":{"202602":1069}},{"id":"MA010120220805784633","name":"그린식당","industry":"백반/한정식","coordinates":[127.433043832305,36.3292413698947],"sales":{"202602":1344}},{"id":"MA010120220805784651","name":"도심회관식당","industry":"백반/한정식","coordinates":[127.431243035979,36.3318883271648],"sales":{"202602":813}},{"id":"MA010120220805784806","name":"허브연식당","industry":"백반/한정식","coordinates":[127.43124329696,36.3299147503676],"sales":{"202602":783}},{"id":"MA010120220805784846","name":"베트남쌀국수","industry":"베트남식 전문","coordinates":[127.430307524554,36.3298730642037],"sales":{"202602":1186}},{"id":"MA010120220805784993","name":"전주식당","industry":"백반/한정식","coordinates":[127.434292537538,36.3294801568004],"sales":{"202602":557}},{"id":"MA010120220805785036","name":"한수위제주포크","industry":"돼지고기 구이/찜","coordinates":[127.433595394522,36.3282841232476],"sales":{"202602":1361}},{"id":"MA010120220805785134","name":"부림식당","industry":"백반/한정식","coordinates":[127.432232864817,36.3296137876685],"sales":{"202602":2231}},{"id":"MA010120220805785419","name":"대전식당","industry":"백반/한정식","coordinates":[127.431531124756,36.3295982997994],"sales":{"202602":375}},{"id":"MA010120220805785508","name":"효심조아상사","industry":"기념품점","coordinates":[127.431692612813,36.3306070340948],"sales":{"202602":328}},{"id":"MA010120220805785630","name":"대박","industry":"기타 의류 소매업","coordinates":[127.430421127013,36.3302781845099],"sales":{"202602":2763}},{"id":"MA010120220805785689","name":"일러스트하컴","industry":"기념품점","coordinates":[127.43069005441,36.3346208839574],"sales":{"202602":881}},{"id":"MA010120220805785708","name":"보석사","industry":"시계/귀금속 소매업","coordinates":[127.43177047443,36.3305887293213],"sales":{"202602":1115}},{"id":"MA010120220805785710","name":"현대의원","industry":"피부/비뇨기과 의원","coordinates":[127.433774684818,36.3284817315321],"sales":{"202602":5206}},{"id":"MA010120220805785811","name":"본초명가","industry":"반찬/식료품 소매업","coordinates":[127.429632905553,36.3307406203618],"sales":{"202602":753}},{"id":"MA010120220805785832","name":"길원조사골촌설렁탕","industry":"국/탕/찌개류","coordinates":[127.430490677205,36.3307735809763],"sales":{"202602":1532}},{"id":"MA010120220805785877","name":"그때그집식당","industry":"백반/한정식","coordinates":[127.431654776727,36.3298051238579],"sales":{"202602":500}},{"id":"MA010120220805785911","name":"영심이네","industry":"중고 상품 소매업","coordinates":[127.430620109789,36.3300071148716],"sales":{"202602":182}},{"id":"MA010120220805785947","name":"송림상회","industry":"의류 대여업","coordinates":[127.433176878888,36.329132746615],"sales":{"202602":562}},{"id":"MA010120220805786612","name":"원일건강원","industry":"건강보조식품 소매업","coordinates":[127.430413227395,36.3328916236958],"sales":{"202602":1791}},{"id":"MA010120220805786858","name":"개성시대","industry":"신발 소매업","coordinates":[127.431130286579,36.3296177698615],"sales":{"202602":1281}},{"id":"MA010120220805786884","name":"수림이불","industry":"침구류/커튼 소매업","coordinates":[127.432217944898,36.3289289475588],"sales":{"202602":558}},{"id":"MA010120220805786926","name":"푸른석유","industry":"가정용 연료 소매업","coordinates":[127.44160281589,36.3361400934181],"sales":{"202602":2930}},{"id":"MA010120220805787437","name":"조양다방","industry":"카페","coordinates":[127.43364343787,36.3289147724675],"sales":{"202602":380}},{"id":"MA010120220805787696","name":"평화당/준쥬얼리","industry":"시계/귀금속 소매업","coordinates":[127.432204828811,36.3305871594304],"sales":{"202602":423}},{"id":"MA010120220805787781","name":"자연광목세상","industry":"침구류/커튼 소매업","coordinates":[127.433634449655,36.3272926873327],"sales":{"202602":566}},{"id":"MA010120220805787963","name":"토리네튀김떡복이","industry":"김밥/만두/분식","coordinates":[127.43187921514,36.3321293475752],"sales":{"202602":1150}},{"id":"MA010120220805787970","name":"우먼로드꿈에자리","industry":"침구류/커튼 소매업","coordinates":[127.432744351061,36.3274491132928],"sales":{"202602":1362}},{"id":"MA010120220805788257","name":"소제솔랑공인중개사사무소","industry":"부동산 중개/대리업","coordinates":[127.436822469445,36.3357791675046],"sales":{"202602":54}},{"id":"MA010120220805788715","name":"제일스튜디오","industry":"사진촬영업","coordinates":[127.430699409457,36.3302501467488],"sales":{"202602":614}},{"id":"MA010120220805788843","name":"포커스","industry":"명함/간판/광고물 제작","coordinates":[127.429934309627,36.332893347427],"sales":{"202602":433}},{"id":"MA010120220805788897","name":"블랙화이트화장품","industry":"화장품 소매업","coordinates":[127.433473132053,36.3303392487888],"sales":{"202602":542}},{"id":"MA010120220805789093","name":"필컴문화사","industry":"명함/간판/광고물 제작","coordinates":[127.43069005441,36.3346208839574],"sales":{"202602":1656}},{"id":"MA010120220805789184","name":"부여상회","industry":"한복 소매업","coordinates":[127.432204916556,36.3285865476093],"sales":{"202602":508}},{"id":"MA010120220805789488","name":"예쁜옷","industry":"기타 의류 소매업","coordinates":[127.431169457853,36.3306629930764],"sales":{"202602":3904}},{"id":"MA010120220805789698","name":"안성국밥","industry":"국/탕/찌개류","coordinates":[127.430995877074,36.3315017129765],"sales":{"202602":869}},{"id":"MA010120220805789861","name":"쁘띠하우스","industry":"주방/가정용품 소매업","coordinates":[127.432744351061,36.3274491132928],"sales":{"202602":674}},{"id":"MA010120220805790501","name":"부경상회","industry":"신발 소매업","coordinates":[127.432217944898,36.3289289475588],"sales":{"202602":1028}},{"id":"MA010120220805790534","name":"가인","industry":"기타 의류 소매업","coordinates":[127.432744351061,36.3274491132928],"sales":{"202602":1616}},{"id":"MA010120220805791066","name":"중앙식당","industry":"백반/한정식","coordinates":[127.429268389696,36.3312916476072],"sales":{"202602":1928}},{"id":"MA010120220805791282","name":"신창여인숙","industry":"여관/모텔","coordinates":[127.431519922702,36.3356452306761],"sales":{"202602":973}},{"id":"MA010120220805791526","name":"헬로모모","industry":"기념품점","coordinates":[127.432217944898,36.3289289475588],"sales":{"202602":1086}},{"id":"MA010120220805791831","name":"올리브","industry":"기타 의류 소매업","coordinates":[127.432744351061,36.3274491132928],"sales":{"202602":2539}},{"id":"MA010120220805791848","name":"가방이야기","industry":"가방 소매업","coordinates":[127.432757806055,36.3298822410515],"sales":{"202602":426}},{"id":"MA010120220805791862","name":"수보석","industry":"시계/귀금속 소매업","coordinates":[127.431869914295,36.3304441818582],"sales":{"202602":5235}},{"id":"MA010120220805791990","name":"경원상회","industry":"기타 의류 소매업","coordinates":[127.432757806055,36.3298822410515],"sales":{"202602":678}},{"id":"MA010120220805792347","name":"평안복장수선","industry":"의류/이불 수선업","coordinates":[127.431931858756,36.3275421698416],"sales":{"202602":86}},{"id":"MA010120220805792430","name":"황궁침구","industry":"침구류/커튼 소매업","coordinates":[127.432612424746,36.3297746261927],"sales":{"202602":460}},{"id":"MA010120220805792457","name":"뉴골드","industry":"시계/귀금속 소매업","coordinates":[127.431692612813,36.3306070340948],"sales":{"202602":4086}},{"id":"MA010120220805792669","name":"하나골드","industry":"시계/귀금속 소매업","coordinates":[127.432717293691,36.3306123404795],"sales":{"202602":1537}},{"id":"MA010120220805792736","name":"성신·충청가스","industry":"가정용 연료 소매업","coordinates":[127.439912210899,36.3365698804904],"sales":{"202602":5909}},{"id":"MA010120220805792767","name":"먹쇠골식당","industry":"백반/한정식","coordinates":[127.431404078182,36.3328159572403],"sales":{"202602":1089}},{"id":"MA010120220805792842","name":"생일집","industry":"백반/한정식","coordinates":[127.43089461996,36.3292941961907],"sales":{"202602":717}},{"id":"MA010120220805792979","name":"협성사","industry":"침구류/커튼 소매업","coordinates":[127.43313728277,36.3280154312877],"sales":{"202602":1299}},{"id":"MA010120220805793001","name":"루디아","industry":"실/섬유제품 소매업","coordinates":[127.433634449655,36.3272926873327],"sales":{"202602":1067}},{"id":"MA010120220805793074","name":"님프만침구","industry":"침구류/커튼 소매업","coordinates":[127.432576771544,36.3293692258804],"sales":{"202602":431}},{"id":"MA010120220805793260","name":"나무이야기","industry":"예술품 소매업","coordinates":[127.432744351061,36.3274491132928],"sales":{"202602":1051}},{"id":"MA010120220805793264","name":"지혜패션","industry":"기타 의류 소매업","coordinates":[127.430421127013,36.3302781845099],"sales":{"202602":970}},{"id":"MA010120220805793492","name":"아트갤러리","industry":"침구류/커튼 소매업","coordinates":[127.432744351061,36.3274491132928],"sales":{"202602":726}},{"id":"MA010120220805793606","name":"동화기획","industry":"전시/컨벤션/행사 대행 서비스업","coordinates":[127.43732203773,36.3295051576108],"sales":{"202602":111}},{"id":"MA010120220805793677","name":"형제신발","industry":"신발 소매업","coordinates":[127.431996895188,36.3292361466963],"sales":{"202602":465}},{"id":"MA010120220805793798","name":"나혜통신","industry":"핸드폰 소매업","coordinates":[127.435292031221,36.3269622386207],"sales":{"202602":258}},{"id":"MA010120220805793840","name":"쌍방울센타","industry":"기타 의류 소매업","coordinates":[127.432663526744,36.3289453589567],"sales":{"202602":1626}},{"id":"MA010120220805793904","name":"엘림커피앤토스트","industry":"카페","coordinates":[127.42851614617,36.3342592160416],"sales":{"202602":927}},{"id":"MA010120220805794047","name":"업소명없음","industry":"백반/한정식","coordinates":[127.431476333387,36.3297607093541],"sales":{"202602":711}},{"id":"MA010120220805794101","name":"0시노래연습장","industry":"노래방","coordinates":[127.431596005565,36.3312652415913],"sales":{"202602":394}},{"id":"MA010120220805794161","name":"성희네","industry":"기타 의류 소매업","coordinates":[127.433358723795,36.3277803227114],"sales":{"202602":666}},{"id":"MA010120220805794379","name":"그냥갈수없잖아유","industry":"백반/한정식","coordinates":[127.431503173638,36.3326083290539],"sales":{"202602":4346}},{"id":"MA010120220805794472","name":"나래기획","industry":"명함/간판/광고물 제작","coordinates":[127.429589236158,36.3349582808017],"sales":{"202602":506}},{"id":"MA010120220805794481","name":"더시에스타","industry":"침구류/커튼 소매업","coordinates":[127.432217944898,36.3289289475588],"sales":{"202602":99}},{"id":"MA010120220805794721","name":"한일사","industry":"기타 의류 소매업","coordinates":[127.433358723795,36.3277803227114],"sales":{"202602":907}},{"id":"MA010120220805794730","name":"더맨","industry":"기타 의류 소매업","coordinates":[127.431969304049,36.3302906227285],"sales":{"202602":782}},{"id":"MA010120220805794850","name":"뉴-왕금","industry":"시계/귀금속 소매업","coordinates":[127.430330938748,36.3300802504681],"sales":{"202602":892}},{"id":"MA010120220805794906","name":"현대털실","industry":"실/섬유제품 소매업","coordinates":[127.431996895188,36.3292361466963],"sales":{"202602":570}},{"id":"MA010120220805794975","name":"커피스테이션","industry":"카페","coordinates":[127.436495097232,36.3310041327656],"sales":{"202602":554}},{"id":"MA010120220805795071","name":"대전화병원","industry":"일반병원","coordinates":[127.439080136498,36.3292193473708],"sales":{"202602":64302}},{"id":"MA010120220805795075","name":"이스트사랑공인중개사사무소","industry":"부동산 중개/대리업","coordinates":[127.437854496315,36.3271331144366],"sales":{"202602":67}},{"id":"MA010120220805795098","name":"변사또순대","industry":"국/탕/찌개류","coordinates":[127.431996895188,36.3292361466963],"sales":{"202602":518}},{"id":"MA010120220805795120","name":"정덕영비뇨기과의원","industry":"피부/비뇨기과 의원","coordinates":[127.432208810794,36.3313080859497],"sales":{"202602":3144}},{"id":"MA010120220805795298","name":"커피오피스식당","industry":"카페","coordinates":[127.43232605993,36.3323710495894],"sales":{"202602":302}},{"id":"MA010120220805795300","name":"에벤에셀","industry":"그 외 기타 종합 소매업","coordinates":[127.432757806055,36.3298822410515],"sales":{"202602":397}},{"id":"MA010120220805795517","name":"황금상회","industry":"기타 의류 소매업","coordinates":[127.433315772934,36.3280688549296],"sales":{"202602":2715}},{"id":"MA010120220805795565","name":"올리브","industry":"기타 의류 소매업","coordinates":[127.432727982478,36.3305311959245],"sales":{"202602":2299}},{"id":"MA010120220805795788","name":"자연란제리","industry":"기타 의류 소매업","coordinates":[127.432217944898,36.3289289475588],"sales":{"202602":5741}},{"id":"MA010120220805795798","name":"대광지공사","industry":"명함/간판/광고물 제작","coordinates":[127.428085266694,36.3328639374942],"sales":{"202602":790}},{"id":"MA010120220805796046","name":"토우한우","industry":"소고기 구이/찜","coordinates":[127.433774684818,36.3284817315321],"sales":{"202602":2466}},{"id":"MA010120220805796095","name":"대명슈퍼","industry":"슈퍼마켓","coordinates":[127.428762017723,36.3344115341192],"sales":{"202602":33456}},{"id":"MA010120220805796308","name":"아이엔지","industry":"명함/간판/광고물 제작","coordinates":[127.428692277495,36.3338800905719],"sales":{"202602":644}},{"id":"MA010120220805796360","name":"동산여인숙","industry":"여관/모텔","coordinates":[127.434197103535,36.3303456327099],"sales":{"202602":223}},{"id":"MA010120220805796443","name":"삐에로노래연습장","industry":"노래방","coordinates":[127.430492313253,36.331070963234],"sales":{"202602":526}},{"id":"MA010120220805796455","name":"금풍공예","industry":"주방/가정용품 소매업","coordinates":[127.43174442135,36.327885294169],"sales":{"202602":155}},{"id":"MA010120220805796497","name":"중교옥","industry":"백반/한정식","coordinates":[127.431966313893,36.3277312924228],"sales":{"202602":1112}},{"id":"MA010120220805796558","name":"신안이불","industry":"침구류/커튼 소매업","coordinates":[127.433634449655,36.3272926873327],"sales":{"202602":490}},{"id":"MA010120220805796846","name":"황실침구","industry":"침구류/커튼 소매업","coordinates":[127.432464503941,36.3292074203956],"sales":{"202602":361}},{"id":"MA010120220805796992","name":"북마을커뮤니티","industry":"명함/간판/광고물 제작","coordinates":[127.430324820281,36.333018106665],"sales":{"202602":803}},{"id":"MA010120220805797262","name":"누리기획","industry":"명함/간판/광고물 제작","coordinates":[127.43069005441,36.3346208839574],"sales":{"202602":695}},{"id":"MA010120220805797271","name":"김가슈퍼","industry":"슈퍼마켓","coordinates":[127.430108449622,36.3321537565717],"sales":{"202602":23328}},{"id":"MA010120220805797362","name":"중화각","industry":"중국집","coordinates":[127.432588257373,36.3294322666561],"sales":{"202602":1297}},{"id":"MA010120220805797605","name":"한마음","industry":"주방/가정용품 소매업","coordinates":[127.432744351061,36.3274491132928],"sales":{"202602":384}},{"id":"MA010120220805797606","name":"사리송댄스스포츠학원","industry":"레크리에이션 교육기관","coordinates":[127.429991478545,36.3311358484335],"sales":{"202602":117}},{"id":"MA010120220805797943","name":"독일디지탈보청기","industry":"의료기기 소매업","coordinates":[127.432188477174,36.3316596181449],"sales":{"202602":2574}},{"id":"MA010120220805797953","name":"올래노래방","industry":"노래방","coordinates":[127.44005317958,36.3319283083672],"sales":{"202602":823}},{"id":"MA010120220805798014","name":"커피아노","industry":"카페","coordinates":[127.435296660278,36.3358027580524],"sales":{"202602":550}},{"id":"MA010120220805798202","name":"유정식당","industry":"백반/한정식","coordinates":[127.431808113243,36.3313545930807],"sales":{"202602":1870}},{"id":"MA010120220805798312","name":"알만이수입풍경","industry":"기타 의류 소매업","coordinates":[127.432245495279,36.3298840948901],"sales":{"202602":1922}},{"id":"MA010120220805798365","name":"홈리치랜드","industry":"침구류/커튼 소매업","coordinates":[127.432744351061,36.3274491132928],"sales":{"202602":517}},{"id":"MA010120220805798456","name":"남길사","industry":"기타 의류 소매업","coordinates":[127.433358723795,36.3277803227114],"sales":{"202602":2310}},{"id":"MA010120220805798470","name":"수미용실","industry":"미용실","coordinates":[127.432102105097,36.330136942728],"sales":{"202602":103}},{"id":"MA010120220805798568","name":"스모프치킨","industry":"치킨","coordinates":[127.431531124756,36.3295982997994],"sales":{"202602":3347}},{"id":"MA010120220805798625","name":"동서문화사","industry":"명함/간판/광고물 제작","coordinates":[127.428504613515,36.3341871633273],"sales":{"202602":1656}},{"id":"MA010120220805798796","name":"게딱지","industry":"백반/한정식","coordinates":[127.430234370187,36.3307474685784],"sales":{"202602":940}},{"id":"MA010120220805798851","name":"모아","industry":"중고 상품 소매업","coordinates":[127.430820926882,36.3300694735337],"sales":{"202602":403}},{"id":"MA010120220805798919","name":"서울구제의류","industry":"중고 상품 소매업","coordinates":[127.431854649195,36.3296962606918],"sales":{"202602":50}},{"id":"MA010120220805798942","name":"원동공구상사","industry":"철물/공구 소매업","coordinates":[127.431931858756,36.3275421698416],"sales":{"202602":207}},{"id":"MA010120220805804372","name":"에스트","industry":"부동산 중개/대리업","coordinates":[127.429934309627,36.332893347427],"sales":{"202602":122}},{"id":"MA010120220805806579","name":"쵸코","industry":"기타 의류 소매업","coordinates":[127.430421127013,36.3302781845099],"sales":{"202602":859}},{"id":"MA010120220805810639","name":"유신당주","industry":"명함/간판/광고물 제작","coordinates":[127.431384436201,36.3332936513431],"sales":{"202602":354}},{"id":"MA010120220805811458","name":"대종종합관리주","industry":"사업시설 유지·관리 서비스업","coordinates":[127.430607774411,36.3338371575643],"sales":{"202602":220}},{"id":"MA010120220805811935","name":"영광사주","industry":"명함/간판/광고물 제작","coordinates":[127.426762592917,36.3333643144649],"sales":{"202602":908}},{"id":"MA010120220805811986","name":"하나에이스트레블주","industry":"여행사","coordinates":[127.430818869084,36.331718633408],"sales":{"202602":1762}},{"id":"MA010120220805812375","name":"주강엔지니어링","industry":"건물 및 토목 엔지니어링 서비스업","coordinates":[127.439072209975,36.3337613026221],"sales":{}},{"id":"MA010120220805812454","name":"창성씨이엠","industry":"건물 및 토목 엔지니어링 서비스업","coordinates":[127.440301735196,36.3305756292483],"sales":{}},{"id":"MA010120220805812788","name":"에스앤엘코퍼레이션","industry":"건물 및 토목 엔지니어링 서비스업","coordinates":[127.440301735196,36.3305756292483],"sales":{}},{"id":"MA010120220805813370","name":"혼수타운주","industry":"주방/가정용품 소매업","coordinates":[127.433309575813,36.3289610421059],"sales":{"202602":437}},{"id":"MA010120220805813779","name":"정든금남관광주","industry":"여행사","coordinates":[127.431773308727,36.3311023895046],"sales":{"202602":2307}},{"id":"MA010120220805813951","name":"대전공예협동조합","industry":"사업/무형 재산권 중개업","coordinates":[127.431825763049,36.3305164354811],"sales":{"202602":140}},{"id":"MA010120220805814113","name":"남영의료재단","industry":"요양병원","coordinates":[127.428836129998,36.3337083510963],"sales":{"202602":5308}},{"id":"MA010120220805814175","name":"대전장애인정보화협회동구지회사","industry":"직원 훈련기관","coordinates":[127.431516647051,36.3330318330788],"sales":{}},{"id":"MA010120220805814573","name":"대전침례회서관","industry":"서점","coordinates":[127.430564542353,36.3320529850213],"sales":{"202602":3338}},{"id":"MA010120220805815585","name":"그린조이대전주","industry":"기타 의류 소매업","coordinates":[127.430947406584,36.3307899585843],"sales":{"202602":1427}},{"id":"MA010120220805815890","name":"다비치","industry":"기타 기술/직업 훈련학원","coordinates":[127.431156632342,36.3303566394177],"sales":{"202602":1162}},{"id":"MA010120220805817696","name":"태전마트","industry":"슈퍼마켓","coordinates":[127.431517006049,36.3290576449236],"sales":{"202602":21513}},{"id":"MA010120220805818301","name":"옻나라주","industry":"기타 오락관련 서비스업","coordinates":[127.430853048495,36.3298350518961],"sales":{"202602":677}},{"id":"MA010120220805824133","name":"남길상회","industry":"기타 의류 소매업","coordinates":[127.433954319359,36.3267327968907],"sales":{"202602":2168}},{"id":"MA010120220805824140","name":"원앙수예","industry":"침구류/커튼 소매업","coordinates":[127.432217944898,36.3289289475588],"sales":{"202602":272}},{"id":"MA010120220805824142","name":"상신사","industry":"기타 의류 소매업","coordinates":[127.433358723795,36.3277803227114],"sales":{"202602":756}},{"id":"MA010120220805824147","name":"영풍누비","industry":"침구류/커튼 소매업","coordinates":[127.432217944898,36.3289289475588],"sales":{"202602":524}},{"id":"MA010120220805824148","name":"신라상회","industry":"실/섬유제품 소매업","coordinates":[127.433671305779,36.3279143654676],"sales":{"202602":1140}},{"id":"MA010120220805824160","name":"시몬사","industry":"기타 의류 소매업","coordinates":[127.433634449655,36.3272926873327],"sales":{"202602":780}},{"id":"MA010120220805824163","name":"경북수예","industry":"침구류/커튼 소매업","coordinates":[127.433954319359,36.3267327968907],"sales":{"202602":214}},{"id":"MA010120220805824167","name":"경원상회","industry":"한복 소매업","coordinates":[127.432217944898,36.3289289475588],"sales":{"202602":747}},{"id":"MA010120220805824172","name":"대원누비","industry":"침구류/커튼 소매업","coordinates":[127.433954319359,36.3267327968907],"sales":{"202602":696}},{"id":"MA010120220805824173","name":"태양사","industry":"기타 의류 소매업","coordinates":[127.433634449655,36.3272926873327],"sales":{"202602":553}},{"id":"MA010120220805824176","name":"태창상회","industry":"기타 의류 소매업","coordinates":[127.433634449655,36.3272926873327],"sales":{"202602":675}},{"id":"MA010120220805824179","name":"영진사","industry":"실/섬유제품 소매업","coordinates":[127.433634449655,36.3272926873327],"sales":{"202602":482}},{"id":"MA010120220805824183","name":"경성상회","industry":"기타 의류 소매업","coordinates":[127.432217944898,36.3289289475588],"sales":{"202602":1453}},{"id":"MA010120220805824189","name":"오성사","industry":"기타 의류 소매업","coordinates":[127.433358723795,36.3277803227114],"sales":{"202602":1886}},{"id":"MA010120220805824200","name":"현우상회","industry":"침구류/커튼 소매업","coordinates":[127.432217944898,36.3289289475588],"sales":{"202602":854}},{"id":"MA010120220805824202","name":"지성상회","industry":"실/섬유제품 소매업","coordinates":[127.433954319359,36.3267327968907],"sales":{"202602":1191}},{"id":"MA010120220805824203","name":"대로짜치","industry":"실/섬유제품 소매업","coordinates":[127.432217944898,36.3289289475588],"sales":{"202602":731}},{"id":"MA010120220805824204","name":"대운직물","industry":"실/섬유제품 소매업","coordinates":[127.434167317225,36.326984352862],"sales":{"202602":330}},{"id":"MA010120220805824205","name":"영진미싱","industry":"그 외 기타 상품 전문 소매업","coordinates":[127.433634449655,36.3272926873327],"sales":{"202602":1250}},{"id":"MA010120220805824209","name":"대전양산","industry":"주방/가정용품 소매업","coordinates":[127.432615341816,36.3282876745382],"sales":{"202602":1356}},{"id":"MA010120220805824215","name":"대성안감","industry":"실/섬유제품 소매업","coordinates":[127.432217944898,36.3289289475588],"sales":{"202602":391}},{"id":"MA010120220805824220","name":"선원미싱","industry":"그 외 기타 상품 전문 소매업","coordinates":[127.432217944898,36.3289289475588],"sales":{"202602":908}},{"id":"MA010120220805824221","name":"종합미싱","industry":"그 외 기타 상품 전문 소매업","coordinates":[127.433954319359,36.3267327968907],"sales":{"202602":4907}},{"id":"MA010120220805824222","name":"대경상회","industry":"침구류/커튼 소매업","coordinates":[127.433954319359,36.3267327968907],"sales":{"202602":190}},{"id":"MA010120220805824278","name":"오성사","industry":"기타 의류 소매업","coordinates":[127.432647281154,36.3300358411486],"sales":{"202602":3178}},{"id":"MA010120220805824350","name":"장수혼수방","industry":"침구류/커튼 소매업","coordinates":[127.433004936079,36.3282502167172],"sales":{"202602":539}},{"id":"MA010120220805824490","name":"엘림골드","industry":"시계/귀금속 소매업","coordinates":[127.43258284908,36.3304686389578],"sales":{"202602":1443}},{"id":"MA010120220805824551","name":"소라양품","industry":"기타 의류 소매업","coordinates":[127.432217944898,36.3289289475588],"sales":{"202602":631}},{"id":"MA010120220805824700","name":"미광사","industry":"명함/간판/광고물 제작","coordinates":[127.428105323182,36.3324583364388],"sales":{"202602":1967}},{"id":"MA010120220805824730","name":"다애이용원","industry":"화장품 소매업","coordinates":[127.431787431558,36.3336616781766],"sales":{"202602":615}},{"id":"MA010120220805824922","name":"민들레","industry":"기타 의류 소매업","coordinates":[127.430421127013,36.3302781845099],"sales":{"202602":1026}},{"id":"MA010120220805824971","name":"흙비","industry":"가방 소매업","coordinates":[127.431169457853,36.3306629930764],"sales":{"202602":566}},{"id":"MA010120220805824991","name":"유림다방","industry":"카페","coordinates":[127.433036535015,36.329935302102],"sales":{"202602":478}},{"id":"MA010120220805825086","name":"중교전기조명상사","industry":"전기용품/조명장치 소매업","coordinates":[127.431733383872,36.3279033575702],"sales":{"202602":1118}},{"id":"MA010120220805825173","name":"한마음식당","industry":"백반/한정식","coordinates":[127.438314642144,36.3337280362863],"sales":{"202602":1432}},{"id":"MA010120220805825227","name":"고향미용실","industry":"미용실","coordinates":[127.432576771544,36.3293692258804],"sales":{"202602":131}},{"id":"MA010120220805825400","name":"신혼장식","industry":"벽지/장판/마루 소매업","coordinates":[127.432397880547,36.3292437084928],"sales":{"202602":276}},{"id":"MA010120220805825401","name":"투맨패션","industry":"기타 의류 소매업","coordinates":[127.432455309064,36.3295589124506],"sales":{"202602":758}},{"id":"MA010120220805825428","name":"중동이동통신","industry":"핸드폰 소매업","coordinates":[127.430222192409,36.3305582653982],"sales":{"202602":183}},{"id":"MA010120220805825432","name":"우리주단","industry":"실/섬유제품 소매업","coordinates":[127.433634449655,36.3272926873327],"sales":{"202602":1445}},{"id":"MA010120220805825438","name":"에비앙쥬얼리","industry":"시계/귀금속 소매업","coordinates":[127.432070833004,36.3305245615661],"sales":{"202602":1772}},{"id":"MA010120220805825968","name":"육형제바둑총판","industry":"가전제품 소매업","coordinates":[127.432102105097,36.330136942728],"sales":{"202602":1628}},{"id":"MA010120220805826069","name":"양지여인숙","industry":"여관/모텔","coordinates":[127.435231976336,36.3281790456535],"sales":{"202602":230}},{"id":"MA010120220805826141","name":"삼신인쇄사","industry":"명함/간판/광고물 제작","coordinates":[127.430223007239,36.3347577424486],"sales":{"202602":1206}},{"id":"MA010120220805826170","name":"가오건강원","industry":"건강보조식품 소매업","coordinates":[127.441289685749,36.3339423825154],"sales":{"202602":767}},{"id":"MA010120220805826185","name":"우성상회","industry":"슈퍼마켓","coordinates":[127.431776689039,36.329696542349],"sales":{"202602":18192}},{"id":"MA010120220805826214","name":"팔도가요주점","industry":"요리 주점","coordinates":[127.430703275835,36.334999330073],"sales":{"202602":455}},{"id":"MA010120220805826301","name":"수미용실","industry":"미용실","coordinates":[127.441109449444,36.3335825776993],"sales":{"202602":185}},{"id":"MA010120220805826311","name":"양안경원","industry":"안경렌즈 소매업","coordinates":[127.432005203329,36.3307410810883],"sales":{"202602":479}},{"id":"MA010120220805826377","name":"중앙상회","industry":"실/섬유제품 소매업","coordinates":[127.433128091,36.3283669234433],"sales":{"202602":323}},{"id":"MA010120220805826487","name":"예산본석갈비","industry":"돼지고기 구이/찜","coordinates":[127.43049586531,36.3296921507095],"sales":{"202602":1219}},{"id":"MA010120220805826556","name":"미진여인숙","industry":"여관/모텔","coordinates":[127.430713546331,36.3328184477291],"sales":{"202602":679}},{"id":"MA010120220805826559","name":"영진마스타","industry":"명함/간판/광고물 제작","coordinates":[127.428203350143,36.3340891137296],"sales":{"202602":603}},{"id":"MA010120220805826633","name":"일오삼고시텔","industry":"기숙사/고시원","coordinates":[127.43188707421,36.3335531770595],"sales":{}},{"id":"MA010120220805826756","name":"국제사","industry":"화장품 소매업","coordinates":[127.431169457853,36.3306629930764],"sales":{"202602":1356}},{"id":"MA010120220805826826","name":"정심","industry":"미용실","coordinates":[127.43255118074,36.3307841652349],"sales":{"202602":70}},{"id":"MA010120220805826890","name":"대전의료기","industry":"의료기기 소매업","coordinates":[127.433902638012,36.3294635493579],"sales":{"202602":3757}},{"id":"MA010120220805827072","name":"진주상회","industry":"슈퍼마켓","coordinates":[127.435583392894,36.3272856007572],"sales":{"202602":21580}},{"id":"MA010120220805827104","name":"삼광전자","industry":"핸드폰 소매업","coordinates":[127.430421127013,36.3302781845099],"sales":{"202602":364}},{"id":"MA010120220805827223","name":"보옥당","industry":"시계/귀금속 소매업","coordinates":[127.430699409457,36.3302501467488],"sales":{"202602":5134}},{"id":"MA010120220805827373","name":"동남의료기","industry":"의료기기 소매업","coordinates":[127.431952059745,36.3332195071685],"sales":{"202602":5341}},{"id":"MA010120220805827495","name":"황해전기조명","industry":"전기용품/조명장치 소매업","coordinates":[127.431934847715,36.3301015002368],"sales":{"202602":415}},{"id":"MA010120220805827640","name":"돼지슈퍼","industry":"슈퍼마켓","coordinates":[127.441721162502,36.3354006925049],"sales":{"202602":22410}},{"id":"MA010120220805827731","name":"T&C","industry":"명함/간판/광고물 제작","coordinates":[127.43069005441,36.3346208839574],"sales":{"202602":913}},{"id":"MA010120220805827745","name":"미성사","industry":"기타 의류 소매업","coordinates":[127.432648304319,36.3282064493383],"sales":{"202602":1818}},{"id":"MA010120220805827762","name":"자바레저","industry":"운동용품 소매업","coordinates":[127.432648304319,36.3282064493383],"sales":{"202602":1892}},{"id":"MA010120220805827781","name":"송림","industry":"돼지고기 구이/찜","coordinates":[127.433638444329,36.328013614114],"sales":{"202602":1766}},{"id":"MA010120220805827782","name":"남경반점","industry":"중국집","coordinates":[127.432984575306,36.3265831136722],"sales":{"202602":1607}},{"id":"MA010120220805827783","name":"중교건강원","industry":"건강보조식품 소매업","coordinates":[127.43174442135,36.327885294169],"sales":{"202602":746}},{"id":"MA010120220805827792","name":"대성상회","industry":"기타 의류 소매업","coordinates":[127.432648304319,36.3282064493383],"sales":{"202602":1175}},{"id":"MA010120220805827794","name":"제시카수예","industry":"침구류/커튼 소매업","coordinates":[127.432648304319,36.3282064493383],"sales":{"202602":511}},{"id":"MA010120220805827798","name":"굴세상","industry":"해산물 구이/찜","coordinates":[127.433529371509,36.3284285509776],"sales":{"202602":3241}},{"id":"MA010120220805827803","name":"청송공방","industry":"주방/가정용품 소매업","coordinates":[127.432648304319,36.3282064493383],"sales":{"202602":454}},{"id":"MA010120220805827812","name":"세일모사","industry":"실/섬유제품 소매업","coordinates":[127.432217944898,36.3289289475588],"sales":{"202602":508}},{"id":"MA010120220805827813","name":"한성식당","industry":"백반/한정식","coordinates":[127.431966313893,36.3277312924228],"sales":{"202602":1003}},{"id":"MA010120220805827818","name":"신광침구상회","industry":"침구류/커튼 소매업","coordinates":[127.433125896469,36.3279704137212],"sales":{"202602":366}},{"id":"MA010120220805827821","name":"현대상회/소잉","industry":"실/섬유제품 소매업","coordinates":[127.433260686969,36.3281771958055],"sales":{"202602":593}},{"id":"MA010120220805827823","name":"신창레져타운","industry":"운동용품 소매업","coordinates":[127.43174442135,36.327885294169],"sales":{"202602":522}},{"id":"MA010120220805827831","name":"불로홈패션","industry":"침구류/커튼 소매업","coordinates":[127.433638444329,36.328013614114],"sales":{"202602":543}},{"id":"MA010120220805827919","name":"영광식당","industry":"백반/한정식","coordinates":[127.431359378701,36.3327890832983],"sales":{"202602":347}},{"id":"MA010120220805828164","name":"한길광고","industry":"명함/간판/광고물 제작","coordinates":[127.436329330641,36.3352312519505],"sales":{"202602":1348}},{"id":"MA010120220805828175","name":"녹색공간","industry":"침구류/커튼 소매업","coordinates":[127.433954319359,36.3267327968907],"sales":{"202602":164}},{"id":"MA010120220805828325","name":"한동욱세무회계사무소","industry":"세무사","coordinates":[127.433116270967,36.3262311775816],"sales":{"202602":321}},{"id":"MA010120220805828333","name":"업소명없음","industry":"담배/전자담배 소매업","coordinates":[127.431708324119,36.335473326947],"sales":{"202602":1935}},{"id":"MA010120220805828383","name":"금정사","industry":"중고 상품 소매업","coordinates":[127.438067317585,36.3372975970591],"sales":{"202602":130}},{"id":"MA010120220805828385","name":"서천상회","industry":"담배/전자담배 소매업","coordinates":[127.43560094948,36.3364414838099],"sales":{"202602":1556}},{"id":"MA010120220805828386","name":"업소명없음","industry":"담배/전자담배 소매업","coordinates":[127.435182567705,36.3273050843301],"sales":{"202602":367}},{"id":"MA010120220805828455","name":"삼흥상사","industry":"그 외 기타 종합 소매업","coordinates":[127.432860632884,36.3303504803496],"sales":{"202602":1225}},{"id":"MA010120220805828459","name":"삼양상회","industry":"건어물/젓갈 소매업","coordinates":[127.431852958321,36.3293898668346],"sales":{"202602":6247}},{"id":"MA010120220805828501","name":"나달기획","industry":"명함/간판/광고물 제작","coordinates":[127.434159329992,36.3275521231524],"sales":{"202602":509}},{"id":"MA010120220805828514","name":"kplus","industry":"명함/간판/광고물 제작","coordinates":[127.429030511865,36.3346268527774],"sales":{"202602":751}},{"id":"MA010120220805828539","name":"소망패션","industry":"기타 의류 소매업","coordinates":[127.431130286579,36.3296177698615],"sales":{"202602":940}},{"id":"MA010120220805828547","name":"칠성사","industry":"주방/가정용품 소매업","coordinates":[127.432757806055,36.3298822410515],"sales":{"202602":450}},{"id":"MA010120220805828603","name":"몽마르뜨","industry":"카페","coordinates":[127.433251135374,36.3304752301331],"sales":{"202602":369}},{"id":"MA010120220805828852","name":"천일철물점","industry":"철물/공구 소매업","coordinates":[127.434511056282,36.3267127507636],"sales":{"202602":748}},{"id":"MA010120220805828884","name":"빠끔사리","industry":"침구류/커튼 소매업","coordinates":[127.432744351061,36.3274491132928],"sales":{"202602":740}},{"id":"MA010120220805828942","name":"콤비낚시","industry":"장난감 소매업","coordinates":[127.438144528197,36.3371621377744],"sales":{"202602":3375}},{"id":"MA010120220805828944","name":"일광상회","industry":"건어물/젓갈 소매업","coordinates":[127.43203135127,36.3294252691991],"sales":{"202602":2109}},{"id":"MA010120220805829027","name":"중앙교통카드로또점","industry":"기타 여행 보조/예약 서비스업","coordinates":[127.430453745617,36.330133878828],"sales":{}},