[{"id":"MA010120220800062933","name":"디저트스튜디오하하","industry":"카페","coordinates":[127.459168480063,36.3020634800404],"sales":{"202602":282}},{"id":"MA010120220800084365","name":"바다속으로","industry":"횟집","coordinates":[127.457731734933,36.2962563784101],"sales":{"202602":1584}},{"id":"MA010120220800643911","name":"어니니팅","industry":"실/섬유제품 소매업","coordinates":[127.468872568817,36.2808841177026],"sales":{"202602":737}},{"id":"MA010120220800898021","name":"뚜레쥬르","industry":"빵/도넛","coordinates":[127.4674600043,36.2810518605893],"sales":{"202602":581}},{"id":"MA010120220801137138","name":"해와달","industry":"중고 상품 소매업","coordinates":[127.466009906062,36.2786513628066],"sales":{"202602":199}},{"id":"MA010120220801524534","name":"카페라밸리","industry":"카페","coordinates":[127.475843850938,36.2796489973325],"sales":{"202602":409}},{"id":"MA010120220801752367","name":"로또대박마트","industry":"슈퍼마켓","coordinates":[127.463363948679,36.2904581161007],"sales":{"202602":4991}},{"id":"MA010120220801940202","name":"모모베이커리","industry":"빵/도넛","coordinates":[127.458276497665,36.3037430960984],"sales":{"202602":2162}},{"id":"MA010120220801940311","name":"세종IT","industry":"컴퓨터/노트북/프린터 수리업","coordinates":[127.454105965536,36.2872493798116],"sales":{"202602":1407}},{"id":"MA010120220801983183","name":"산수가든","industry":"백반/한정식","coordinates":[127.458396142138,36.2766170801305],"sales":{"202602":392}},{"id":"MA010120220802056066","name":"서비네디테일","industry":"자동차 세차장","coordinates":[127.465299846874,36.2771581640611],"sales":{"202602":2503}},{"id":"MA010120220802524837","name":"어가원바베큐","industry":"돼지고기 구이/찜","coordinates":[127.442087276503,36.2147307767184],"sales":{"202602":2865}},{"id":"MA010120220802661125","name":"카페탄탄","industry":"카페","coordinates":[127.461750828908,36.2849581370498],"sales":{"202602":1658}},{"id":"MA010120220802726072","name":"순수엔하우스","industry":"침구류/커튼 소매업","coordinates":[127.46478350914,36.28768598029],"sales":{"202602":447}},{"id":"MA010120220802899984","name":"대전왕갈비짬뽕","industry":"중국집","coordinates":[127.466755344576,36.2823433036645],"sales":{"202602":1254}},{"id":"MA010120220802956471","name":"파스쿠찌","industry":"카페","coordinates":[127.462621593503,36.2910467582246],"sales":{"202602":521}},{"id":"MA010120220802957316","name":"다이소대전산내점","industry":"그 외 기타 종합 소매업","coordinates":[127.467328107316,36.2813317426199],"sales":{"202602":2294}},{"id":"MA010120220803017428","name":"영아트플라워","industry":"기념품점","coordinates":[127.468224220083,36.2804180431767],"sales":{"202602":498}},{"id":"MA010120220803018615","name":"플레이그라운드","industry":"시각 디자인업","coordinates":[127.440104385902,36.2200911712872],"sales":{"202602":441}},{"id":"MA010120220803019933","name":"옛터찻방","industry":"카페","coordinates":[127.440843815627,36.2151048530369],"sales":{"202602":799}},{"id":"MA010120220803076258","name":"다온트레이딩","industry":"운동용품 소매업","coordinates":[127.467665085877,36.2762477550658],"sales":{"202602":613}},{"id":"MA010120220803107491","name":"워터랜드","industry":"가전제품 수리업","coordinates":[127.460198340132,36.2973283263809],"sales":{"202602":605}},{"id":"MA010120220803110266","name":"금오테크","industry":"명함/간판/광고물 제작","coordinates":[127.46555658163,36.2829067095786],"sales":{"202602":493}},{"id":"MA010120220803125907","name":"해물애짬뽕","industry":"중국집","coordinates":[127.469547833624,36.2728339051327],"sales":{"202602":1389}},{"id":"MA010120220803140908","name":"순이네숯불갈비","industry":"돼지고기 구이/찜","coordinates":[127.467982047555,36.280869582312],"sales":{"202602":2743}},{"id":"MA010120220803174265","name":"김선종인테리어","industry":"인테리어 디자인업","coordinates":[127.442681280227,36.2806414910853],"sales":{"202602":1207}},{"id":"MA010120220803316321","name":"캠프향기","industry":"여관/모텔","coordinates":[127.466135981165,36.2361869907378],"sales":{"202602":1620}},{"id":"MA010120220803405341","name":"윈터커피랩","industry":"카페","coordinates":[127.441642937671,36.2227350081257],"sales":{"202602":583}},{"id":"MA010120220803529397","name":"가마솥뜨끈이해장국","industry":"국/탕/찌개류","coordinates":[127.467691587891,36.2806904821638],"sales":{"202602":603}},{"id":"MA010120220803585511","name":"정원","industry":"백반/한정식","coordinates":[127.445051831432,36.2256692750133],"sales":{"202602":1208}},{"id":"MA010120220803826301","name":"남대전요양병원매점","industry":"슈퍼마켓","coordinates":[127.462999928017,36.2834843805146],"sales":{"202602":7777}},{"id":"MA010120220803827624","name":"신천","industry":"백반/한정식","coordinates":[127.45158988392,36.2910438716051],"sales":{"202602":1487}},{"id":"MA010120220803831975","name":"더보스퀘","industry":"가구 소매업","coordinates":[127.470502658848,36.2724516555034],"sales":{"202602":5011}},{"id":"MA010120220804001693","name":"케이웨이인베스트","industry":"부동산 중개/대리업","coordinates":[127.465836211588,36.2775165491582],"sales":{"202602":63}},{"id":"MA010120220804414072","name":"동원드림비","industry":"경영 컨설팅업","coordinates":[127.464647022062,36.2796840142041],"sales":{"202602":1767}},{"id":"MA010120220804662656","name":"성원가설재","industry":"건설기계/장비 대여업","coordinates":[127.458796797882,36.2861230202949],"sales":{"202602":1036}},{"id":"MA010120220804673044","name":"우등생오투공부방","industry":"입시·교과학원","coordinates":[127.465355428226,36.2846467737936],"sales":{"202602":279}},{"id":"MA010120220804801056","name":"이마트24","industry":"편의점","coordinates":[127.472025212042,36.2720941943988],"sales":{"202602":3075}},{"id":"MA010120220804848386","name":"엄지헤어샵","industry":"미용실","coordinates":[127.466055644834,36.2844728222528],"sales":{"202602":187}},{"id":"MA010120220804862139","name":"제롬커피앤바이츠","industry":"카페","coordinates":[127.44141654882,36.2220329136109],"sales":{"202602":682}},{"id":"MA010120220804875963","name":"갈비김치찌개","industry":"백반/한정식","coordinates":[127.466656512324,36.28256898492],"sales":{"202602":823}},{"id":"MA010120220804891852","name":"시골밥상","industry":"백반/한정식","coordinates":[127.477953114052,36.2531818203495],"sales":{"202602":6502}},{"id":"MA010120220804897537","name":"하울","industry":"미용실","coordinates":[127.468623752084,36.2783617820201],"sales":{"202602":192}},{"id":"MA010120220804917658","name":"착한삼겹살","industry":"돼지고기 구이/찜","coordinates":[127.468138220685,36.2753357090042],"sales":{"202602":530}},{"id":"MA010120220804937067","name":"동원드림씨","industry":"경영 컨설팅업","coordinates":[127.464647022062,36.2796840142041],"sales":{"202602":2647}},{"id":"MA010120220804954600","name":"스마트통신","industry":"핸드폰 소매업","coordinates":[127.460460277262,36.2964351494883],"sales":{"202602":44}},{"id":"MA010120220804959702","name":"수연장","industry":"여관/모텔","coordinates":[127.461971015441,36.2939871229886],"sales":{"202602":754}},{"id":"MA010120220805001888","name":"유로퍼티발","industry":"그 외 기타 상품 전문 소매업","coordinates":[127.467571064131,36.2716791229359],"sales":{"202602":1155}},{"id":"MA010120220805018148","name":"루디아","industry":"액세서리/잡화 소매업","coordinates":[127.467349347026,36.2811604349775],"sales":{"202602":260}},{"id":"MA010120220805042002","name":"투썸플레이스","industry":"카페","coordinates":[127.47282340686,36.2734247927906],"sales":{"202602":512}},{"id":"MA010120220805045676","name":"세븐일레븐","industry":"편의점","coordinates":[127.461286312463,36.298702939293],"sales":{"202602":751}},{"id":"MA010120220805063099","name":"삼익할인마트","industry":"슈퍼마켓","coordinates":[127.461286312463,36.298702939293],"sales":{"202602":4684}},{"id":"MA010120220805089170","name":"산내햇님약국","industry":"약국","coordinates":[127.468157860489,36.2786249497476],"sales":{"202602":2588}},{"id":"MA010120220805115109","name":"유광마트","industry":"슈퍼마켓","coordinates":[127.440462582509,36.2125648913289],"sales":{"202602":5632}},{"id":"MA010120220805133126","name":"꿈꾸는농부오토캠핑장","industry":"캠핑/글램핑","coordinates":[127.46712391164,36.2358316738971],"sales":{"202602":197}},{"id":"MA010120220805138928","name":"대전소머리국밥","industry":"국/탕/찌개류","coordinates":[127.464453139528,36.2770172661326],"sales":{"202602":523}},{"id":"MA010120220805196676","name":"빈따구","industry":"카페","coordinates":[127.468222843121,36.2745964074923],"sales":{"202602":978}},{"id":"MA010120220805233118","name":"남대전풋살장","industry":"당구장","coordinates":[127.451125455188,36.2857827227406],"sales":{"202602":108}},{"id":"MA010120220805307210","name":"대성삼겹","industry":"돼지고기 구이/찜","coordinates":[127.460053246964,36.2972658021393],"sales":{"202602":1812}},{"id":"MA010120220805392353","name":"에이티지","industry":"장난감 소매업","coordinates":[127.468787759943,36.2797309367374],"sales":{"202602":1121}},{"id":"MA010120220805452014","name":"거래처","industry":"돼지고기 구이/찜","coordinates":[127.46817587864,36.279778392908],"sales":{"202602":587}},{"id":"MA010120220805458559","name":"한우리축산","industry":"정육점","coordinates":[127.466038995476,36.2835446697446],"sales":{"202602":4031}},{"id":"MA010120220805463030","name":"대별동한식뷔페","industry":"뷔페","coordinates":[127.459528814792,36.2875711121069],"sales":{"202602":2244}},{"id":"MA010120220805521372","name":"두원디자인","industry":"시각 디자인업","coordinates":[127.442680205359,36.2863640064497],"sales":{"202602":267}},{"id":"MA010120220805633122","name":"고래등공인중개사사무소","industry":"부동산 중개/대리업","coordinates":[127.458276497665,36.3037430960984],"sales":{"202602":126}},{"id":"MA010120220805640598","name":"미워도노래연습장","industry":"노래방","coordinates":[127.467323208842,36.2823771331283],"sales":{"202602":485}},{"id":"MA010120220805742018","name":"공공안경타운","industry":"안경렌즈 소매업","coordinates":[127.467691587891,36.2806904821638],"sales":{"202602":1517}},{"id":"MA010120220805744185","name":"중앙약국","industry":"약국","coordinates":[127.46050868281,36.295200345944],"sales":{"202602":5967}},{"id":"MA010120220805744824","name":"송미용실","industry":"미용실","coordinates":[127.466673275959,36.2835151606629],"sales":{"202602":99}},{"id":"MA010120220805746385","name":"문화아트기획","industry":"기타 산업용 기계/장비 대여업","coordinates":[127.453175428544,36.2283063098414],"sales":{"202602":305}},{"id":"MA010120220805748628","name":"계룡주방중고알뜰매장","industry":"그 외 기타 상품 전문 소매업","coordinates":[127.463817659566,36.2881222976502],"sales":{"202602":977}},{"id":"MA010120220805749677","name":"수민카서비스","industry":"자동차 정비소","coordinates":[127.461397031241,36.2948184253987],"sales":{"202602":778}},{"id":"MA010120220805749732","name":"산내컴퓨터","industry":"세탁소","coordinates":[127.467210818687,36.2840627826489],"sales":{"202602":320}},{"id":"MA010120220805750113","name":"더맨","industry":"미용실","coordinates":[127.466699131894,36.2841188516572],"sales":{"202602":133}},{"id":"MA010120220805750380","name":"여보식당","industry":"백반/한정식","coordinates":[127.459000162743,36.2866359135126],"sales":{"202602":1069}},{"id":"MA010120220805750985","name":"온엑스테크놀로지","industry":"기타 산업용 기계/장비 대여업","coordinates":[127.45052625169,36.2861094074041],"sales":{"202602":1275}},{"id":"MA010120220805752468","name":"현대가스","industry":"가정용 연료 소매업","coordinates":[127.435840055216,36.2873624103135],"sales":{"202602":7176}},{"id":"MA010120220805756251","name":"팔도기업","industry":"자동차 부품 소매업","coordinates":[127.446299022491,36.2259259752504],"sales":{"202602":2466}},{"id":"MA010120220805756902","name":"오케이.씨.에스","industry":"부동산 중개/대리업","coordinates":[127.461390610388,36.2937280216778],"sales":{"202602":75}},{"id":"MA010120220805757946","name":"산수마루","industry":"백반/한정식","coordinates":[127.459356194931,36.2998999278105],"sales":{"202602":877}},{"id":"MA010120220805760068","name":"꼬지꼬지","industry":"치킨","coordinates":[127.46604120646,36.2782997795519],"sales":{"202602":848}},{"id":"MA010120220805760478","name":"연호생활잡화","industry":"그 외 기타 종합 소매업","coordinates":[127.46694320056,36.2839827215774],"sales":{"202602":9080}},{"id":"MA010120220805761959","name":"그린슈퍼","industry":"슈퍼마켓","coordinates":[127.462288219106,36.2873712278617],"sales":{"202602":6293}},{"id":"MA010120220805762187","name":"꿈꾸는농부","industry":"그 외 기타 간이 음식점","coordinates":[127.46712391164,36.2358316738971],"sales":{"202602":534}},{"id":"MA010120220805762699","name":"업소명없음","industry":"자동차 정비소","coordinates":[127.462326515821,36.2919761158913],"sales":{"202602":1233}},{"id":"MA010120220805762805","name":"굿모닝공인중개사","industry":"부동산 중개/대리업","coordinates":[127.460424326971,36.2978951998229],"sales":{"202602":40}},{"id":"MA010120220805763783","name":"유로모터스","industry":"자동차 정비소","coordinates":[127.467579910199,36.280627836109],"sales":{"202602":523}},{"id":"MA010120220805765963","name":"대찬식당","industry":"백반/한정식","coordinates":[127.460088810117,36.2881547267893],"sales":{"202602":1535}},{"id":"MA010120220805768053","name":"허브향기","industry":"경양식","coordinates":[127.43914633133,36.2118487735673],"sales":{"202602":2364}},{"id":"MA010120220805768166","name":"영진가스","industry":"가정용 연료 소매업","coordinates":[127.451242263599,36.286737535105],"sales":{"202602":2303}},{"id":"MA010120220805768595","name":"남대전모터스","industry":"자동차 정비소","coordinates":[127.467410164216,36.2801598848326],"sales":{"202602":10267}},{"id":"MA010120220805769129","name":"백제황토참숯찜질방.백제식당","industry":"목욕탕/사우나","coordinates":[127.458879308834,36.2907097177887],"sales":{"202602":2684}},{"id":"MA010120220805770063","name":"삼익세탁소","industry":"세탁소","coordinates":[127.461286312463,36.298702939293],"sales":{"202602":230}},{"id":"MA010120220805770267","name":"대천철물","industry":"철물/공구 소매업","coordinates":[127.46540900362,36.2767972660989],"sales":{"202602":1417}},{"id":"MA010120220805772353","name":"웰빙사","industry":"철물/공구 소매업","coordinates":[127.467878917906,36.2803743355458],"sales":{"202602":1369}},{"id":"MA010120220805772842","name":"문화자동차공업사","industry":"자동차 정비소","coordinates":[127.465940619924,36.2801025368254],"sales":{"202602":1092}},{"id":"MA010120220805773526","name":"신선낚시","industry":"장난감 소매업","coordinates":[127.46050868281,36.295200345944],"sales":{"202602":1390}},{"id":"MA010120220805775948","name":"보아스퍼니처","industry":"그 외 기타 개인/가정용품 수리업","coordinates":[127.468025097985,36.2750297494798],"sales":{"202602":590}},{"id":"MA010120220805776440","name":"페레스트로이카","industry":"컴퓨터/노트북/프린터 수리업","coordinates":[127.468610649433,36.2798938437343],"sales":{"202602":447}},{"id":"MA010120220805776637","name":"산내부강떡방앗간","industry":"떡/한과","coordinates":[127.467210818687,36.2840627826489],"sales":{"202602":1498}},{"id":"MA010120220805777148","name":"희망공인중개사사무소","industry":"부동산 중개/대리업","coordinates":[127.45966725096,36.2883996670817],"sales":{"202602":38}},{"id":"MA010120220805777410","name":"다솜정보통신","industry":"핸드폰 소매업","coordinates":[127.46878113207,36.2786225081739],"sales":{"202602":96}},{"id":"MA010120220805778546","name":"청송식당","industry":"돼지고기 구이/찜","coordinates":[127.458602610419,36.287178147929],"sales":{"202602":828}},{"id":"MA010120220805779065","name":"세진전자음향","industry":"자동차 부품 소매업","coordinates":[127.465299846874,36.2771581640611],"sales":{"202602":1361}},{"id":"MA010120220805779239","name":"의성건강원","industry":"건강보조식품 소매업","coordinates":[127.468223466561,36.2802918805908],"sales":{"202602":592}},{"id":"MA010120220805779306","name":"산내제일주유소","industry":"주유소","coordinates":[127.462150480489,36.2923282569474],"sales":{"202602":8240}},{"id":"MA010120220805779320","name":"봄이헤어라인","industry":"미용실","coordinates":[127.458276497665,36.3037430960984],"sales":{"202602":467}},{"id":"MA010120220805779401","name":"엘리시아","industry":"미용실","coordinates":[127.466029058887,36.2781286021572],"sales":{"202602":172}},{"id":"MA010120220805779648","name":"김밥나라","industry":"김밥/만두/분식","coordinates":[127.468081035312,36.2806709347794],"sales":{"202602":838}},{"id":"MA010120220805782352","name":"대성셀프주유소","industry":"주유소","coordinates":[127.461794389866,36.2942401358419],"sales":{"202602":13861}},{"id":"MA010120220805782633","name":"부자공인중개사사무소","industry":"부동산 중개/대리업","coordinates":[127.464159524695,36.2875802622571],"sales":{"202602":133}},{"id":"MA010120220805782977","name":"묘순토박이","industry":"백반/한정식","coordinates":[127.468157860489,36.2786249497476],"sales":{"202602":374}},{"id":"MA010120220805783072","name":"미래통신","industry":"핸드폰 소매업","coordinates":[127.466794692342,36.28334346219],"sales":{"202602":106}},{"id":"MA010120220805783743","name":"벅스리아푸드시스템","industry":"버거","coordinates":[127.466248956701,36.2814170613956],"sales":{"202602":5861}},{"id":"MA010120220805784258","name":"김가네왕짜장","industry":"중국집","coordinates":[127.46878113207,36.2786225081739],"sales":{"202602":1726}},{"id":"MA010120220805785133","name":"장선희헤어하우스","industry":"미용실","coordinates":[127.461286312463,36.298702939293],"sales":{"202602":109}},{"id":"MA010120220805785584","name":"낭월집","industry":"백반/한정식","coordinates":[127.470638872021,36.282165869754],"sales":{"202602":1021}},{"id":"MA010120220805785804","name":"바른가구","industry":"가구 소매업","coordinates":[127.464858301735,36.2834050762259],"sales":{"202602":5434}},{"id":"MA010120220805786644","name":"시내버스낭월동기점위탁급식","industry":"구내식당","coordinates":[127.476994849516,36.2694249974657],"sales":{"202602":958}},{"id":"MA010120220805787004","name":"한솔자동차공업사","industry":"자동차 정비소","coordinates":[127.458278760327,36.2946141344382],"sales":{"202602":859}},{"id":"MA010120220805787444","name":"마당에모닥불하늘엔둥근달","industry":"경양식","coordinates":[127.440843815627,36.2151048530369],"sales":{"202602":533}},{"id":"MA010120220805788098","name":"머리이야기","industry":"미용실","coordinates":[127.467465499237,36.2782401495919],"sales":{"202602":317}},{"id":"MA010120220805788102","name":"로얄열쇠,디지털키,차키,잠긴문야간출장","industry":"철물/공구 소매업","coordinates":[127.466771733693,36.2832263981456],"sales":{"202602":1033}},{"id":"MA010120220805789192","name":"남대전ICLPG충전소","industry":"가스 충전소","coordinates":[127.463795998645,36.2901049804372],"sales":{"202602":29023}},{"id":"MA010120220805789662","name":"서울치킨","industry":"치킨","coordinates":[127.47124835747,36.2798654549117],"sales":{"202602":727}},{"id":"MA010120220805791071","name":"용카리페어샵","industry":"자동차 정비소","coordinates":[127.468020799969,36.2761742688659],"sales":{"202602":516}},{"id":"MA010120220805791086","name":"대성오투그란데공인중개사사무소","industry":"부동산 중개/대리업","coordinates":[127.46478350914,36.28768598029],"sales":{"202602":106}},{"id":"MA010120220805791477","name":"정우공조","industry":"가전제품 수리업","coordinates":[127.445971336405,36.2857119378822],"sales":{"202602":545}},{"id":"MA010120220805791938","name":"향기리본","industry":"기념품점","coordinates":[127.456276957884,36.2854027043488],"sales":{"202602":672}},{"id":"MA010120220805792568","name":"파란농장","industry":"백반/한정식","coordinates":[127.447034544492,36.2281311480957],"sales":{"202602":2306}},{"id":"MA010120220805792911","name":"피자마루","industry":"피자","coordinates":[127.466242668729,36.2841026086228],"sales":{"202602":3909}},{"id":"MA010120220805792975","name":"왕드레김","industry":"중고 상품 소매업","coordinates":[127.464845241057,36.2774483105268],"sales":{"202602":344}},{"id":"MA010120220805793710","name":"모텔","industry":"여관/모텔","coordinates":[127.469844429748,36.272183888161],"sales":{"202602":523}},{"id":"MA010120220805793845","name":"큐클리닉","industry":"운동용품 소매업","coordinates":[127.464001521026,36.2890948601707],"sales":{"202602":1907}},{"id":"MA010120220805794332","name":"이비가짬뽕","industry":"중국집","coordinates":[127.464001521026,36.2890948601707],"sales":{"202602":2939}},{"id":"MA010120220805794741","name":"정우패션","industry":"액세서리/잡화 소매업","coordinates":[127.468124802505,36.2805445979268],"sales":{"202602":158}},{"id":"MA010120220805795287","name":"행복한아침","industry":"슈퍼마켓","coordinates":[127.469273398895,36.2771876969573],"sales":{"202602":2528}},{"id":"MA010120220805795701","name":"아구섬","industry":"백반/한정식","coordinates":[127.467691587891,36.2806904821638],"sales":{"202602":784}},{"id":"MA010120220805795836","name":"색연필","industry":"문구/회화용품 소매업","coordinates":[127.467878917906,36.2803743355458],"sales":{"202602":2584}},{"id":"MA010120220805796632","name":"바로애드","industry":"명함/간판/광고물 제작","coordinates":[127.465548821274,36.2816000255708],"sales":{"202602":521}},{"id":"MA010120220805797423","name":"영일빌딩,영일상회","industry":"슈퍼마켓","coordinates":[127.460481588693,36.2962728549597],"sales":{"202602":9463}},{"id":"MA010120220805797615","name":"제이앤와야","industry":"반찬/식료품 소매업","coordinates":[127.46852419517,36.2747394166029],"sales":{"202602":1504}},{"id":"MA010120220805797730","name":"손복순수라상뷔페","industry":"뷔페","coordinates":[127.465660060387,36.275967200353],"sales":{"202602":2007}},{"id":"MA010120220805797740","name":"하늘채정육마트","industry":"정육점","coordinates":[127.458276497665,36.3037430960984],"sales":{"202602":3785}},{"id":"MA010120220805797989","name":"삐삐노래연습장","industry":"노래방","coordinates":[127.466909774331,36.2821083934338],"sales":{"202602":693}},{"id":"MA010120220805798054","name":"낭월카스테이션","industry":"자동차 정비소","coordinates":[127.464584986325,36.276728375426],"sales":{"202602":3335}},{"id":"MA010120220805798201","name":"예손백탄","industry":"백반/한정식","coordinates":[127.46582026323,36.2767055465969],"sales":{"202602":1961}},{"id":"MA010120220805798830","name":"남대전자동차공업사","industry":"자동차 정비소","coordinates":[127.462992476241,36.2822227542455],"sales":{"202602":980}},{"id":"MA010120220805798921","name":"하루헤어","industry":"미용실","coordinates":[127.468681771513,36.2787580750168],"sales":{"202602":287}},{"id":"MA010120220805798974","name":"골프톡톡!!","industry":"운동용품 소매업","coordinates":[127.466615103781,36.2756120164154],"sales":{"202602":844}},{"id":"MA010120220805800680","name":"숲속에댕댕이","industry":"카페","coordinates":[127.466409273305,36.2765590615988],"sales":{"202602":1871}},{"id":"MA010120220805802254","name":"얼큰이네꽁당보리밥","industry":"백반/한정식","coordinates":[127.466909774331,36.2821083934338],"sales":{"202602":1494}},{"id":"MA010120220805805756","name":"워니패션","industry":"기타 의류 소매업","coordinates":[127.467229960814,36.276069219227],"sales":{"202602":297}},{"id":"MA010120220805810442","name":"예원테크주","industry":"옥외/전시 광고 대행업","coordinates":[127.458882946093,36.2247428771751],"sales":{"202602":561}},{"id":"MA010120220805812646","name":"미래애드컴","industry":"옥외/전시 광고 대행업","coordinates":[127.467499957124,36.2802856993811],"sales":{"202602":1557}},{"id":"MA010120220805812835","name":"1급동부자동차공업사","industry":"자동차 정비소","coordinates":[127.459010162409,36.2959450760503],"sales":{"202602":1216}},{"id":"MA010120220805813195","name":"현우모터스","industry":"자동차 정비소","coordinates":[127.457488506603,36.2965456870412],"sales":{"202602":1402}},{"id":"MA010120220805813428","name":"우리모터스","industry":"자동차 정비소","coordinates":[127.465336158418,36.2889004257008],"sales":{"202602":7061}},{"id":"MA010120220805813683","name":"안전가설산업주","industry":"건설기계/장비 대여업","coordinates":[127.451645715159,36.2891421676142],"sales":{"202602":1174}},{"id":"MA010120220805813816","name":"마당에모닥불하늘엔둥근달주","industry":"백반/한정식","coordinates":[127.440843815627,36.2151048530369],"sales":{"202602":2596}},{"id":"MA010120220805814097","name":"경찰공제회","industry":"방사선 진단/병리 검사 의원","coordinates":[127.461529393741,36.2870497337067],"sales":{"202602":10645}},{"id":"MA010120220805814169","name":"보광노인전문병원","industry":"요양병원","coordinates":[127.453012485697,36.2270542715235],"sales":{"202602":12705}},{"id":"MA010120220805814434","name":"대전광역시립제2노인전문병원","industry":"요양병원","coordinates":[127.440462582509,36.2125648913289],"sales":{"202602":5306}},{"id":"MA010120220805814560","name":"산내농협하나로마트","industry":"슈퍼마켓","coordinates":[127.467852841852,36.2816000455222],"sales":{"202602":3956}},{"id":"MA010120220805814589","name":"행복나눔사회적협동조합","industry":"상용 인력 공급 및 인사관리 서비스업","coordinates":[127.46593564928,36.2811389160105],"sales":{"202602":4646}},{"id":"MA010120220805815819","name":"내트럭남대전사업소주","industry":"주유소","coordinates":[127.472025212042,36.2720941943988],"sales":{"202602":66446}},{"id":"MA010120220805817870","name":"남대전종합서비스기아오토큐","industry":"자동차 정비소","coordinates":[127.462326515821,36.2919761158913],"sales":{"202602":3608}},{"id":"MA010120220805817992","name":"생물보전연구소","industry":"기타 엔지니어링 서비스업","coordinates":[127.466909774331,36.2821083934338],"sales":{"202602":27132}},{"id":"MA010120220805818977","name":"디에스건기","industry":"건설기계/장비 대여업","coordinates":[127.464453139528,36.2770172661326],"sales":{"202602":331}},{"id":"MA010120220805818989","name":"대한중장비운전학원","industry":"운전학원","coordinates":[127.45931621483,36.2949796376215],"sales":{"202602":8882}},{"id":"MA010120220805824310","name":"산골가든","industry":"백반/한정식","coordinates":[127.476577253409,36.2409852369236],"sales":{"202602":794}},{"id":"MA010120220805825619","name":"업소명없음","industry":"담배/전자담배 소매업","coordinates":[127.460425926848,36.2962730693166],"sales":{"202602":1286}},{"id":"MA010120220805825752","name":"황가옥소머리국밥","industry":"국/탕/찌개류","coordinates":[127.438544922879,36.211688764019],"sales":{"202602":1980}},{"id":"MA010120220805825762","name":"알뜰소비자수퍼","industry":"슈퍼마켓","coordinates":[127.460088810117,36.2881547267893],"sales":{"202602":6210}},{"id":"MA010120220805826145","name":"꽃피는헤어","industry":"미용실","coordinates":[127.470419834276,36.2827615117278],"sales":{"202602":218}},{"id":"MA010120220805827421","name":"간이","industry":"슈퍼마켓","coordinates":[127.473160053217,36.273883064812],"sales":{"202602":11506}},{"id":"MA010120220805828339","name":"별천지","industry":"백반/한정식","coordinates":[127.46094098319,36.2910983076986],"sales":{"202602":1699}},{"id":"MA010120220805829508","name":"중앙이용원","industry":"미용실","coordinates":[127.46626637734,36.2843458352937],"sales":{"202602":180}},{"id":"MA010120220805829926","name":"대명종합가스","industry":"가정용 연료 소매업","coordinates":[127.445848281471,36.2856042548577],"sales":{"202602":13735}},{"id":"MA010120220805834498","name":"천일기업","industry":"세탁소","coordinates":[127.445613267042,36.2266044245574],"sales":{"202602":198}},{"id":"MA010120220805854850","name":"모던블랙","industry":"기타 의류 소매업","coordinates":[127.466771733693,36.2832263981456],"sales":{"202602":301}},{"id":"MA010120220805855114","name":"재호상회","industry":"슈퍼마켓","coordinates":[127.459328718445,36.2876169399844],"sales":{"202602":4064}},{"id":"MA010120220805855119","name":"에스/치킨마루대","industry":"치킨","coordinates":[127.465419482838,36.2860613798677],"sales":{"202602":559}},{"id":"MA010120220805855162","name":"박영미미용실","industry":"미용실","coordinates":[127.461209588033,36.2951255499366],"sales":{"202602":115}},{"id":"MA010120220805855183","name":"대성이용원","industry":"미용실","coordinates":[127.460481588693,36.2962728549597],"sales":{"202602":816}},{"id":"MA010120220805855184","name":"동원철물점","industry":"철물/공구 소매업","coordinates":[127.46135366995,36.2950168524231],"sales":{"202602":1243}},{"id":"MA010120220805855188","name":"산내석유","industry":"가정용 연료 소매업","coordinates":[127.470345157338,36.2814460796685],"sales":{"202602":4121}},{"id":"MA010120220805855192","name":"수정목욕탕","industry":"목욕탕/사우나","coordinates":[127.461200524565,36.2954770452647],"sales":{"202602":3854}},{"id":"MA010120220805855197","name":"평양숨두부","industry":"백반/한정식","coordinates":[127.456681469203,36.3013340383527],"sales":{"202602":1907}},{"id":"MA010120220805855202","name":"미니","industry":"그 외 기타 종합 소매업","coordinates":[127.460844821325,36.2974610133689],"sales":{"202602":1421}},{"id":"MA010120220805855533","name":"만인산휴양림","industry":"백반/한정식","coordinates":[127.449054472346,36.2001054919019],"sales":{"202602":4496}},{"id":"MA010120220805855551","name":"태암주유소","industry":"주유소","coordinates":[127.463071970613,36.2919101485755],"sales":{"202602":6333}},{"id":"MA010120220805855556","name":"고향주유소","industry":"주유소","coordinates":[127.453723410023,36.2288179118872],"sales":{"202602":43008}},{"id":"MA010120220805863077","name":"흥일자동차학원주","industry":"운전학원","coordinates":[127.462329107951,36.288641735666],"sales":{"202602":4633}},{"id":"MA010120220805864068","name":"중도가스대전영업소주","industry":"가정용 연료 소매업","coordinates":[127.460571344319,36.2944971837815],"sales":{"202602":4430}},{"id":"MA010120220805888099","name":"더크린","industry":"산업설비, 운송장비 및 공공장소 청소업","coordinates":[127.465444637321,36.2790500846045],"sales":{"202602":1221}},{"id":"MA010120220805889985","name":"브라운","industry":"카페","coordinates":[127.472025212042,36.2720941943988],"sales":{"202602":1029}},{"id":"MA010120220805891253","name":"세탁향기","industry":"세탁소","coordinates":[127.465556149802,36.2772112375461],"sales":{"202602":111}},{"id":"MA010120220805914841","name":"피자스쿨","industry":"피자","coordinates":[127.467878917906,36.2803743355458],"sales":{"202602":2292}},{"id":"MA010120220805930679","name":"백마고속관광","industry":"여행사","coordinates":[127.455978558511,36.2876838328865],"sales":{"202602":900}},{"id":"MA010120220806147058","name":"채움","industry":"백반/한정식","coordinates":[127.467801759037,36.2786353550907],"sales":{"202602":494}},{"id":"MA010120220806170947","name":"명성전자","industry":"장난감 소매업","coordinates":[127.45581228276,36.2820610898978],"sales":{"202602":441}},{"id":"MA010120220806171025","name":"원크린","industry":"세탁소","coordinates":[127.466591044391,36.2809200768517],"sales":{"202602":345}},{"id":"MA010120220806180261","name":"유민유통","industry":"반찬/식료품 소매업","coordinates":[127.477963087631,36.2529925314164],"sales":{"202602":1234}},{"id":"MA010120220806190668","name":"지에스25","industry":"편의점","coordinates":[127.468065116536,36.279868944733],"sales":{"202602":1812}},{"id":"MA010120220806194228","name":"신천황토마을","industry":"백반/한정식","coordinates":[127.451546967082,36.2913233999198],"sales":{"202602":1473}},{"id":"MA010120220806199048","name":"럭키프라자","industry":"가전제품 소매업","coordinates":[127.46512011527,36.2768794964858],"sales":{"202602":5521}},{"id":"MA010120220806208119","name":"에이치앤엠모터싸이클즈","industry":"모터사이클 및 부품 소매업","coordinates":[127.44141654882,36.2220329136109],"sales":{"202602":1345}},{"id":"MA010120220806213744","name":"코어시스템","industry":"전시/컨벤션/행사 대행 서비스업","coordinates":[127.458912642717,36.284996098294],"sales":{"202602":92}},{"id":"MA010120220806223827","name":"캠핑&짱작","industry":"운동용품 소매업","coordinates":[127.472025212042,36.2720941943988],"sales":{"202602":580}},{"id":"MA010120220806224913","name":"Jm건축사사무소","industry":"건축 설계 및 관련 서비스업","coordinates":[127.466304535112,36.2795333733503],"sales":{}},{"id":"MA010120220806229266","name":"제이컴퍼니","industry":"사무기기 소매업","coordinates":[127.466735167192,36.2752150272933],"sales":{"202602":1843}},{"id":"MA010120220806245196","name":"지앤지래드콘","industry":"기타 사무 지원 서비스업","coordinates":[127.440014371989,36.2179196279629],"sales":{}},{"id":"MA010120220806249640","name":"한살림대전생활협동조합","industry":"슈퍼마켓","coordinates":[127.467121883577,36.2710049903358],"sales":{"202602":6592}},{"id":"MA010120220806309946","name":"위트","industry":"시각 디자인업","coordinates":[127.466366704765,36.2787581138333],"sales":{"202602":225}},{"id":"MA010120220806402455","name":"현대1급보링공업사","industry":"자동차 정비소","coordinates":[127.463332951698,36.2908637676848],"sales":{"202602":121}},{"id":"MA010120220806404855","name":"산천공인중개사사무소","industry":"부동산 중개/대리업","coordinates":[127.467465499237,36.2782401495919],"sales":{"202602":22}},{"id":"MA010120220806433797","name":"트리플한백","industry":"자동차 정비소","coordinates":[127.4688213528,36.2704576302504],"sales":{"202602":2782}},{"id":"MA010120220806482797","name":"가마치통닭","industry":"치킨","coordinates":[127.467900102389,36.2801940161749],"sales":{"202602":463}},{"id":"MA010120220806485935","name":"파리바게뜨산내점","industry":"빵/도넛","coordinates":[127.467691587891,36.2806904821638],"sales":{"202602":787}},{"id":"MA010120220806566874","name":"참시골순대","industry":"국/탕/찌개류","coordinates":[127.469547833624,36.2728339051327],"sales":{"202602":1585}},{"id":"MA010120220806578739","name":"신참떡볶이","industry":"김밥/만두/분식","coordinates":[127.468681771513,36.2787580750168],"sales":{"202602":181}},{"id":"MA010120220806608033","name":"민커뮤니케이션","industry":"기타 광고 관련 서비스업","coordinates":[127.465938119103,36.272190158759],"sales":{"202602":474}},{"id":"MA010120220806627531","name":"지에스25낭월","industry":"편의점","coordinates":[127.464159524695,36.2875802622571],"sales":{"202602":1665}},{"id":"MA010120220806638247","name":"보다모터스","industry":"자동차 정비소","coordinates":[127.468923502413,36.2782344414581],"sales":{"202602":403}},{"id":"MA010120220806639494","name":"워시엔조이셀프빨래방","industry":"셀프 빨래방","coordinates":[127.459356194931,36.2998999278105],"sales":{"202602":239}},{"id":"MA010120220806654424","name":"대한민국역사문화진흥원","industry":"교육컨설팅업","coordinates":[127.466409273305,36.2765590615988],"sales":{"202602":1332}},{"id":"MA010120220806665578","name":"그꽃","industry":"꽃집","coordinates":[127.466993806932,36.2831354129075],"sales":{"202602":181}},{"id":"MA010120220806742805","name":"엄마사랑식판","industry":"산업설비, 운송장비 및 공공장소 청소업","coordinates":[127.451774913675,36.2903132156596],"sales":{"202602":246}},{"id":"MA010120220806794991","name":"대전도시공사낭월수소충전소","industry":"가스 충전소","coordinates":[127.478723143962,36.2681474230643],"sales":{"202602":24424}},{"id":"MA010120220806868827","name":"대명자동차공업사","industry":"자동차 정비소","coordinates":[127.462212510211,36.2896334858731],"sales":{"202602":11110}},{"id":"MA010120220806888482","name":"장수진곰탕","industry":"국/탕/찌개류","coordinates":[127.469547833624,36.2728339051327],"sales":{"202602":1885}},{"id":"MA010120220806892134","name":"보문인테리어","industry":"인테리어 디자인업","coordinates":[127.439471579389,36.2103515977969],"sales":{"202602":715}},{"id":"MA010120220806943287","name":"삼익옷수선","industry":"의류/이불 수선업","coordinates":[127.460844821325,36.2974610133689],"sales":{"202602":125}},{"id":"MA010120220806979813","name":"카페하소","industry":"카페","coordinates":[127.439722504371,36.2094855298195],"sales":{"202602":664}},{"id":"MA010120220807006595","name":"동원드림에이","industry":"경영 컨설팅업","coordinates":[127.464647022062,36.2796840142041],"sales":{"202602":6334}},{"id":"MA010120220807033350","name":"카페길우","industry":"카페","coordinates":[127.466854820296,36.2822257616705],"sales":{"202602":158}},{"id":"MA010120220807044764","name":"예뫼골식당","industry":"백반/한정식","coordinates":[127.469000254371,36.2799013282237],"sales":{"202602":873}},{"id":"MA010120220807059978","name":"빵긋댕긋","industry":"애완동물/애완용품 소매업","coordinates":[127.460240435066,36.2969136214626],"sales":{"202602":1336}},{"id":"MA010120220807070570","name":"엠아이","industry":"여관/모텔","coordinates":[127.46945642763,36.2724377432237],"sales":{"202602":98}},{"id":"MA010120220807075328","name":"드림바이크","industry":"모터사이클 및 부품 소매업","coordinates":[127.462329107951,36.288641735666],"sales":{"202602":1148}},{"id":"MA010120220807083317","name":"안흥일반행정사","industry":"행정사","coordinates":[127.46848385713,36.279164382676],"sales":{"202602":990}},{"id":"MA010120220807112197","name":"사계절추어탕","industry":"국/탕/찌개류","coordinates":[127.46680442756,36.283109116861],"sales":{"202602":2275}},{"id":"MA010120220807115774","name":"낭월우리약국","industry":"약국","coordinates":[127.468610649433,36.2798938437343],"sales":{"202602":7884}},{"id":"MA010120220807124766","name":"떡과찬","industry":"떡/한과","coordinates":[127.468224220083,36.2804180431767],"sales":{"202602":692}},{"id":"MA010120220807162842","name":"달리","industry":"기타 의류 소매업","coordinates":[127.466914766248,36.2829464733208],"sales":{"202602":1031}},{"id":"MA010120220807174585","name":"수헤어","industry":"미용실","coordinates":[127.466914766248,36.2829464733208],"sales":{"202602":74}},{"id":"MA010120220807176743","name":"이동민의4대광양불고기","industry":"돼지고기 구이/찜","coordinates":[127.468823908103,36.2727466268102],"sales":{"202602":1876}},{"id":"MA010120220807205691","name":"카페브로","industry":"피자","coordinates":[127.468081035312,36.2806709347794],"sales":{"202602":2286}},{"id":"MA010120220807212290","name":"진이엔지","industry":"건물 및 토목 엔지니어링 서비스업","coordinates":[127.465609122268,36.2767604398119],"sales":{}},{"id":"MA010120220807224019","name":"목금토목공예학원","industry":"기타 예술/스포츠 교육기관","coordinates":[127.468971199614,36.2750440668489],"sales":{"202602":278}},{"id":"MA010120220807387844","name":"틸로","industry":"건설기계/장비 대여업","coordinates":[127.461735683151,36.2918342099634],"sales":{"202602":275}},{"id":"MA010120220807393691","name":"진수성찬","industry":"백반/한정식","coordinates":[127.472025212042,36.2720941943988],"sales":{"202602":2264}},{"id":"MA010120220807401916","name":"동부모터스","industry":"자동차 정비소","coordinates":[127.458499604782,36.2962083772962],"sales":{"202602":596}},{"id":"MA010120220807517990","name":"김보경헤어샵","industry":"미용실","coordinates":[127.460240435066,36.2969136214626],"sales":{"202602":429}},{"id":"MA010120220807758837","name":"김가네짬뽕","industry":"중국집","coordinates":[127.443501292383,36.2248729714803],"sales":{"202602":5372}},{"id":"MA010120220807759211","name":"중증장애인생계형판매의집","industry":"문구/회화용품 소매업","coordinates":[127.469028247852,36.2752781507455],"sales":{"202602":4804}},{"id":"MA010120220807767587","name":"라온여행사","industry":"여행사","coordinates":[127.465400712566,36.2754004644826],"sales":{"202602":1076}},{"id":"MA010120220807789587","name":"계룡카센타","industry":"자동차 정비소","coordinates":[127.459288787472,36.2959980769166],"sales":{"202602":1111}},{"id":"MA010120220807790101","name":"스피드메이트덕성점","industry":"자동차 정비소","coordinates":[127.461588703791,36.293339749421],"sales":{"202602":1053}},{"id":"MA010120220807795553","name":"제주도","industry":"백반/한정식","coordinates":[127.442356662202,36.2151713659273],"sales":{"202602":413}},{"id":"MA010120220807997688","name":"선비꼬마김밥","industry":"김밥/만두/분식","coordinates":[127.468070220541,36.2788596002925],"sales":{"202602":795}},{"id":"MA010120220808021114","name":"금강참숯민물장어","industry":"해산물 구이/찜","coordinates":[127.466031350329,36.2766416413891],"sales":{"202602":2628}},{"id":"MA010120220808023741","name":"남대전워터파크","industry":"슈퍼마켓","coordinates":[127.451125455188,36.2857827227406],"sales":{"202602":4358}},{"id":"MA010120220808024752","name":"대전가구톡세상","industry":"가구 소매업","coordinates":[127.468823908103,36.2727466268102],"sales":{"202602":8382}},{"id":"MA010120220808037255","name":"소리건축.인테리어","industry":"인테리어 디자인업","coordinates":[127.468968612514,36.2746115090569],"sales":{"202602":965}},{"id":"MA010120220808053741","name":"뜸부기둥지카페","industry":"카페","coordinates":[127.440843815627,36.2151048530369],"sales":{"202602":370}},{"id":"MA010120220808067966","name":"산내모터스","industry":"자동차 정비소","coordinates":[127.465336158418,36.2889004257008],"sales":{"202602":3083}},{"id":"MA010120220808085068","name":"뉴라이프대전남부","industry":"가전제품 소매업","coordinates":[127.46852419517,36.2747394166029],"sales":{"202602":2613}},{"id":"MA010120220808122395","name":"투썸플레이스대전만인산점","industry":"카페","coordinates":[127.443010185809,36.2048412661893],"sales":{"202602":735}},{"id":"MA010120220808283522","name":"히드헤어","industry":"미용실","coordinates":[127.466807808519,36.2836768483236],"sales":{"202602":117}},{"id":"MA010120220808321679","name":"대전나무병원","industry":"조경 유지·관리 서비스업","coordinates":[127.464439328384,36.2897149755102],"sales":{}},{"id":"MA010120220808409655","name":"벚꽃참치","industry":"반찬/식료품 소매업","coordinates":[127.466755344576,36.2823433036645],"sales":{"202602":700}},{"id":"MA010120220808414921","name":"바로디자인","industry":"명함/간판/광고물 제작","coordinates":[127.46530058099,36.2829077059595],"sales":{"202602":445}},{"id":"MA010120220808427096","name":"카페테라핀","industry":"카페","coordinates":[127.462288219106,36.2873712278617],"sales":{"202602":294}},{"id":"MA010120220808452493","name":"허브원앤선라이즈","industry":"기타 의류 소매업","coordinates":[127.459304279104,36.2853460556591],"sales":{"202602":522}},{"id":"MA010120220808524741","name":"슈퍼몽테마파크","industry":"기타 오락장","coordinates":[127.46582026323,36.2767055465969],"sales":{"202602":774}},{"id":"MA010120220808543386","name":"진성간병회","industry":"고용 알선업","coordinates":[127.46593564928,36.2811389160105],"sales":{}},{"id":"MA010120220808567670","name":"중앙식당","industry":"백반/한정식","coordinates":[127.464816154329,36.2875596879946],"sales":{"202602":698}},{"id":"MA010120220808616400","name":"제일국가기능사교육원","industry":"기타 기술/직업 훈련학원","coordinates":[127.460460277262,36.2964351494883],"sales":{"202602":702}},{"id":"MA010120220808617520","name":"일오삼수제돈까스","industry":"경양식","coordinates":[127.466527408852,36.2758376543346],"sales":{"202602":1439}},{"id":"MA010120220808709524","name":"치킨박사","industry":"치킨","coordinates":[127.468623752084,36.2783617820201],"sales":{"202602":2106}},{"id":"MA010120220808726559","name":"은어송하늘채공인중개사사무소","industry":"부동산 중개/대리업","coordinates":[127.458417921169,36.2993718328712],"sales":{"202602":26}},{"id":"MA010120220808819363","name":"감더드림","industry":"사업/무형 재산권 중개업","coordinates":[127.448158710136,36.2867040724039],"sales":{"202602":140}},{"id":"MA010120220808838175","name":"버팀목","industry":"경영 컨설팅업","coordinates":[127.459488362436,36.2996561013939],"sales":{"202602":1354}},{"id":"MA010120220808983300","name":"크로바상회","industry":"슈퍼마켓","coordinates":[127.462302752216,36.2879479278574],"sales":{"202602":5926}},{"id":"MA010120220809219306","name":"극동태권도장","industry":"태권도/무술학원","coordinates":[127.468157860489,36.2786249497476],"sales":{"202602":102}},{"id":"MA010120220809235262","name":"모락모락","industry":"백반/한정식","coordinates":[127.466448430451,36.2756577257703],"sales":{"202602":1968}},{"id":"MA010120220809331683","name":"충남","industry":"경영 컨설팅업","coordinates":[127.438617887328,36.2108143385512],"sales":{"202602":5156}},{"id":"MA010120220809450877","name":"라희푸드","industry":"구내식당","coordinates":[127.466723869447,36.2882732022101],"sales":{"202602":1932}},{"id":"MA010120220809534895","name":"담다","industry":"카페","coordinates":[127.466400374869,36.2750631322665],"sales":{"202602":1349}},{"id":"MA010120220809609181","name":"우등생오투공부방","industry":"입시·교과학원","coordinates":[127.465355428226,36.2846467737936],"sales":{"202602":370}},{"id":"MA010120220809638701","name":"법인둥구나무","industry":"기타 오락관련 서비스업","coordinates":[127.454105965536,36.2872493798116],"sales":{"202602":344}},{"id":"MA010120220809658222","name":"리젠모터스","industry":"모터사이클 및 부품 소매업","coordinates":[127.468823908103,36.2727466268102],"sales":{"202602":655}},{"id":"MA010120220809665202","name":"족발시대","industry":"족발/보쌈","coordinates":[127.468623752084,36.2783617820201],"sales":{"202602":1252}},{"id":"MA010120220809670941","name":"로스트커피","industry":"카페","coordinates":[127.46807477976,36.2758946908568],"sales":{"202602":1059}},{"id":"MA010120220809700454","name":"클린앤클린","industry":"세탁소","coordinates":[127.458276497665,36.3037430960984],"sales":{"202602":169}},{"id":"MA010120220809710138","name":"미래시스템","industry":"가전제품 수리업","coordinates":[127.468330380615,36.2758306073636],"sales":{"202602":323}},{"id":"MA010120220809725629","name":"이편한공인중개사사무소","industry":"부동산 중개/대리업","coordinates":[127.467135227451,36.2825851394865],"sales":{"202602":43}},{"id":"MA010120220809731491","name":"대영스크린골프","industry":"골프 연습장","coordinates":[127.46698693518,36.2819819266303],"sales":{"202602":350}},{"id":"MA010120220809756236","name":"드림오에이","industry":"사무기기 소매업","coordinates":[127.467083130124,36.27570931954],"sales":{"202602":319}},{"id":"MA010120220809780728","name":"여기맛주","industry":"요리 주점","coordinates":[127.467323208842,36.2823771331283],"sales":{"202602":396}},{"id":"MA010120220809782290","name":"워시테리아","industry":"세탁소","coordinates":[127.464749633221,36.2763402269573],"sales":{"202602":197}},{"id":"MA010120220809835014","name":"제이네언니","industry":"기타 의류 소매업","coordinates":[127.4677044914,36.2847187155488],"sales":{"202602":264}},{"id":"MA010120220809845741","name":"화이트365셀프빨래방","industry":"셀프 빨래방","coordinates":[127.467853215782,36.27979767933],"sales":{"202602":173}},{"id":"MA010120220809914797","name":"수에스테틱","industry":"피부 관리실","coordinates":[127.470419834276,36.2827615117278],"sales":{"202602":346}},{"id":"MA010120220809956009","name":"수입브랜드","industry":"슈퍼마켓","coordinates":[127.466026755554,36.2777411025076],"sales":{"202602":9133}},{"id":"MA010120220810070536","name":"그린브라우니","industry":"카페","coordinates":[127.466653801806,36.2765040366967],"sales":{"202602":376}},{"id":"MA010120220810154150","name":"옥류관","industry":"중국집","coordinates":[127.459753234829,36.2878766512109],"sales":{"202602":738}},{"id":"MA010120220810255212","name":"황궁세차장","industry":"자동차 세차장","coordinates":[127.467484595817,36.2758429283555],"sales":{"202602":2564}},{"id":"MA010120220810284023","name":"씨유대전낭월","industry":"편의점","coordinates":[127.468020799969,36.2761742688659],"sales":{"202602":1384}},{"id":"MA010120220810289956","name":"오토바이사랑방","industry":"모터사이클 및 부품 소매업","coordinates":[127.460321552872,36.2955615387039],"sales":{"202602":4200}},{"id":"MA010120220810309358","name":"전국족보시대","industry":"요리 주점","coordinates":[127.466854820296,36.2822257616705],"sales":{"202602":371}},{"id":"MA010120220810318966","name":"아루헤어","industry":"미용실","coordinates":[127.459972652181,36.2987080003384],"sales":{"202602":155}},{"id":"MA010120220810390217","name":"코오롱하늘채공인중개사사무소","industry":"부동산 중개/대리업","coordinates":[127.458276497665,36.3037430960984],"sales":{"202602":31}},{"id":"MA010120220810481189","name":"학교종이땡땡땡","industry":"김밥/만두/분식","coordinates":[127.468638221656,36.2789204585569],"sales":{"202602":1403}},{"id":"MA010120220810743247","name":"재호상회","industry":"백반/한정식","coordinates":[127.459328718445,36.2876169399844],"sales":{"202602":1015}},{"id":"MA010120220810756242","name":"보라커뮤니케이션즈주","industry":"광고 대행업","coordinates":[127.476101044547,36.2798462337468],"sales":{"202602":1528}},{"id":"MA010120220810973745","name":"불구이돈","industry":"돼지고기 구이/찜","coordinates":[127.466656512324,36.28256898492],"sales":{"202602":1146}},{"id":"MA010120220811301256","name":"장례의전법인","industry":"장례식장","coordinates":[127.462999928017,36.2834843805146],"sales":{"202602":5887}},{"id":"MA010120220811414551","name":"한생프라임","industry":"화장품 소매업","coordinates":[127.469167429778,36.2743583979499],"sales":{"202602":2391}},{"id":"MA010120220811750930","name":"대영빌딩","industry":"골프 연습장","coordinates":[127.46698693518,36.2819819266303],"sales":{"202602":521}},{"id":"MA010120220811814475","name":"올면키친","industry":"국수/칼국수","coordinates":[127.477847997853,36.2541915686462],"sales":{"202602":1490}},{"id":"MA010120220811817132","name":"포비","industry":"명함/간판/광고물 제작","coordinates":[127.465836211588,36.2775165491582],"sales":{"202602":757}},{"id":"MA010120220811919379","name":"대영부동산공인중개사사무소","industry":"부동산 중개/대리업","coordinates":[127.46698693518,36.2819819266303],"sales":{"202602":80}},{"id":"MA010120220811925920","name":"동사진관","industry":"사진촬영업","coordinates":[127.465400712566,36.2754004644826],"sales":{"202602":352}},{"id":"MA010120220811958458","name":"이지헤어샵","industry":"미용실","coordinates":[127.468157860489,36.2786249497476],"sales":{"202602":103}},{"id":"MA010120220811971805","name":"라플헤어","industry":"미용실","coordinates":[127.466794692342,36.28334346219],"sales":{"202602":130}},{"id":"MA010120220812023297","name":"유성갈비산내점","industry":"돼지고기 구이/찜","coordinates":[127.466524449071,36.2828218311978],"sales":{"202602":2751}},{"id":"MA010120220812024409","name":"청사호프","industry":"요리 주점","coordinates":[127.459972652181,36.2987080003384],"sales":{"202602":560}},{"id":"MA010120220812125093","name":"3.S융합혁신센터","industry":"기타 교육지원 서비스업","coordinates":[127.464560140881,36.2781703647101],"sales":{"202602":39}},{"id":"MA010120220812159433","name":"산래다방","industry":"부동산 중개/대리업","coordinates":[127.467349347026,36.2811604349775],"sales":{"202602":33}},{"id":"MA010120220812218549","name":"윤시연헤어","industry":"미용실","coordinates":[127.459260845099,36.2988278900353],"sales":{"202602":199}},{"id":"MA010120220812263528","name":"대일냉동시스템","industry":"가전제품 소매업","coordinates":[127.466984145953,36.275907966384],"sales":{"202602":2714}},{"id":"MA010120220812267143","name":"노랑자동차공업사","industry":"자동차 정비소","coordinates":[127.46480067951,36.2887042484836],"sales":{"202602":939}},{"id":"MA010120220812273597","name":"세븐일레븐","industry":"편의점","coordinates":[127.466409273305,36.2765590615988],"sales":{"202602":3286}},{"id":"MA010120220812274478","name":"온새미로숲학교사회적협동조합","industry":"기타 오락관련 서비스업","coordinates":[127.467400361704,36.2841161128558],"sales":{"202602":1015}},{"id":"MA010120220812331788","name":"씨유","industry":"편의점","coordinates":[127.461286312463,36.298702939293],"sales":{"202602":1553}},{"id":"MA010120220812340855","name":"산내돌짜장면대전","industry":"중국집","coordinates":[127.444116379715,36.2254654766019],"sales":{"202602":1567}},{"id":"MA010120220812346929","name":"배스킨라빈스대전산내점","industry":"아이스크림/빙수","coordinates":[127.46698693518,36.2819819266303],"sales":{"202602":1958}},{"id":"MA010120220812352435","name":"정공인중개사사무소","industry":"부동산 중개/대리업","coordinates":[127.466794692342,36.28334346219],"sales":{"202602":32}},{"id":"MA010120220812379018","name":"킹당구장","industry":"당구장","coordinates":[127.468704903448,36.2751802882801],"sales":{"202602":213}},{"id":"MA010120220812379211","name":"대별모터스","industry":"자동차 정비소","coordinates":[127.462167027914,36.2894714490498],"sales":{"202602":349}},{"id":"MA010120220812380915","name":"정류장약국","industry":"약국","coordinates":[127.4674600043,36.2810518605893],"sales":{"202602":6849}},{"id":"MA010120220812399819","name":"낭월순대","industry":"국/탕/찌개류","coordinates":[127.467883113085,36.2810772413724],"sales":{"202602":641}},{"id":"MA010120220812447819","name":"카페596","industry":"요리 주점","coordinates":[127.468429069007,36.2793087865055],"sales":{"202602":633}},{"id":"MA010120220812537839","name":"60계치킨대전산내","industry":"치킨","coordinates":[127.466524449071,36.2828218311978],"sales":{"202602":368}},{"id":"MA010120220812543582","name":"행복한아침마트정육","industry":"정육점","coordinates":[127.469273398895,36.2771876969573],"sales":{"202602":1148}},{"id":"MA010120220812549025","name":"장수건강원","industry":"건강보조식품 소매업","coordinates":[127.467046882135,36.2827026382361],"sales":{"202602":1606}},{"id":"MA010120220812577252","name":"김밥&라면","industry":"김밥/만두/분식","coordinates":[127.466055644834,36.2844728222528],"sales":{"202602":269}},{"id":"MA010120220812578628","name":"토리스타특별한커피","industry":"카페","coordinates":[127.467851222613,36.2757333526783],"sales":{"202602":266}},{"id":"MA010120220812631043","name":"해피영현","industry":"건축물 일반 청소업","coordinates":[127.464159524695,36.2875802622571],"sales":{"202602":386}},{"id":"MA010120220812702918","name":"더랙","industry":"자동차 부품 소매업","coordinates":[127.465010226693,36.282746622597],"sales":{"202602":687}},{"id":"MA010120220812816671","name":"행운스크린","industry":"골프 연습장","coordinates":[127.467484595817,36.2758429283555],"sales":{"202602":208}},{"id":"MA010120220812831948","name":"모모뷰티","industry":"피부 관리실","coordinates":[127.466263034914,36.2762982887549],"sales":{"202602":176}},{"id":"MA010120220812875613","name":"산내자전거","industry":"자전거 소매업","coordinates":[127.468681771513,36.2787580750168],"sales":{"202602":302}},{"id":"MA010120220812958005","name":"제이에스커피","industry":"가전제품 소매업","coordinates":[127.468330380615,36.2758306073636],"sales":{"202602":4340}},{"id":"MA010120220813022675","name":"누리식당","industry":"백반/한정식","coordinates":[127.459288787472,36.2959980769166],"sales":{"202602":1534}},{"id":"MA010120220813074931","name":"비광가정식백반","industry":"백반/한정식","coordinates":[127.468823908103,36.2727466268102],"sales":{"202602":1260}},{"id":"MA010120220813083836","name":"히어로유아체육","industry":"레크리에이션 교육기관","coordinates":[127.473223749156,36.2438553142987],"sales":{"202602":257}},{"id":"MA010120220813152702","name":"박종태상용차정비","industry":"자동차 정비소","coordinates":[127.462743872035,36.2929027176623],"sales":{"202602":1939}},{"id":"MA010120220813181195","name":"한밭자동차공업사","industry":"자동차 정비소","coordinates":[127.467363584747,36.2835485119927],"sales":{"202602":525}},{"id":"MA010120220813195816","name":"1급대운자동차공업사","industry":"자동차 정비소","coordinates":[127.461351696296,36.292790943873],"sales":{"202602":783}},{"id":"MA010120220813203298","name":"테크존대전배드민턴센터,스카이유소년스포츠센터","industry":"테니스장","coordinates":[127.458523322115,36.2869441447291],"sales":{"202602":270}},{"id":"MA010120220813265219","name":"하이실루엣","industry":"기타 의류 소매업","coordinates":[127.460321552872,36.2955615387039],"sales":{"202602":380}},{"id":"MA010120220813270037","name":"시민칼국수","industry":"국수/칼국수","coordinates":[127.467323208842,36.2823771331283],"sales":{"202602":286}},{"id":"MA010120220813382370","name":"투림카페","industry":"카페","coordinates":[127.473703422647,36.2735564878602],"sales":{"202602":1052}},{"id":"MA010120220813519337","name":"젠틀맨남성컷트","industry":"미용실","coordinates":[127.467691587891,36.2806904821638],"sales":{"202602":159}},{"id":"MA010120220813540024","name":"남대전삼통카공업사","industry":"자동차 정비소","coordinates":[127.471103514936,36.2724312665027],"sales":{"202602":1373}},{"id":"MA010120220813559941","name":"굿모닝상사","industry":"자동차 부품 소매업","coordinates":[127.445971336405,36.2857119378822],"sales":{"202602":983}},{"id":"MA010120220813577172","name":"해밀인테리어필림","industry":"인테리어 디자인업","coordinates":[127.468903749345,36.2805145106926],"sales":{"202602":837}},{"id":"MA010120220813603374","name":"이가옛날통닭&세계맥주가오,대성","industry":"치킨","coordinates":[127.459008382597,36.2994416618822],"sales":{"202602":985}},{"id":"MA010120220813692968","name":"닭갈비볶는남자","industry":"닭/오리고기 구이/찜","coordinates":[127.467135227451,36.2825851394865],"sales":{"202602":881}},{"id":"MA010120220813725576","name":"덕성셀프주유소","industry":"주유소","coordinates":[127.461588703791,36.293339749421],"sales":{"202602":46669}},{"id":"MA010120220813749937","name":"이에스에프","industry":"기타 개인/가정용품 대여업","coordinates":[127.466889057397,36.2786299100576],"sales":{"202602":208}},{"id":"MA010120220813758201","name":"더린넨2017","industry":"기타 기술/직업 훈련학원","coordinates":[127.459831866136,36.2974829369932],"sales":{"202602":501}},{"id":"MA010120220813796197","name":"대전캐릭터라인","industry":"그 외 기타 종합 소매업","coordinates":[127.465472945714,36.2763193902082],"sales":{"202602":4905}},{"id":"MA010120220813812232","name":"제이케이커뮤니케이션","industry":"전시/컨벤션/행사 대행 서비스업","coordinates":[127.465938119103,36.272190158759],"sales":{"202602":114}},{"id":"MA010120220813840115","name":"시온동방식품기계","industry":"주방/가정용품 소매업","coordinates":[127.471645855115,36.266382184893],"sales":{"202602":648}},{"id":"MA010120220813876071","name":"낚시마당","industry":"장난감 소매업","coordinates":[127.466381522573,36.283119778793],"sales":{"202602":1232}},{"id":"MA010120220813910829","name":"법인산내동이야기","industry":"기타 오락관련 서비스업","coordinates":[127.466423984474,36.2809027049116],"sales":{"202602":672}},{"id":"MA010120220813918899","name":"윤가네옛날통닭낭월","industry":"치킨","coordinates":[127.466854820296,36.2822257616705],"sales":{"202602":946}},{"id":"MA010120220813924220","name":"산내스터디카페","industry":"독서실/스터디 카페","coordinates":[127.466656512324,36.28256898492],"sales":{"202602":245}},{"id":"MA010120220813927121","name":"오로라인테리어","industry":"인테리어 디자인업","coordinates":[127.455270107363,36.2289201797171],"sales":{"202602":667}},{"id":"MA010120220813959574","name":"이안현대모터스","industry":"자동차 정비소","coordinates":[127.472437090057,36.2684157383774],"sales":{"202602":770}},{"id":"MA010120220813976126","name":"새빛전기","industry":"그 외 기타 개인/가정용품 수리업","coordinates":[127.461981244242,36.2938338827642],"sales":{"202602":4086}},{"id":"MA010120220814054507","name":"목연","industry":"기타 기술/직업 훈련학원","coordinates":[127.442854278687,36.2856514277179],"sales":{"202602":660}},{"id":"MA010120220814075868","name":"장락푸드","industry":"백반/한정식","coordinates":[127.468157860489,36.2786249497476],"sales":{"202602":1536}},{"id":"MA010120220814133390","name":"가정식백반대박이네","industry":"백반/한정식","coordinates":[127.466551322674,36.2835967429068],"sales":{"202602":1910}},{"id":"MA010120220814137673","name":"뉴월드씨엔엠","industry":"슈퍼마켓","coordinates":[127.459831866136,36.2974829369932],"sales":{"202602":4113}},{"id":"MA010120220814164538","name":"에코클린","industry":"건축물 일반 청소업","coordinates":[127.462763236923,36.2980664060797],"sales":{"202602":421}},{"id":"MA010120220814280909","name":"아담헤어","industry":"미용실","coordinates":[127.466242668729,36.2841026086228],"sales":{"202602":387}},{"id":"MA010120220814284497","name":"네일아지트","industry":"네일숍","coordinates":[127.464159524695,36.2875802622571],"sales":{"202602":128}},{"id":"MA010120220814296665","name":"마이씨피","industry":"자동차 정비소","coordinates":[127.465556149802,36.2772112375461],"sales":{"202602":557}},{"id":"MA010120220814314453","name":"서연의자","industry":"가구 소매업","coordinates":[127.446504393425,36.2287909970324],"sales":{"202602":3553}},{"id":"MA010120220814321410","name":"안흥인력직업소개소","industry":"고용 알선업","coordinates":[127.46848385713,36.279164382676],"sales":{}},{"id":"MA010120220814338226","name":"성수건강원","industry":"건강보조식품 소매업","coordinates":[127.467094464653,36.2832161261584],"sales":{"202602":2720}},{"id":"MA0101202209A0056694","name":"학교종이땡땡땡","industry":"김밥/만두/분식","coordinates":[127.468638221656,36.2789204585569],"sales":{"202602":414}},{"id":"MA0101202209A0099462","name":"이안출장뷔페","industry":"뷔페","coordinates":[127.467930108264,36.2814916013381],"sales":{"202602":3336}},{"id":"MA0101202210A0039233","name":"오투그란데공인중개사사무소","industry":"부동산 중개/대리업","coordinates":[127.464148019987,36.2875172242106],"sales":{"202602":57}},{"id":"MA0101202210A0042974","name":"산내수학교습소","industry":"입시·교과학원","coordinates":[127.468638221656,36.2789204585569],"sales":{"202602":335}},{"id":"MA0101202210A0046637","name":"클린원","industry":"세탁소","coordinates":[127.464987870802,36.2808542266763],"sales":{"202602":105}},{"id":"MA0101202210A0059884","name":"롯데리아산내","industry":"버거","coordinates":[127.46645873888,36.2830023239498],"sales":{"202602":1285}},{"id":"MA0101202211A0018398","name":"라밸리정육식당","industry":"소고기 구이/찜","coordinates":[127.475685789324,36.2792801414455],"sales":{"202602":629}},{"id":"MA0101202211A0031128","name":"세븐일레븐하소","industry":"편의점","coordinates":[127.441681751104,36.2217255296839],"sales":{"202602":4435}},{"id":"MA0101202211A0038139","name":"라밸리정육","industry":"정육점","coordinates":[127.475685789324,36.2792801414455],"sales":{"202602":1946}},{"id":"MA0101202211A0048946","name":"하루","industry":"장난감 소매업","coordinates":[127.479861771787,36.2578062733368],"sales":{"202602":1006}},{"id":"MA0101202211A0093597","name":"삼익공인중개사사무소","industry":"부동산 중개/대리업","coordinates":[127.461286312463,36.298702939293],"sales":{"202602":33}},{"id":"MA0101202212A0013943","name":"빽다방","industry":"카페","coordinates":[127.467888864748,36.2801760364946],"sales":{"202602":851}},{"id":"MA0101202212A0030377","name":"행복한밥상","industry":"돼지고기 구이/찜","coordinates":[127.468470088617,36.2787228571373],"sales":{"202602":1124}},{"id":"MA0101202212A0050079","name":"여원건축","industry":"건축 설계 및 관련 서비스업","coordinates":[127.467716056665,36.2754635264384],"sales":{}},{"id":"MA0101202212A0091550","name":"탑셀프세차장","industry":"자동차 세차장","coordinates":[127.46995603429,36.2778068324457],"sales":{"202602":965}},{"id":"MA0101202301A0019080","name":"산책사진","industry":"사진촬영업","coordinates":[127.475454028241,36.2796054887147],"sales":{"202602":1453}},{"id":"MA0101202301A0034656","name":"효심장묘","industry":"화장터/묘지/납골당","coordinates":[127.468852387173,36.2756483253965],"sales":{"202602":65}},{"id":"MA0101202301A0076250","name":"오늘,찬","industry":"반찬/식료품 소매업","coordinates":[127.466914766248,36.2829464733208],"sales":{"202602":1689}},{"id":"MA0101202301A0077669","name":"신천","industry":"경영 컨설팅업","coordinates":[127.451546967082,36.2913233999198],"sales":{"202602":2879}},{"id":"MA0101202301A0079069","name":"소담스테이","industry":"펜션","coordinates":[127.440785193459,36.2660853536493],"sales":{}},{"id":"MA0101202302A0005767","name":"삼촌네수산","industry":"수산물 소매업","coordinates":[127.469273398895,36.2771876969573],"sales":{"202602":6721}},{"id":"MA0101202302A0024089","name":"신덕","industry":"경영 컨설팅업","coordinates":[127.451546967082,36.2913233999198],"sales":{"202602":4132}},{"id":"MA0101202302A0028091","name":"복록식당","industry":"백반/한정식","coordinates":[127.443580623987,36.2251340229966],"sales":{"202602":334}},{"id":"MA0101202302A0080208","name":"오투제일공인중개사사무소","industry":"부동산 중개/대리업","coordinates":[127.464148019987,36.2875172242106],"sales":{"202602":44}},{"id":"MA0101202302A0089543","name":"아리공조인테리어","industry":"인테리어 디자인업","coordinates":[127.466245848051,36.280894387748],"sales":{"202602":1191}},{"id":"MA0101202302A0112138","name":"청기와냉면","industry":"냉면/밀면","coordinates":[127.465511364517,36.2752918918325],"sales":{"202602":1107}},{"id":"MA0101202303A0005498","name":"씨유","industry":"편의점","coordinates":[127.459849769141,36.2986363786249],"sales":{"202602":2328}},{"id":"MA0101202305A0007142","name":"비에이치씨","industry":"치킨","coordinates":[127.468081035312,36.2806709347794],"sales":{"202602":1171}},{"id":"MA0101202305A0076604","name":"하람기업","industry":"세탁소","coordinates":[127.445613267042,36.2266044245574],"sales":{"202602":62}},{"id":"MA0101202305A0158333","name":"투무인텔","industry":"여관/모텔","coordinates":[127.470235995863,36.2725247989624],"sales":{"202602":257}},{"id":"MA0101202305A0168629","name":"지평공인중개사사무소","industry":"부동산 중개/대리업","coordinates":[127.465609122268,36.2767604398119],"sales":{"202602":43}},{"id":"MA0101202305A0189340","name":"세븐일레븐대전물류","industry":"편의점","coordinates":[127.468823908103,36.2727466268102],"sales":{"202602":5724}},{"id":"MA0101202305A0189837","name":"마이스렌탈","industry":"기타 산업용 기계/장비 대여업","coordinates":[127.43827637466,36.2113923538226],"sales":{"202602":599}},{"id":"MA0101202306A0005734","name":"달달한밤","industry":"백반/한정식","coordinates":[127.466656512324,36.28256898492],"sales":{"202602":1724}},{"id":"MA0101202306A0074028","name":"괴산올갱이국밥","industry":"국/탕/찌개류","coordinates":[127.466263034914,36.2762982887549],"sales":{"202602":604}},{"id":"MA0101202307A0007486","name":"클랑음악교습소","industry":"음악학원","coordinates":[127.458276497665,36.3037430960984],"sales":{"202602":454}},{"id":"MA0101202307A0010910","name":"헤어살롱라보떼","industry":"미용실","coordinates":[127.466359904961,36.2832280049476],"sales":{"202602":85}},{"id":"MA0101202307A0043167","name":"아이자카야","industry":"요리 주점","coordinates":[127.465546892887,36.2756522268292],"sales":{"202602":400}},{"id":"MA0101202307A0104063","name":"너와마을","industry":"사업시설 유지·관리 서비스업","coordinates":[127.466656512324,36.28256898492],"sales":{"202602":353}},{"id":"MA0101202308A0084292","name":"급전","industry":"백반/한정식","coordinates":[127.46611054802,36.2843464427972],"sales":{"202602":1211}},{"id":"MA0101202309A0007761","name":"카페여유","industry":"카페","coordinates":[127.458569375359,36.2872053108398],"sales":{"202602":193}},{"id":"MA0101202309A0055792","name":"씨유","industry":"편의점","coordinates":[127.458276497665,36.3037430960984],"sales":{"202602":1301}},{"id":"MA0101202310A0006097","name":"더센헬스케어","industry":"의료기기 소매업","coordinates":[127.466807576733,36.2761609869932],"sales":{"202602":2069}},{"id":"MA0101202310A0040048","name":"승승당구클럽","industry":"당구장","coordinates":[127.46722863343,36.2814492850117],"sales":{"202602":345}},{"id":"MA0101202310A0046106","name":"런치박스","industry":"백반/한정식","coordinates":[127.466640902354,36.2762066966198],"sales":{"202602":2159}},{"id":"MA0101202311A0014944","name":"제이푸드","industry":"반찬/식료품 소매업","coordinates":[127.441595929801,36.2855569512156],"sales":{"202602":874}},{"id":"MA0101202311A0016848","name":"만나슈퍼","industry":"편의점","coordinates":[127.4677044914,36.2847187155488],"sales":{"202602":1116}},{"id":"MA0101202311A0017374","name":"와이농구교실","industry":"요가/필라테스 학원","coordinates":[127.464933623169,36.2792142853059],"sales":{"202602":521}},{"id":"MA0101202311A0021945","name":"중부특수","industry":"장례식장","coordinates":[127.465235949753,36.2795195116425],"sales":{"202602":8537}},{"id":"MA0101202311A0028387","name":"대전대성동원,헤어","industry":"미용실","coordinates":[127.459831866136,36.2974829369932],"sales":{"202602":150}},{"id":"MA0101202311A0085243","name":"데우키오","industry":"전시/컨벤션/행사 대행 서비스업","coordinates":[127.476112284016,36.2798642126428],"sales":{"202602":151}},{"id":"MA0101202311A0093857","name":"해든마켓","industry":"편의점","coordinates":[127.468558427369,36.2786053573064],"sales":{"202602":4034}},{"id":"MA0101202406A0047670","name":"안면도회센타","industry":"횟집","coordinates":[127.463830124103,36.2883475446488],"sales":{"202602":1272}},{"id":"MA0101202406A0050612","name":"지에스25","industry":"편의점","coordinates":[127.469547833624,36.2728339051327],"sales":{"202602":3142}},{"id":"MA0101202406A0135717","name":"공임나라산내점","industry":"자동차 정비소","coordinates":[127.465556149802,36.2772112375461],"sales":{"202602":596}},{"id":"MA0101202406A0166901","name":"실버케어푸드","industry":"반찬/식료품 소매업","coordinates":[127.466780703963,36.2753860743792],"sales":{"202602":1253}},{"id":"MA0101202406A0216658","name":"로뎀나무숲카페","industry":"카페","coordinates":[127.462763236923,36.2980664060797],"sales":{"202602":312}},{"id":"MA0101202406A0219367","name":"해피코코","industry":"카페","coordinates":[127.466969828054,36.2828471282898],"sales":{"202602":1155}},{"id":"MA0101202406A0236328","name":"미래통신","industry":"핸드폰 소매업","coordinates":[127.466486309105,36.2838943865879],"sales":{"202602":22}},{"id":"MA0101202406A0236488","name":"금산상인","industry":"건강보조식품 소매업","coordinates":[127.467893696895,36.2753907369181],"sales":{"202602":2002}},{"id":"MA0101202406A0237788","name":"현지푸드","industry":"백반/한정식","coordinates":[127.46094098319,36.2910983076986],"sales":{"202602":1967}},{"id":"MA0101202406A0252129","name":"손수차림","industry":"백반/한정식","coordinates":[127.460691673024,36.2960287269924],"sales":{"202602":936}},{"id":"MA0101202406A0267846","name":"앗싸대패삼겹살","industry":"백반/한정식","coordinates":[127.467746163239,36.2805100322341],"sales":{"202602":2523}},{"id":"MA0101202406A0327673","name":"대성짬뽕","industry":"중국집","coordinates":[127.459288787472,36.2959980769166],"sales":{"202602":421}},{"id":"MA0101202406A0335052","name":"범호빙과","industry":"슈퍼마켓","coordinates":[127.453856697924,36.2864933333109],"sales":{"202602":2089}},{"id":"MA0101202406A0347159","name":"아름상복","industry":"의류 대여업","coordinates":[127.470259396941,36.2764268302255],"sales":{"202602":909}},{"id":"MA0101202406A0349909","name":"청년일꾼","industry":"중고 상품 소매업","coordinates":[127.45688912167,36.2261563648234],"sales":{"202602":372}},{"id":"MA0101202406A0353634","name":"한끼밥상","industry":"백반/한정식","coordinates":[127.469547833624,36.2728339051327],"sales":{"202602":3905}},{"id":"MA0101202406A0368648","name":"원핏","industry":"헬스장","coordinates":[127.459356194931,36.2998999278105],"sales":{"202602":1871}},{"id":"MA0101202406A0387136","name":"산내갈비살","industry":"돼지고기 구이/찜","coordinates":[127.460890093653,36.2956945255734],"sales":{"202602":436}},{"id":"MA0101202406A0391396","name":"굿마트정육","industry":"정육점","coordinates":[127.467985006384,36.2813652209962],"sales":{"202602":4303}},{"id":"MA0101202406A0397291","name":"컴포즈커피","industry":"카페","coordinates":[127.466755344576,36.2823433036645],"sales":{"202602":260}},{"id":"MA0101202406A0397801","name":"해바라기유통","industry":"침구류/커튼 소매업","coordinates":[127.469031026563,36.2776031918784],"sales":{"202602":483}},{"id":"MA0101202406A0408320","name":"캠핑카전기보강","industry":"자동차 부품 소매업","coordinates":[127.476328684949,36.25318829981],"sales":{"202602":390}},{"id":"MA0101202406A0452963","name":"백년요양병원","industry":"요양병원","coordinates":[127.439435598739,36.2098831090221],"sales":{"202602":6412}},{"id":"MA0101202406A0455799","name":"레인보우커스텀","industry":"모터사이클 수리업","coordinates":[127.464439328384,36.2897149755102],"sales":{"202602":594}},{"id":"MA0101202406A0456008","name":"와이마트","industry":"슈퍼마켓","coordinates":[127.459831866136,36.2974829369932],"sales":{"202602":5202}},{"id":"MA0101202406A0458595","name":"플랜트,비","industry":"백반/한정식","coordinates":[127.466551322674,36.2835967429068],"sales":{"202602":2710}},{"id":"MA0101202406A0463017","name":"클로버","industry":"카페","coordinates":[127.466780703963,36.2753860743792],"sales":{"202602":1209}},{"id":"MA0101202406A0471212","name":"우리집","industry":"백반/한정식","coordinates":[127.465751301762,36.2800852506588],"sales":{"202602":1828}},{"id":"MA0101202406A0509091","name":"프렌즈","industry":"골프 연습장","coordinates":[127.459155116343,36.2997835468137],"sales":{"202602":385}},{"id":"MA0101202406A0512595","name":"폴튠","industry":"카페","coordinates":[127.46645873888,36.2830023239498],"sales":{"202602":385}},{"id":"MA0101202406A0578201","name":"블루에너지서비스대전지사","industry":"가스 충전소","coordinates":[127.476994849516,36.2694249974657],"sales":{"202602":51913}},{"id":"MA0101202408A0016566","name":"햇살한의원","industry":"한의원","coordinates":[127.468610649433,36.2798938437343],"sales":{"202602":1381}},{"id":"MA0101202408A0017985","name":"리틀애견타운","industry":"애완동물/애완용품 소매업","coordinates":[127.467122655004,36.2748710647836],"sales":{"202602":242}},{"id":"MA0101202408A0024246","name":"명인요양병원","industry":"요양병원","coordinates":[127.464769790584,36.2778631479312],"sales":{"202602":4825}},{"id":"MA0101202408A0026075","name":"한치과의원","industry":"치과의원","coordinates":[127.46698693518,36.2819819266303],"sales":{"202602":8515}},{"id":"MA0101202408A0052825","name":"티키타카축구센터","industry":"요가/필라테스 학원","coordinates":[127.451125455188,36.2857827227406],"sales":{"202602":401}},{"id":"MA0101202409A0054439","name":"다한광고","industry":"광고 대행업","coordinates":[127.466656512324,36.28256898492],"sales":{"202602":911}},{"id":"MA0101202409A0059500","name":"크린토피아코인워시","industry":"셀프 빨래방","coordinates":[127.46512011527,36.2768794964858],"sales":{"202602":422}},{"id":"MA0101202409A0094969","name":"드림트리","industry":"기타 산업용 기계/장비 대여업","coordinates":[127.466031350329,36.2766416413891],"sales":{"202602":746}},{"id":"MA0101202409A0100443","name":"아이스크림세계과자","industry":"슈퍼마켓","coordinates":[127.467900102389,36.2801940161749],"sales":{"202602":4574}},{"id":"MA0101202409A0111427","name":"세척1번가","industry":"산업설비, 운송장비 및 공공장소 청소업","coordinates":[127.468381803439,36.2788493685179],"sales":{"202602":303}},{"id":"MA0101202409A0144477","name":"인서전자","industry":"기타 산업용 기계/장비 대여업","coordinates":[127.462533844669,36.2818370206313],"sales":{"202602":1500}},{"id":"MA0101202409A0156807","name":"팔오반점대전","industry":"백반/한정식","coordinates":[127.46645873888,36.2830023239498],"sales":{"202602":2115}},{"id":"MA0101202409A0177716","name":"허황후황칠","industry":"슈퍼마켓","coordinates":[127.466423984474,36.2809027049116],"sales":{"202602":4160}},{"id":"MA0101202409A0183397","name":"새빛디자인","industry":"광고 대행업","coordinates":[127.455092067849,36.2672844193073],"sales":{"202602":676}},{"id":"MA0101202409A0201632","name":"포레스테리어","industry":"카페","coordinates":[127.473223749156,36.2438553142987],"sales":{"202602":954}},{"id":"MA0101202409A0204763","name":"해봄케이","industry":"그 외 기타 종합 소매업","coordinates":[127.438781318417,36.2201681253621],"sales":{"202602":1240}},{"id":"MA0101202409A0213102","name":"물망초","industry":"빵/도넛","coordinates":[127.44008815025,36.2152067656167],"sales":{"202602":5058}},{"id":"MA0101202409A0225756","name":"봄가을","industry":"옥외/전시 광고 대행업","coordinates":[127.466409273305,36.2765590615988],"sales":{"202602":753}},{"id":"MA0101202409A0225825","name":"대복칼국수","industry":"국수/칼국수","coordinates":[127.465609122268,36.2767604398119],"sales":{"202602":2661}},{"id":"MA0101202409A0244547","name":"수인테리어","industry":"인테리어 디자인업","coordinates":[127.467400361704,36.2841161128558],"sales":{"202602":556}},{"id":"MA0101202409A0247497","name":"외식탕면","industry":"백반/한정식","coordinates":[127.464633242925,36.277359016076],"sales":{"202602":366}},{"id":"MA0101202410A0041899","name":"칸타레음악학원","industry":"음악학원","coordinates":[127.466755344576,36.2823433036645],"sales":{"202602":174}},{"id":"MA0101202410A0131358","name":"서윤영음악학원","industry":"음악학원","coordinates":[127.468230667549,36.2796339892],"sales":{"202602":231}},{"id":"MA0101202410A0194495","name":"산내재래시장","industry":"채소/과일 소매업","coordinates":[127.467349347026,36.2811604349775],"sales":{"202602":952}},{"id":"MA0101202410A0195773","name":"명진리무진","industry":"장례식장","coordinates":[127.45949772942,36.2860662580102],"sales":{"202602":4542}},{"id":"MA0101202410A0242809","name":"세계로태권도","industry":"태권도/무술학원","coordinates":[127.464159524695,36.2875802622571],"sales":{"202602":610}},{"id":"MA0101202410A0297009","name":"행복한아침수산코너","industry":"수산물 소매업","coordinates":[127.469273398895,36.2771876969573],"sales":{"202602":1663}},{"id":"MA0101202410A0298002","name":"두드림학원","industry":"입시·교과학원","coordinates":[127.468565159812,36.2797318091361],"sales":{"202602":367}},{"id":"MA0101202410A0442660","name":"한빛공부방","industry":"입시·교과학원","coordinates":[127.459655936831,36.2997545870483],"sales":{"202602":256}},{"id":"MA0101202410A0442801","name":"산내현플라워","industry":"꽃집","coordinates":[127.466656512324,36.28256898492],"sales":{"202602":373}},{"id":"MA0101202410A0443003","name":"중앙신경외과","industry":"외과 의원","coordinates":[127.46050868281,36.295200345944],"sales":{"202602":6399}},{"id":"MA0101202410A0443116","name":"산내뜰식물원","industry":"꽃집","coordinates":[127.473926713129,36.2736727570348],"sales":{"202602":253}},{"id":"MA0101202410A0443278","name":"늘푸른내과의원","industry":"내과/소아과 의원","coordinates":[127.468157860489,36.2786249497476],"sales":{"202602":4352}},{"id":"MA0101202410A0443395","name":"베리팜","industry":"채소/과일 소매업","coordinates":[127.463050872152,36.2619549035309],"sales":{"202602":2018}},{"id":"MA0101202410A0443502","name":"단국대신화태권도","industry":"태권도/무술학원","coordinates":[127.459155116343,36.2997835468137],"sales":{"202602":290}},{"id":"MA0101202410A0443590","name":"희플라워","industry":"꽃집","coordinates":[127.46478350914,36.28768598029],"sales":{"202602":325}},{"id":"MA0101202410A0443675","name":"용인대은어송태권도","industry":"태권도/무술학원","coordinates":[127.458276497665,36.3037430960984],"sales":{"202602":646}},{"id":"MA0101202410A0443780","name":"베스트태권도장","industry":"태권도/무술학원","coordinates":[127.466755344576,36.2823433036645],"sales":{"202602":352}},{"id":"MA0101202410A0443887","name":"당신이웃는치과의원","industry":"치과의원","coordinates":[127.466242668729,36.2841026086228],"sales":{"202602":2158}},{"id":"MA0101202410A0443937","name":"제일연합치과","industry":"치과의원","coordinates":[127.466249350317,36.2833546015344],"sales":{"202602":9988}},{"id":"MA0101202410A0443960","name":"동명한의원","industry":"한의원","coordinates":[127.466249350317,36.2833546015344],"sales":{"202602":1892}},{"id":"MA0101202410A0444539","name":"민가정의학과의원","industry":"기타 의원","coordinates":[127.4674600043,36.2810518605893],"sales":{"202602":5820}},{"id":"MA0101202410A0444560","name":"한빛미술아지트","industry":"미술학원","coordinates":[127.459332079813,36.299584607517],"sales":{"202602":400}},{"id":"MA0101202410A0444577","name":"산내서울치과","industry":"치과의원","coordinates":[127.4674600043,36.2810518605893],"sales":{"202602":4803}},{"id":"MA0101202410A0444625","name":"위드유","industry":"입시·교과학원","coordinates":[127.455657419521,36.2285762529629],"sales":{"202602":777}},{"id":"MA0101202410A0447445","name":"마디신경외과，산내들한의원","industry":"내과/소아과 의원","coordinates":[127.468610649433,36.2798938437343],"sales":{"202602":6460}},{"id":"MA0101202410A0447520","name":"태동한의원","industry":"한의원","coordinates":[127.4674600043,36.2810518605893],"sales":{"202602":1242}},{"id":"MA0101202410A0448338","name":"책읽는다락서원","industry":"입시·교과학원","coordinates":[127.462763236923,36.2980664060797],"sales":{"202602":378}},{"id":"MA0101202410A0480084","name":"포인트수학교습소","industry":"입시·교과학원","coordinates":[127.459972652181,36.2987080003384],"sales":{"202602":645}},{"id":"MA0101202410A0504151","name":"미래탑학원","industry":"입시·교과학원","coordinates":[127.468558427369,36.2786053573064],"sales":{"202602":434}},{"id":"MA0101202410A0722817","name":"산내동복지만두레","industry":"김밥/만두/분식","coordinates":[127.467799502895,36.2819877625364],"sales":{"202602":132}},{"id":"MA0101202410A0738178","name":"산내해법영어교습소","industry":"입시·교과학원","coordinates":[127.468230667549,36.2796339892],"sales":{"202602":798}},{"id":"MA0101202410A0755710","name":"남대전요양병원","industry":"요양병원","coordinates":[127.462999928017,36.2834843805146],"sales":{"202602":4382}},{"id":"MA0101202410A0756647","name":"바다수산","industry":"수산물 소매업","coordinates":[127.467852841852,36.2816000455222],"sales":{"202602":1132}},{"id":"MA0101202410A0782043","name":"꿈꾸는작업실미술교습소","industry":"미술학원","coordinates":[127.468230667549,36.2796339892],"sales":{"202602":258}},{"id":"MA0101202410A0865063","name":"영동청과","industry":"채소/과일 소매업","coordinates":[127.439172944827,36.2106410761222],"sales":{"202602":2844}},{"id":"MA0101202410A0871170","name":"맑은소리음악학원","industry":"음악학원","coordinates":[127.468623752084,36.2783617820201],"sales":{"202602":428}},{"id":"MA0101202410A0872842","name":"아트플러스미술학원","industry":"미술학원","coordinates":[127.466755344576,36.2823433036645],"sales":{"202602":262}},{"id":"MA0101202410A0890557","name":"리틀모차르트음악학원","industry":"음악학원","coordinates":[127.467801759037,36.2786353550907],"sales":{"202602":293}},{"id":"MA0101202410A0958866","name":"하늘채미술교습소","industry":"미술학원","coordinates":[127.458276497665,36.3037430960984],"sales":{"202602":380}},{"id":"MA0101202411A0013412","name":"김어묵","industry":"백반/한정식","coordinates":[127.467761326919,36.2755895150219],"sales":{"202602":2244}},{"id":"MA0101202411A0022473","name":"알리몰","industry":"서점","coordinates":[127.458158322958,36.3006705268957],"sales":{"202602":1337}},{"id":"MA0101202411A0037438","name":"아이스크림왕국석천점","industry":"슈퍼마켓","coordinates":[127.468157860489,36.2786249497476],"sales":{"202602":5384}},{"id":"MA0101202411A0047715","name":"럭키당구클럽","industry":"당구장","coordinates":[127.461209588033,36.2951255499366],"sales":{"202602":302}},{"id":"MA0101202411A0093688","name":"뚜식복권","industry":"복권 발행/판매업","coordinates":[127.460240435066,36.2969136214626],"sales":{"202602":173}},{"id":"MA0101202411A0120518","name":"미래애드컴","industry":"명함/간판/광고물 제작","coordinates":[127.467499957124,36.2802856993811],"sales":{"202602":139}},{"id":"MA0101202411A0123938","name":"이음기획","industry":"광고 대행업","coordinates":[127.466656512324,36.28256898492],"sales":{"202602":577}},{"id":"MA0101202411A0134403","name":"하소동한식뷔페","industry":"뷔페","coordinates":[127.441681751104,36.2217255296839],"sales":{"202602":5799}},{"id":"MA0101202411A0162317","name":"윤쌤영어교습소","industry":"입시·교과학원","coordinates":[127.459972652181,36.2987080003384],"sales":{"202602":611}},{"id":"MA0101202411A0163976","name":"해시계꽃배달","industry":"꽃집","coordinates":[127.442448301811,36.2195958839358],"sales":{"202602":469}},{"id":"MA0101202411A0172693","name":"넥스트미디어","industry":"광고 대행업","coordinates":[127.466656512324,36.28256898492],"sales":{"202602":1499}},{"id":"MA0101202411A0174334","name":"스파크미디어","industry":"광고 대행업","coordinates":[127.466656512324,36.28256898492],"sales":{"202602":1712}},{"id":"MA0101202411A0185738","name":"스파크미디어","industry":"광고 대행업","coordinates":[127.466656512324,36.28256898492],"sales":{"202602":1256}},{"id":"MA0101202411A0185911","name":"파인광고기획","industry":"광고 대행업","coordinates":[127.466656512324,36.28256898492],"sales":{"202602":1385}},{"id":"MA0101202412A0042473","name":"희희낙락","industry":"백반/한정식","coordinates":[127.465906194032,36.2761825256701],"sales":{"202602":1364}},{"id":"MA0101202412A0045593","name":"조샘버터학원","industry":"입시·교과학원","coordinates":[127.468081035312,36.2806709347794],"sales":{"202602":476}},{"id":"MA0101202412A0056751","name":"지이엔티","industry":"건축물 일반 청소업","coordinates":[127.4454504667,36.2273169718433],"sales":{"202602":765}},{"id":"MA0101202501A0046976","name":"릴리영어","industry":"입시·교과학원","coordinates":[127.458033083031,36.2982918917576],"sales":{"202602":1008}},{"id":"MA0101202501A0049365","name":"대성인력개발","industry":"고용 알선업","coordinates":[127.460481588693,36.2962728549597],"sales":{}},{"id":"MA0101202501A0075981","name":"고릴라캠핑","industry":"운동용품 소매업","coordinates":[127.464493118124,36.272493170261],"sales":{"202602":1250}},{"id":"MA0101202502A0063206","name":"크린토피아대전대성은어송하늘채점","industry":"세탁소","coordinates":[127.460240435066,36.2969136214626],"sales":{"202602":123}},{"id":"MA0101202503A0007005","name":"한국농자재식물마트","industry":"철물/공구 소매업","coordinates":[127.464855515865,36.2773040813115],"sales":{"202602":543}},{"id":"MA0101202503A0012530","name":"대박갈비탕","industry":"백반/한정식","coordinates":[127.465736467931,36.2757145715279],"sales":{"202602":2366}},{"id":"MA0101202503A0030949","name":"좋은터공인중개사사무소","industry":"부동산 중개/대리업","coordinates":[127.464453139528,36.2770172661326],"sales":{"202602":99}},{"id":"MA0101202503A0069007","name":"미봉호프&커피","industry":"백반/한정식","coordinates":[127.468070220541,36.2788596002925],"sales":{"202602":546}},{"id":"MA0101202503A0077287","name":"한마음참숯불정육식당","industry":"소고기 구이/찜","coordinates":[127.467465499237,36.2782401495919],"sales":{"202602":3755}},{"id":"MA0101202504A0000392","name":"남일상사","industry":"슈퍼마켓","coordinates":[127.468027805669,36.2810766751677],"sales":{"202602":19176}},{"id":"MA0101202504A0016089","name":"제일기능사교육원","industry":"그 외 기타 교육기관","coordinates":[127.460460277262,36.2964351494883],"sales":{"202602":1113}},{"id":"MA0101202504A0022203","name":"부야몬컴퍼니","industry":"기타 의류 소매업","coordinates":[127.466656512324,36.28256898492],"sales":{"202602":447}},{"id":"MA0101202504A0039787","name":"카페쉴낙원","industry":"카페","coordinates":[127.462999928017,36.2834843805146],"sales":{"202602":507}},{"id":"MA0101202504A0045473","name":"지에스25낭월","industry":"편의점","coordinates":[127.466028148261,36.2779754046243],"sales":{"202602":6339}},{"id":"MA0101202504A0055126","name":"크림화","industry":"태권도/무술학원","coordinates":[127.465778213524,36.2789947148741],"sales":{"202602":232}},{"id":"MA0101202504A0065487","name":"하늘채박사공인중개사사무소","industry":"부동산 중개/대리업","coordinates":[127.456996285426,36.2999540303541],"sales":{"202602":319}},{"id":"MA0101202504A0094273","name":"초록농장","industry":"꽃집","coordinates":[127.467083130124,36.27570931954],"sales":{"202602":721}},{"id":"MA0101202504A0114322","name":"공동어시장","industry":"일식 회/초밥","coordinates":[127.459966113833,36.2956980836524],"sales":{"202602":2198}},{"id":"MA0101202505A0008380","name":"케이원플래너","industry":"전시/컨벤션/행사 대행 서비스업","coordinates":[127.442087276503,36.2147307767184],"sales":{"202602":67}},{"id":"MA0101202505A0010499","name":"리버뷰공인중개사사무소","industry":"부동산 중개/대리업","coordinates":[127.456996285426,36.2999540303541],"sales":{"202602":27}},{"id":"MA0101202505A0022818","name":"배추짬뽕","industry":"중국집","coordinates":[127.465973988645,36.2763534863252],"sales":{"202602":2000}},{"id":"MA0101202505A0057680","name":"댕댕휴개소","industry":"애완동물/애완용품 소매업","coordinates":[127.446307880147,36.2861702852904],"sales":{"202602":486}},{"id":"MA0101202505A0070058","name":"장푸드","industry":"슈퍼마켓","coordinates":[127.466213904541,36.2811378315295],"sales":{"202602":2167}},{"id":"MA0101202505A0071704","name":"동방의류","industry":"기타 의류 소매업","coordinates":[127.452276144811,36.2903653917363],"sales":{"202602":466}},{"id":"MA0106202201A0898980","name":"도로교통공단대전운전면허시험장","industry":"운전학원","coordinates":[127.461750828908,36.2849581370498],"sales":{"202602":4953}},{"id":"MA0106202201A2291252","name":"이안현대서비스","industry":"자동차 세차장","coordinates":[127.472437090057,36.2684157383774],"sales":{"202602":831}},{"id":"MA0106202202A0898199","name":"행복나눔사회적협동조합","industry":"번역/통역 서비스업","coordinates":[127.467537485707,36.280979463102],"sales":{"202602":12156}},{"id":"MA0106202202A0898200","name":"행복나눔사회적협동조합","industry":"번역/통역 서비스업","coordinates":[127.467537485707,36.280979463102],"sales":{"202602":5101}},{"id":"MA0106202202A2054693","name":"푸디스트쉴낙원남대전장례식장","industry":"백반/한정식","coordinates":[127.462999928017,36.2834843805146],"sales":{"202602":1468}},{"id":"MA0106202301A0886189","name":"오토패션워크업","industry":"자동차 부품 소매업","coordinates":[127.464493118124,36.272493170261],"sales":{"202602":450}},{"id":"MA0106202301A0904069","name":"용총포,루카스오일무역","industry":"운동용품 소매업","coordinates":[127.467094464653,36.2832161261584],"sales":{"202602":338}},{"id":"MA0106202301A1551212","name":"행복드림사회적협동조합","industry":"번역/통역 서비스업","coordinates":[127.467537485707,36.280979463102],"sales":{"202602":5202}},{"id":"MA0106202304A1558535","name":"행복드림사회적협동조합","industry":"번역/통역 서비스업","coordinates":[127.467537485707,36.280979463102],"sales":{"202602":17018}},{"id":"MA0106202412A1560262","name":"행복드림사회적협동조합","industry":"번역/통역 서비스업","coordinates":[127.467537485707,36.280979463102],"sales":{"202602":14503}},{"id":"MA0106202503A0875455","name":"오토패션워크업","industry":"기타 의류 소매업","coordinates":[127.464493118124,36.272493170261],"sales":{"202602":675}},{"id":"MA0106202506A0878175","name":"마당에모닥불하늘엔둥근달","industry":"백반/한정식","coordinates":[127.440843815627,36.2151048530369],"sales":{"202602":987}},{"id":"MA0106202506A1050039","name":"카페 쉴낙원","industry":"카페","coordinates":[127.462999928017,36.2834843805146],"sales":{"202602":394}},{"id":"MA0106202506A1136346","name":"지에스25(GS25) 낭월사랑점","industry":"편의점","coordinates":[127.466028148261,36.2779754046243],"sales":{"202602":1283}},{"id":"MA0106202506A1360364","name":"농부와어부","industry":"가축 사료 소매업","coordinates":[127.466242668729,36.2841026086228],"sales":{"202602":1773}},{"id":"MA0106202506A2047025","name":"씨유(CU) 대전낭월이편한점","industry":"편의점","coordinates":[127.466909774331,36.2821083934338],"sales":{"202602":842}},{"id":"MA0106202506A2437194","name":"공동어시장","industry":"일식 회/초밥","coordinates":[127.459966113833,36.2956980836524],"sales":{"202602":2040}},{"id":"MA0106202507A0447975","name":"아구찜 해물찜","industry":"백반/한정식","coordinates":[127.466029058887,36.2781286021572],"sales":{"202602":1146}},{"id":"MA0106202507A1134861","name":"또바기돼지국밥","industry":"백반/한정식","coordinates":[127.467691587891,36.2806904821638],"sales":{"202602":1105}},{"id":"MA0106202507A1295248","name":"삼목식당","industry":"백반/한정식","coordinates":[127.467323208842,36.2823771331283],"sales":{"202602":2485}},{"id":"MA0106202507A1332164","name":"교촌치킨 낭월점","industry":"치킨","coordinates":[127.466755344576,36.2823433036645],"sales":{"202602":537}},{"id":"MA0106202507A1838360","name":"비 오케이(Be OKAY)","industry":"백반/한정식","coordinates":[127.475454028241,36.2796054887147],"sales":{"202602":1212}},{"id":"MA0106202508A0278464","name":"판도라","industry":"사진촬영업","coordinates":[127.477036405819,36.2817440002069],"sales":{"202602":466}},{"id":"MA0106202508A0683001","name":"메가엠지씨커피 산내동행정복지센터점","industry":"카페","coordinates":[127.467687393143,36.2818530237169],"sales":{"202602":349}},{"id":"MA0106202508A0773109","name":"대양석유(주)덕성셀프주유소","industry":"주유소","coordinates":[127.461390610388,36.2937280216778],"sales":{"202602":14383}},{"id":"MA0106202508A2184318","name":"한내상사","industry":"자동차 부품 소매업","coordinates":[127.461390610388,36.2937280216778],"sales":{"202602":862}},{"id":"MA0106202508A2279888","name":"인어아가씨","industry":"가축 사료 소매업","coordinates":[127.465036049821,36.2870992304653],"sales":{"202602":2387}},{"id":"MA0106202509A0399672","name":"산내농산","industry":"건강보조식품 소매업","coordinates":[127.460610344728,36.285980871092],"sales":{"202602":4785}},{"id":"MA0106202509A1552060","name":"행복드림사회적협동조합","industry":"번역/통역 서비스업","coordinates":[127.467537485707,36.280979463102],"sales":{"202602":7232}},{"id":"MA0106202509A1880461","name":"파인트리","industry":"전기용품/조명장치 소매업","coordinates":[127.462138261815,36.2940315357192],"sales":{"202602":790}},{"id":"MA0106202509A2118894","name":"옥천식당","industry":"백반/한정식","coordinates":[127.466365588221,36.2841832356728],"sales":{"202602":2420}},{"id":"MA0106202510A0721581","name":"담다","industry":"경양식","coordinates":[127.466400374869,36.2750631322665],"sales":{"202602":400}},{"id":"MA0106202510A0817982","name":"투무인텔","industry":"여관/모텔","coordinates":[127.470235995863,36.2725247989624],"sales":{"202602":997}},{"id":"MA0106202510A1233296","name":"만년컨설팅카페","industry":"카페","coordinates":[127.438991295946,36.2099748589986],"sales":{"202602":384}},{"id":"MA0106202511A0820164","name":"무한상사","industry":"자동차 부품 소매업","coordinates":[127.461390610388,36.2937280216778],"sales":{"202602":849}},{"id":"MA0106202511A1056285","name":"밀알","industry":"백반/한정식","coordinates":[127.43914633133,36.2118487735673],"sales":{"202602":774}},{"id":"MA0106202511A2299724","name":"민들레족욕","industry":"마사지/안마","coordinates":[127.44008815025,36.2152067656167],"sales":{"202602":533}},{"id":"MA0106202511A2334861","name":"만인산","industry":"여관/모텔","coordinates":[127.46945642763,36.2724377432237],"sales":{"202602":168}},{"id":"MA0106202512A0766145","name":"오리덕애","industry":"백반/한정식","coordinates":[127.466673275959,36.2835151606629],"sales":{"202602":976}},{"id":"MA0106202512A0787094","name":"철자동차관리","industry":"자동차 세차장","coordinates":[127.469452686757,36.281107137323],"sales":{"202602":1447}},{"id":"MA0106202512A1044122","name":"메가엠지씨커피대전은어송중점","industry":"카페","coordinates":[127.458909506936,36.2996673364046],"sales":{"202602":690}},{"id":"MA0106202512A1397509","name":"1도씨맥주","industry":"생맥주 전문","coordinates":[127.466359904961,36.2832280049476],"sales":{"202602":808}},{"id":"MA0106202512A2434048","name":"이안출장뷔페","industry":"뷔페","coordinates":[127.464439328384,36.2897149755102],"sales":{"202602":1789}},{"id":"MA0106202601A0966957","name":"(주) 재원유통","industry":"가축 사료 소매업","coordinates":[127.46588160489,36.2814094812762],"sales":{"202602":2359}},{"id":"MA0106202601A1076260","name":"본죽&비빔밥 대전낭월점","industry":"백반/한정식","coordinates":[127.467888864748,36.2801760364946],"sales":{"202602":1178}},{"id":"MA0106202601A1963824","name":"다온오름","industry":"백반/한정식","coordinates":[127.439172944827,36.2106410761222],"sales":{"202602":1582}},{"id":"MA0106202601A2277469","name":"씨유 뉴낭월석천들점","industry":"편의점","coordinates":[127.468868877414,36.278405880347],"sales":{"202602":2784}},{"id":"MA0106202602A0990003","name":"한우반값정육점","industry":"정육점","coordinates":[127.460481588693,36.2962728549597],"sales":{"202602":2763}},{"id":"MA0101202406A0163865","name":"한양건축인테리어","industry":"인테리어 디자인업","coordinates":[127.444606960515,36.2963599743326],"sales":{"202602":750}}]