[{"id":"MA010120220800104303","name":"작은김밥집","industry":"김밥/만두/분식","coordinates":[127.432902911563,36.3440301665428],"sales":{"202602":1466}},{"id":"MA010120220800640329","name":"솔피씨방","industry":"PC방","coordinates":[127.433279661987,36.339649093232],"sales":{"202602":1365}},{"id":"MA010120220800681832","name":"한국관광여행사","industry":"여행사","coordinates":[127.436033730447,36.3441449485303],"sales":{"202602":798}},{"id":"MA010120220801547529","name":"유락반점","industry":"중국집","coordinates":[127.434861075162,36.3476097288686],"sales":{"202602":2432}},{"id":"MA010120220801666973","name":"이가네뼈다귀","industry":"국/탕/찌개류","coordinates":[127.435685765175,36.3476698071069],"sales":{"202602":2743}},{"id":"MA010120220802076173","name":"아침마을공인중개사사무소","industry":"부동산 중개/대리업","coordinates":[127.438696628208,36.3422607606824],"sales":{"202602":115}},{"id":"MA010120220802553063","name":"사자머리","industry":"미용실","coordinates":[127.432768991793,36.3439855928827],"sales":{"202602":341}},{"id":"MA010120220802865633","name":"헤어프랜즈","industry":"미용실","coordinates":[127.438053950882,36.3428669048709],"sales":{"202602":188}},{"id":"MA010120220803019177","name":"유원하우스","industry":"빵/도넛","coordinates":[127.436617124234,36.3468823868374],"sales":{"202602":1129}},{"id":"MA010120220803143487","name":"이마트24R대전","industry":"편의점","coordinates":[127.435255835284,36.3464818246516],"sales":{"202602":1407}},{"id":"MA010120220803176636","name":"가마치통닭","industry":"치킨","coordinates":[127.435235913343,36.346905448838],"sales":{"202602":460}},{"id":"MA010120220803267294","name":"국선도","industry":"요가/필라테스 학원","coordinates":[127.434900436645,36.3446717591376],"sales":{"202602":461}},{"id":"MA010120220803353577","name":"으뜸사료","industry":"가축 사료 소매업","coordinates":[127.437858947178,36.3438498992558],"sales":{"202602":3666}},{"id":"MA010120220803358586","name":"재하주유소","industry":"주유소","coordinates":[127.434919630443,36.3481231846707],"sales":{"202602":10697}},{"id":"MA010120220803406266","name":"21세기세로나체형관리","industry":"마사지/안마","coordinates":[127.435261101614,36.3474280377856],"sales":{"202602":589}},{"id":"MA010120220803538594","name":"피부미인스킨케어","industry":"피부 관리실","coordinates":[127.434262126068,36.3420606751882],"sales":{"202602":316}},{"id":"MA010120220803916442","name":"썬당구장","industry":"당구장","coordinates":[127.432038246837,36.3468089115124],"sales":{"202602":311}},{"id":"MA010120220804124307","name":"육일사","industry":"명함/간판/광고물 제작","coordinates":[127.434381867335,36.3475754248111],"sales":{"202602":599}},{"id":"MA010120220804576199","name":"하나비뇨기과의원","industry":"피부/비뇨기과 의원","coordinates":[127.437441354716,36.3488529423025],"sales":{"202602":4898}},{"id":"MA010120220804684221","name":"토르모바일","industry":"핸드폰 소매업","coordinates":[127.436818491345,36.3410510549815],"sales":{"202602":606}},{"id":"MA010120220804731340","name":"지에스25대전","industry":"편의점","coordinates":[127.437946282436,36.3415425733377],"sales":{"202602":2457}},{"id":"MA010120220804762165","name":"조대포가든식당","industry":"돼지고기 구이/찜","coordinates":[127.43482971008,36.3419684939206],"sales":{"202602":1717}},{"id":"MA010120220804943645","name":"사랑의뜰안","industry":"마사지/안마","coordinates":[127.434566357997,36.3446909979406],"sales":{"202602":327}},{"id":"MA010120220804944396","name":"구성스마트공인중개사사무소","industry":"부동산 중개/대리업","coordinates":[127.432768991793,36.3439855928827],"sales":{"202602":90}},{"id":"MA010120220804990335","name":"카페라고","industry":"카페","coordinates":[127.43524490851,36.3425166988344],"sales":{"202602":1355}},{"id":"MA010120220805060387","name":"유엔아이헤어","industry":"미용실","coordinates":[127.434912864632,36.346906624986],"sales":{"202602":143}},{"id":"MA010120220805062424","name":"현자네반찬가게","industry":"반찬/식료품 소매업","coordinates":[127.432902911563,36.3440301665428],"sales":{"202602":907}},{"id":"MA010120220805125258","name":"문성슈퍼","industry":"슈퍼마켓","coordinates":[127.428570549497,36.3441899698446],"sales":{"202602":2369}},{"id":"MA010120220805132570","name":"카페커피향가득한","industry":"카페","coordinates":[127.434276736294,36.3446920507809],"sales":{"202602":1501}},{"id":"MA010120220805228236","name":"루체","industry":"카페","coordinates":[127.437441354716,36.3488529423025],"sales":{"202602":1471}},{"id":"MA010120220805436993","name":"베스트영수학원","industry":"입시·교과학원","coordinates":[127.434306451128,36.34402507399],"sales":{"202602":640}},{"id":"MA010120220805548008","name":"동은레이저","industry":"명함/간판/광고물 제작","coordinates":[127.427787796452,36.343643058067],"sales":{"202602":1747}},{"id":"MA010120220805636379","name":"다온","industry":"핸드폰 소매업","coordinates":[127.4374346516,36.3416796233175],"sales":{"202602":2892}},{"id":"MA010120220805740322","name":"현대인테리어설비","industry":"인테리어 디자인업","coordinates":[127.428143608168,36.3435246311767],"sales":{"202602":406}},{"id":"MA010120220805743628","name":"퓨전먹거리","industry":"백반/한정식","coordinates":[127.43481421293,36.341184528528],"sales":{"202602":507}},{"id":"MA010120220805743632","name":"길다방","industry":"카페","coordinates":[127.43406358925,36.3444224729591],"sales":{"202602":888}},{"id":"MA010120220805743945","name":"경빈여관","industry":"여관/모텔","coordinates":[127.436843436256,36.3415285862487],"sales":{"202602":277}},{"id":"MA010120220805744422","name":"정든정육점식당","industry":"돼지고기 구이/찜","coordinates":[127.432902911563,36.3440301665428],"sales":{"202602":1849}},{"id":"MA010120220805745586","name":"성남전기철물","industry":"철물/공구 소매업","coordinates":[127.437939494786,36.34430920283],"sales":{"202602":302}},{"id":"MA010120220805745770","name":"샤방샤방헤어샵","industry":"미용실","coordinates":[127.434509810411,36.3445380039769],"sales":{"202602":218}},{"id":"MA010120220805746305","name":"개울가빨래방","industry":"셀프 빨래방","coordinates":[127.43239728383,36.3452575938588],"sales":{"202602":363}},{"id":"MA010120220805746632","name":"한씨네비디오","industry":"음반/비디오물 대여업","coordinates":[127.433734794782,36.3393680781031],"sales":{"202602":173}},{"id":"MA010120220805746682","name":"용성카공업사","industry":"자동차 정비소","coordinates":[127.434878593902,36.3467535501835],"sales":{"202602":1275}},{"id":"MA010120220805746887","name":"컴텍시스템","industry":"컴퓨터/노트북/프린터 수리업","coordinates":[127.435431913402,36.342092465677],"sales":{"202602":896}},{"id":"MA010120220805747221","name":"동방건강원","industry":"건강보조식품 소매업","coordinates":[127.43785813999,36.3437057143704],"sales":{"202602":1450}},{"id":"MA010120220805747238","name":"하나약국","industry":"약국","coordinates":[127.436583621433,36.340880690081],"sales":{"202602":8097}},{"id":"MA010120220805748077","name":"맥향","industry":"슈퍼마켓","coordinates":[127.434306451128,36.34402507399],"sales":{"202602":3828}},{"id":"MA010120220805749525","name":"한밭식당","industry":"백반/한정식","coordinates":[127.431173453237,36.3435137379072],"sales":{"202602":391}},{"id":"MA010120220805749751","name":"뷰티콘","industry":"미용실","coordinates":[127.435235913343,36.346905448838],"sales":{"202602":345}},{"id":"MA010120220805749877","name":"성남의류","industry":"기타 의류 소매업","coordinates":[127.434786707307,36.3422480144375],"sales":{"202602":1537}},{"id":"MA010120220805750802","name":"대성슈퍼","industry":"슈퍼마켓","coordinates":[127.43459907483,36.3445647146023],"sales":{"202602":9458}},{"id":"MA010120220805751186","name":"보람헤어","industry":"미용실","coordinates":[127.431474706961,36.3436027680323],"sales":{"202602":287}},{"id":"MA010120220805752704","name":"송촌보안설비","industry":"철물/공구 소매업","coordinates":[127.437426484578,36.3461945349983],"sales":{"202602":416}},{"id":"MA010120220805753609","name":"금강기업","industry":"그 외 기타 개인/가정용품 수리업","coordinates":[127.435332565874,36.3422550389993],"sales":{"202602":1235}},{"id":"MA010120220805754171","name":"성남식당","industry":"백반/한정식","coordinates":[127.435102919339,36.3410212663439],"sales":{"202602":245}},{"id":"MA010120220805754322","name":"손가네막창구이","industry":"곱창 전골/구이","coordinates":[127.43703269587,36.3415098707974],"sales":{"202602":449}},{"id":"MA010120220805754576","name":"고개식당","industry":"백반/한정식","coordinates":[127.434419595021,36.344340073673],"sales":{"202602":512}},{"id":"MA010120220805755231","name":"정인테리어하우스","industry":"인테리어 디자인업","coordinates":[127.438254554423,36.3428841928628],"sales":{"202602":427}},{"id":"MA010120220805755573","name":"범승마켓","industry":"슈퍼마켓","coordinates":[127.427919050454,36.3432010126798],"sales":{"202602":4585}},{"id":"MA010120220805756398","name":"오복식당","industry":"돼지고기 구이/찜","coordinates":[127.434799166986,36.340481667105],"sales":{"202602":464}},{"id":"MA010120220805757999","name":"미인헤어샵","industry":"미용실","coordinates":[127.436629320422,36.3470715887279],"sales":{"202602":392}},{"id":"MA010120220805759370","name":"보명사","industry":"명함/간판/광고물 제작","coordinates":[127.435058051986,36.3429679663626],"sales":{"202602":318}},{"id":"MA010120220805759876","name":"정수네폰가게","industry":"핸드폰 소매업","coordinates":[127.42988032828,36.3453658036215],"sales":{"202602":336}},{"id":"MA010120220805760014","name":"노다지복권방","industry":"복권 발행/판매업","coordinates":[127.432126766116,36.3467004505971],"sales":{"202602":148}},{"id":"MA010120220805761379","name":"부영컴퓨터","industry":"컴퓨터/소프트웨어 소매업","coordinates":[127.434932637973,36.3464559661774],"sales":{"202602":407}},{"id":"MA010120220805761763","name":"대전한국병원","industry":"종합병원","coordinates":[127.435833394025,36.3481739259145],"sales":{"202602":256668}},{"id":"MA010120220805761828","name":"인애수족관","industry":"애완동물/애완용품 소매업","coordinates":[127.432038246837,36.3468089115124],"sales":{"202602":655}},{"id":"MA010120220805763013","name":"효촌떡방앗간","industry":"떡/한과","coordinates":[127.434287325157,36.3445928831586],"sales":{"202602":1095}},{"id":"MA010120220805763527","name":"배부른돼지","industry":"돼지고기 구이/찜","coordinates":[127.434959678532,36.3473119827308],"sales":{"202602":1128}},{"id":"MA010120220805764064","name":"대영상회","industry":"슈퍼마켓","coordinates":[127.432013827045,36.346421495062],"sales":{"202602":3164}},{"id":"MA010120220805764414","name":"삼화여인숙","industry":"여관/모텔","coordinates":[127.436075057049,36.3415674394643],"sales":{"202602":393}},{"id":"MA010120220805767314","name":"조마루감자탕","industry":"국/탕/찌개류","coordinates":[127.430696928635,36.3459846733685],"sales":{"202602":1176}},{"id":"MA010120220805767709","name":"성남뜨게방","industry":"실/섬유제품 소매업","coordinates":[127.433384144377,36.3444339506615],"sales":{"202602":737}},{"id":"MA010120220805767788","name":"소문난추어탕","industry":"국/탕/찌개류","coordinates":[127.435431913402,36.342092465677],"sales":{"202602":1277}},{"id":"MA010120220805768079","name":"디지털프라자","industry":"사무기기 소매업","coordinates":[127.432491133105,36.3461133694739],"sales":{"202602":1193}},{"id":"MA010120220805768248","name":"근화내과","industry":"건강보조식품 소매업","coordinates":[127.43406358925,36.3444224729591],"sales":{"202602":2613}},{"id":"MA010120220805768629","name":"파리바게뜨대전","industry":"빵/도넛","coordinates":[127.435591670371,36.3407761687838],"sales":{"202602":2064}},{"id":"MA010120220805771204","name":"충남상회","industry":"슈퍼마켓","coordinates":[127.433115494138,36.3462102373221],"sales":{"202602":1798}},{"id":"MA010120220805772791","name":"비와이씨","industry":"기타 의류 소매업","coordinates":[127.435431913402,36.342092465677],"sales":{"202602":1290}},{"id":"MA010120220805773747","name":"천상공조","industry":"가전제품 소매업","coordinates":[127.432526421208,36.3444370581461],"sales":{"202602":1408}},{"id":"MA010120220805774614","name":"대박구이구이","industry":"백반/한정식","coordinates":[127.436423853165,36.3481807826805],"sales":{"202602":289}},{"id":"MA010120220805776115","name":"현대지업사","industry":"벽지/장판/마루 소매업","coordinates":[127.434845875915,36.3408690022332],"sales":{"202602":159}},{"id":"MA010120220805776301","name":"대전리서치","industry":"시장 조사 및 여론 조사업","coordinates":[127.43065127899,36.3457865796151],"sales":{}},{"id":"MA010120220805777822","name":"둥실둥실노래연습장","industry":"노래방","coordinates":[127.432038246837,36.3468089115124],"sales":{"202602":869}},{"id":"MA010120220805778008","name":"태양전자","industry":"전기용품/조명장치 소매업","coordinates":[127.437989084747,36.3432186005316],"sales":{"202602":790}},{"id":"MA010120220805778188","name":"다솜공인중개사사무소","industry":"부동산 중개/대리업","coordinates":[127.437359045032,36.3440950468123],"sales":{"202602":90}},{"id":"MA010120220805778215","name":"동대전통신","industry":"핸드폰 소매업","coordinates":[127.436443115108,36.3476400082634],"sales":{"202602":153}},{"id":"MA010120220805778839","name":"한솔약국","industry":"약국","coordinates":[127.432038246837,36.3468089115124],"sales":{"202602":4575}},{"id":"MA010120220805780100","name":"고향칼국수","industry":"국수/칼국수","coordinates":[127.435332565874,36.3422550389993],"sales":{"202602":876}},{"id":"MA010120220805780113","name":"자두미용실","industry":"미용실","coordinates":[127.438183025164,36.3420463631467],"sales":{"202602":323}},{"id":"MA010120220805780147","name":"한국병원장례식장","industry":"장례식장","coordinates":[127.435833394025,36.3481739259145],"sales":{"202602":10132}},{"id":"MA010120220805780530","name":"약속공인중개사사무소","industry":"부동산 중개/대리업","coordinates":[127.434262126068,36.3420606751882],"sales":{"202602":54}},{"id":"MA010120220805780762","name":"오일스팟","industry":"자동차 정비소","coordinates":[127.433226639682,36.3461647757484],"sales":{"202602":481}},{"id":"MA010120220805781538","name":"SLsports","industry":"임시/일용 인력 공급업","coordinates":[127.434659007644,36.347331100216],"sales":{}},{"id":"MA010120220805781900","name":"올리브정보통신","industry":"핸드폰 소매업","coordinates":[127.434931635636,36.3462757350786],"sales":{"202602":306}},{"id":"MA010120220805782503","name":"진미칼국수","industry":"국수/칼국수","coordinates":[127.434755012887,36.3405539217088],"sales":{"202602":853}},{"id":"MA010120220805782751","name":"일공공일안경원","industry":"안경렌즈 소매업","coordinates":[127.435570145601,36.3409114234179],"sales":{"202602":2303}},{"id":"MA010120220805782821","name":"진성아구찜","industry":"해산물 구이/찜","coordinates":[127.432750483152,36.3466801700704],"sales":{"202602":3657}},{"id":"MA010120220805784202","name":"차고치는집","industry":"자동차 정비소","coordinates":[127.434962435262,36.3478076181513],"sales":{"202602":5018}},{"id":"MA010120220805784459","name":"아침공인중개사사무소","industry":"부동산 중개/대리업","coordinates":[127.437946282436,36.3415425733377],"sales":{"202602":57}},{"id":"MA010120220805784480","name":"머리카락앤피부샵","industry":"미용실","coordinates":[127.438363722507,36.3424872758365],"sales":{"202602":183}},{"id":"MA010120220805784711","name":"아트크리닝","industry":"세탁소","coordinates":[127.434108461515,36.3464859981973],"sales":{"202602":111}},{"id":"MA010120220805786260","name":"아침마트","industry":"슈퍼마켓","coordinates":[127.436972319821,36.3406719993328],"sales":{"202602":2892}},{"id":"MA010120220805786958","name":"한국집","industry":"백반/한정식","coordinates":[127.43418858974,36.3468732117874],"sales":{"202602":1174}},{"id":"MA010120220805787179","name":"비비큐","industry":"치킨","coordinates":[127.433282742794,36.3442270483121],"sales":{"202602":651}},{"id":"MA010120220805788275","name":"보은상록대추","industry":"채소/과일 소매업","coordinates":[127.431637368938,36.344818765764],"sales":{"202602":893}},{"id":"MA010120220805788836","name":"레인보우","industry":"애완동물/애완용품 소매업","coordinates":[127.434466054272,36.3446823509067],"sales":{"202602":635}},{"id":"MA010120220805789019","name":"레인보우동물병원","industry":"동물병원","coordinates":[127.434466054272,36.3446823509067],"sales":{"202602":3344}},{"id":"MA010120220805789845","name":"전주식당","industry":"백반/한정식","coordinates":[127.434993849425,36.3474470343866],"sales":{"202602":1761}},{"id":"MA010120220805790071","name":"처갓집양념치킨","industry":"치킨","coordinates":[127.431005770325,36.3434062018721],"sales":{"202602":957}},{"id":"MA010120220805790540","name":"비에이치씨성남1004점","industry":"치킨","coordinates":[127.432467486009,36.3438515082376],"sales":{"202602":777}},{"id":"MA010120220805791108","name":"해피여행사","industry":"여행사","coordinates":[127.429723733,36.345249214201],"sales":{"202602":1178}},{"id":"MA010120220805791571","name":"착한유통","industry":"슈퍼마켓","coordinates":[127.436033730447,36.3441449485303],"sales":{"202602":8680}},{"id":"MA010120220805792218","name":"피자마루","industry":"피자","coordinates":[127.433922268741,36.3430441897089],"sales":{"202602":2161}},{"id":"MA010120220805792589","name":"미친헤어","industry":"미용실","coordinates":[127.434931635636,36.3462757350786],"sales":{"202602":568}},{"id":"MA010120220805792799","name":"디자인마을","industry":"시각 디자인업","coordinates":[127.434070905906,36.3477477777317],"sales":{"202602":426}},{"id":"MA010120220805794311","name":"패션아울렛","industry":"기타 의류 소매업","coordinates":[127.433472159676,36.3442353731384],"sales":{"202602":1289}},{"id":"MA010120220805794599","name":"로또플러스","industry":"슈퍼마켓","coordinates":[127.436139026074,36.3410535365913],"sales":{"202602":3890}},{"id":"MA010120220805795172","name":"예쁘게헤어","industry":"미용실","coordinates":[127.436307326896,36.3472620112409],"sales":{"202602":298}},{"id":"MA010120220805795633","name":"러브모바일","industry":"핸드폰 소매업","coordinates":[127.438026626178,36.3419658308116],"sales":{"202602":516}},{"id":"MA010120220805795982","name":"태성시스템","industry":"가전제품 수리업","coordinates":[127.437370735258,36.3481773208029],"sales":{"202602":2078}},{"id":"MA010120220805796236","name":"제이마트","industry":"슈퍼마켓","coordinates":[127.43754709883,36.3418684582808],"sales":{"202602":4140}},{"id":"MA010120220805797594","name":"바다해물찜아구찜감자탕","industry":"백반/한정식","coordinates":[127.437826104318,36.3479323364533],"sales":{"202602":706}},{"id":"MA010120220805798384","name":"여자의품격","industry":"화장품 소매업","coordinates":[127.433767283996,36.3472352112698],"sales":{"202602":1314}},{"id":"MA010120220805798454","name":"제이룩","industry":"기타 의류 소매업","coordinates":[127.438173350243,36.3423077391519],"sales":{"202602":2469}},{"id":"MA010120220805798513","name":"윤가네만두","industry":"김밥/만두/분식","coordinates":[127.434070905906,36.3477477777317],"sales":{"202602":2556}},{"id":"MA010120220805798931","name":"아침마을은혜공인중개사사무소","industry":"부동산 중개/대리업","coordinates":[127.438852977907,36.3423322805715],"sales":{"202602":37}},{"id":"MA010120220805804378","name":"사랑우리들약국","industry":"약국","coordinates":[127.435875692896,36.3477682435789],"sales":{"202602":6342}},{"id":"MA010120220805810479","name":"강산매니지먼트주","industry":"상용 인력 공급 및 인사관리 서비스업","coordinates":[127.428570549497,36.3441899698446],"sales":{"202602":4974}},{"id":"MA010120220805813325","name":"휴먼시스주","industry":"상용 인력 공급 및 인사관리 서비스업","coordinates":[127.436069440174,36.3485515576044],"sales":{"202602":4318}},{"id":"MA010120220805814316","name":"대철청소년회","industry":"청소년 수련시설","coordinates":[127.436902776747,36.3461694156365],"sales":{}},{"id":"MA010120220805817592","name":"미쉐린타이어대전주","industry":"타이어 소매업","coordinates":[127.432607762276,36.3470591797945],"sales":{"202602":2957}},{"id":"MA010120220805824381","name":"김밥천국","industry":"김밥/만두/분식","coordinates":[127.435255835284,36.3464818246516],"sales":{"202602":618}},{"id":"MA010120220805825193","name":"뉴헤어클럽","industry":"미용실","coordinates":[127.434887474941,36.3403371578476],"sales":{"202602":104}},{"id":"MA010120220805825324","name":"장수건강원","industry":"건강보조식품 소매업","coordinates":[127.434755625838,36.3446722860501],"sales":{"202602":986}},{"id":"MA010120220805825414","name":"광고기획지오","industry":"명함/간판/광고물 제작","coordinates":[127.438027246001,36.3440655642538],"sales":{"202602":443}},{"id":"MA010120220805825582","name":"향토마을","industry":"백반/한정식","coordinates":[127.434502701752,36.3472685864952],"sales":{"202602":241}},{"id":"MA010120220805826262","name":"나래베이커리","industry":"빵/도넛","coordinates":[127.434755625838,36.3446722860501],"sales":{"202602":930}},{"id":"MA010120220805828008","name":"이가네평화정육식당","industry":"소고기 구이/찜","coordinates":[127.434722999071,36.340806367053],"sales":{"202602":2769}},{"id":"MA010120220805828399","name":"옷수선","industry":"의류/이불 수선업","coordinates":[127.434813611806,36.3410763897721],"sales":{"202602":352}},{"id":"MA010120220805828461","name":"미래카토피아","industry":"자동차 정비소","coordinates":[127.436806716039,36.3389423494016],"sales":{"202602":630}},{"id":"MA010120220805828696","name":"평화이용원","industry":"미용실","coordinates":[127.434225007297,36.3413939409664],"sales":{"202602":134}},{"id":"MA010120220805829300","name":"주부마트","industry":"슈퍼마켓","coordinates":[127.432612644255,36.3439140650382],"sales":{"202602":3000}},{"id":"MA010120220805829436","name":"삼보당건강원","industry":"건강보조식품 소매업","coordinates":[127.434116955826,36.3399885011163],"sales":{"202602":1044}},{"id":"MA010120220805829500","name":"크린화이트","industry":"세탁소","coordinates":[127.433953746686,36.3447022358334],"sales":{"202602":153}},{"id":"MA010120220805835518","name":"광장수족관","industry":"애완동물/애완용품 소매업","coordinates":[127.432480741113,36.3462485831608],"sales":{"202602":452}},{"id":"MA010120220805840818","name":"대성철물","industry":"철물/공구 소매업","coordinates":[127.433770708925,36.3398185351523],"sales":{"202602":720}},{"id":"MA010120220805840848","name":"계림성","industry":"중국집","coordinates":[127.433856918871,36.3392955408329],"sales":{"202602":2077}},{"id":"MA010120220805841428","name":"현미장원","industry":"미용실","coordinates":[127.438070692376,36.3438671467227],"sales":{"202602":479}},{"id":"MA010120220805841430","name":"유공이용원","industry":"미용실","coordinates":[127.435891632712,36.3446321008755],"sales":{"202602":363}},{"id":"MA010120220805841438","name":"성남자전거","industry":"그 외 기타 개인/가정용품 수리업","coordinates":[127.430826650941,36.3432446363676],"sales":{"202602":2157}},{"id":"MA010120220805841439","name":"은혜미용실","industry":"미용실","coordinates":[127.437270838257,36.3442575809138],"sales":{"202602":267}},{"id":"MA010120220805841444","name":"업소명없음","industry":"횟집","coordinates":[127.434681749261,36.3414012922883],"sales":{"202602":827}},{"id":"MA010120220805841452","name":"평화전자","industry":"가전제품 소매업","coordinates":[127.434490937547,36.3411406455611],"sales":{"202602":1340}},{"id":"MA010120220805841453","name":"금옥당","industry":"시계/귀금속 소매업","coordinates":[127.433583751832,36.3442710152762],"sales":{"202602":589}},{"id":"MA010120220805841466","name":"정은부동산","industry":"부동산 중개/대리업","coordinates":[127.437755482452,36.347256715094],"sales":{"202602":50}},{"id":"MA010120220805841468","name":"공주이용원","industry":"미용실","coordinates":[127.431494844833,36.3452338205331],"sales":{"202602":236}},{"id":"MA010120220805841475","name":"동광카인테리어，동광자원","industry":"자동차 정비소","coordinates":[127.436053619786,36.3397201098506],"sales":{"202602":238}},{"id":"MA010120220805841487","name":"성남여인숙","industry":"여관/모텔","coordinates":[127.436197282863,36.3415129229423],"sales":{"202602":1952}},{"id":"MA010120220805841510","name":"미래지업사","industry":"벽지/장판/마루 소매업","coordinates":[127.437791625628,36.3477432163568],"sales":{"202602":335}},{"id":"MA010120220805841514","name":"부강집식당","industry":"백반/한정식","coordinates":[127.430884661455,36.3456866092056],"sales":{"202602":501}},{"id":"MA010120220805841521","name":"남파종합설비사","industry":"의류/이불 수선업","coordinates":[127.431606636463,36.34530551075],"sales":{"202602":690}},{"id":"MA010120220805841530","name":"시민부동산","industry":"부동산 중개/대리업","coordinates":[127.437699020922,36.3451301520732],"sales":{"202602":107}},{"id":"MA010120220805841542","name":"개성시대미용실","industry":"미용실","coordinates":[127.43647419503,36.3412325478298],"sales":{"202602":246}},{"id":"MA010120220805841544","name":"소림반점","industry":"중국집","coordinates":[127.435696938529,36.3416769595283],"sales":{"202602":1226}},{"id":"MA010120220805841578","name":"수건강원수가축","industry":"건강보조식품 소매업","coordinates":[127.430613841576,36.3450567635587],"sales":{"202602":1135}},{"id":"MA010120220805841583","name":"효촌약국","industry":"약국","coordinates":[127.434932637973,36.3464559661774],"sales":{"202602":4771}},{"id":"MA010120220805841589","name":"부여상회","industry":"슈퍼마켓","coordinates":[127.431119632962,36.3458750082768],"sales":{"202602":5513}},{"id":"MA010120220805841592","name":"대성당약국","industry":"약국","coordinates":[127.435939582799,36.3412435109254],"sales":{"202602":12263}},{"id":"MA010120220805841593","name":"백영가구","industry":"가구 소매업","coordinates":[127.436524759414,36.3403131651368],"sales":{"202602":4304}},{"id":"MA010120220805841595","name":"화성슈퍼","industry":"슈퍼마켓","coordinates":[127.434861075162,36.3476097288686],"sales":{"202602":4292}},{"id":"MA010120220805841599","name":"금비보석","industry":"시계/귀금속 소매업","coordinates":[127.433953746686,36.3447022358334],"sales":{"202602":2543}},{"id":"MA010120220805841600","name":"평화당","industry":"시계/귀금속 소매업","coordinates":[127.434490937547,36.3411406455611],"sales":{"202602":1092}},{"id":"MA010120220805841605","name":"경동오징어국수","industry":"국수/칼국수","coordinates":[127.433185584253,36.3447861284653],"sales":{"202602":818}},{"id":"MA010120220805841613","name":"성남세차장","industry":"자동차 정비소","coordinates":[127.435720722237,36.3419472251328],"sales":{"202602":434}},{"id":"MA010120220805841618","name":"하비모델","industry":"장난감 소매업","coordinates":[127.42988032828,36.3453658036215],"sales":{"202602":35354}},{"id":"MA010120220805841818","name":"대전통합총포사","industry":"장난감 소매업","coordinates":[127.432281425205,36.3464655860471],"sales":{"202602":16764}},{"id":"MA010120220805841864","name":"한국이동통신","industry":"핸드폰 소매업","coordinates":[127.435445963807,36.3406144883534],"sales":{"202602":297}},{"id":"MA010120220805841878","name":"락원간제미타운","industry":"횟집","coordinates":[127.435490016355,36.3425248176357],"sales":{"202602":2029}},{"id":"MA010120220805847294","name":"대성미용실","industry":"미용실","coordinates":[127.4317308611,36.345611461179],"sales":{"202602":251}},{"id":"MA010120220805848512","name":"나라종합공조","industry":"철물/공구 소매업","coordinates":[127.43607116765,36.3448657511058],"sales":{"202602":184}},{"id":"MA010120220805848774","name":"스마트자전거","industry":"자전거 소매업","coordinates":[127.438931607996,36.3424491444434],"sales":{"202602":302}},{"id":"MA010120220805848805","name":"국제미용실","industry":"미용실","coordinates":[127.434754061261,36.3403827019915],"sales":{"202602":255}},{"id":"MA010120220805849981","name":"금성식당","industry":"백반/한정식","coordinates":[127.427787796452,36.343643058067],"sales":{"202602":723}},{"id":"MA010120220805858970","name":"소망미용실","industry":"미용실","coordinates":[127.434022996817,36.3391147028379],"sales":{"202602":232}},{"id":"MA010120220805859025","name":"대광쇼파","industry":"그 외 기타 개인/가정용품 수리업","coordinates":[127.43281687178,36.3465988239984],"sales":{"202602":3123}},{"id":"MA010120220805863255","name":"무진기업유","industry":"건축물 일반 청소업","coordinates":[127.435939582799,36.3412435109254],"sales":{"202602":578}},{"id":"MA010120220805870981","name":"하나셀프세차장","industry":"자동차 세차장","coordinates":[127.434962435262,36.3478076181513],"sales":{"202602":648}},{"id":"MA010120220805897650","name":"크랩크랩","industry":"해산물 구이/찜","coordinates":[127.433929048868,36.3402505242048],"sales":{"202602":1599}},{"id":"MA010120220805928409","name":"그린필피부","industry":"피부 관리실","coordinates":[127.429992267273,36.3454645300424],"sales":{"202602":561}},{"id":"MA010120220805946690","name":"필헤어클럽","industry":"미용실","coordinates":[127.436139026074,36.3410535365913],"sales":{"202602":234}},{"id":"MA010120220805974943","name":"대한자세교정센타","industry":"유사 의료업","coordinates":[127.436306421915,36.3470998033038],"sales":{"202602":575}},{"id":"MA010120220805990652","name":"둥근달","industry":"노래방","coordinates":[127.430696928635,36.3459846733685],"sales":{"202602":393}},{"id":"MA010120220806025018","name":"신화유통","industry":"그 외 기타 상품 전문 소매업","coordinates":[127.432358953685,36.346384199928],"sales":{"202602":1235}},{"id":"MA010120220806060001","name":"만남의광장","industry":"돼지고기 구이/찜","coordinates":[127.433362964373,36.3446322857641],"sales":{"202602":1175}},{"id":"MA010120220806172657","name":"친구야!닭한마리칼국수먹자","industry":"국수/칼국수","coordinates":[127.434982698044,36.3414362442551],"sales":{"202602":2927}},{"id":"MA010120220806177177","name":"유진기업","industry":"산업설비, 운송장비 및 공공장소 청소업","coordinates":[127.435058051986,36.3429679663626],"sales":{"202602":109}},{"id":"MA010120220806178384","name":"24시가람열쇠","industry":"그 외 기타 개인/가정용품 수리업","coordinates":[127.438429950214,36.3423788919825],"sales":{"202602":1901}},{"id":"MA010120220806181041","name":"멍멍이매점","industry":"애완동물/애완용품 소매업","coordinates":[127.433131185266,36.3450206308879],"sales":{"202602":432}},{"id":"MA010120220806184748","name":"안경매니아","industry":"안경렌즈 소매업","coordinates":[127.436326726425,36.3407554638532],"sales":{"202602":1341}},{"id":"MA010120220806186406","name":"SK텔레콤한올대리점세화","industry":"핸드폰 소매업","coordinates":[127.434306451128,36.34402507399],"sales":{"202602":240}},{"id":"MA010120220806215077","name":"박정원헤어","industry":"미용실","coordinates":[127.435819592461,36.3476963543132],"sales":{"202602":624}},{"id":"MA010120220806225955","name":"아침타운공인중개사사무소","industry":"부동산 중개/대리업","coordinates":[127.436818491345,36.3410510549815],"sales":{"202602":128}},{"id":"MA010120220806237071","name":"윤빈스킨앤바디케어윤빈스킨&바디케어","industry":"피부 관리실","coordinates":[127.438429950214,36.3423788919825],"sales":{"202602":276}},{"id":"MA010120220806248989","name":"와이즈디앤씨","industry":"부동산 중개/대리업","coordinates":[127.437441354716,36.3488529423025],"sales":{"202602":51}},{"id":"MA010120220806253606","name":"만세","industry":"자동차 대여업","coordinates":[127.437946282436,36.3415425733377],"sales":{"202602":1115}},{"id":"MA010120220806379855","name":"한국종합주방설비","industry":"가전제품 소매업","coordinates":[127.435275723922,36.3400473685087],"sales":{"202602":468}},{"id":"MA010120220806451396","name":"시골집","industry":"백반/한정식","coordinates":[127.432226275303,36.3465649146518],"sales":{"202602":565}},{"id":"MA010120220806507880","name":"소문난왕족발","industry":"족발/보쌈","coordinates":[127.438053950882,36.3428669048709],"sales":{"202602":732}},{"id":"MA010120220806511606","name":"애플꼬마김밥복합","industry":"김밥/만두/분식","coordinates":[127.434993849425,36.3474470343866],"sales":{"202602":355}},{"id":"MA010120220806559256","name":"슈가코코","industry":"카페","coordinates":[127.436947662744,36.3422401329418],"sales":{"202602":778}},{"id":"MA010120220806617318","name":"퀸","industry":"여성 의류 소매업","coordinates":[127.432768991793,36.3439855928827],"sales":{"202602":338}},{"id":"MA010120220806726798","name":"시니가","industry":"카페","coordinates":[127.433775556224,36.3406926570114],"sales":{"202602":2776}},{"id":"MA010120220806727301","name":"얌플","industry":"피자","coordinates":[127.431005770325,36.3434062018721],"sales":{"202602":3497}},{"id":"MA010120220806787944","name":"짬뽕지존복합","industry":"중국집","coordinates":[127.436750279186,36.3487833762331],"sales":{"202602":1129}},{"id":"MA010120220806796691","name":"애드원","industry":"광고 대행업","coordinates":[127.437888328499,36.3431288523522],"sales":{"202602":1685}},{"id":"MA010120220806931774","name":"고려홍삼","industry":"건강보조식품 소매업","coordinates":[127.433340985376,36.3446864359088],"sales":{"202602":397}},{"id":"MA010120220806958843","name":"동방생고기","industry":"돼지고기 구이/찜","coordinates":[127.43785813999,36.3437057143704],"sales":{"202602":662}},{"id":"MA010120220806965240","name":"곤지암한우소머리국밥","industry":"국/탕/찌개류","coordinates":[127.435357957514,36.3408130673891],"sales":{"202602":1182}},{"id":"MA010120220806973015","name":"명문스튜디오","industry":"사진촬영업","coordinates":[127.436038676624,36.3410358792801],"sales":{"202602":777}},{"id":"MA010120220806981789","name":"제일산업","industry":"건축물 일반 청소업","coordinates":[127.434739928254,36.3438522747652],"sales":{"202602":340}},{"id":"MA010120220807040817","name":"미란칼국수","industry":"국수/칼국수","coordinates":[127.435909028948,36.3417572918008],"sales":{"202602":1038}},{"id":"MA010120220807099014","name":"스토리다이어트","industry":"건강보조식품 소매업","coordinates":[127.437946282436,36.3415425733377],"sales":{"202602":1720}},{"id":"MA010120220807102532","name":"올레노래연습장","industry":"노래방","coordinates":[127.435339882061,36.3475719385808],"sales":{"202602":660}},{"id":"MA010120220807105731","name":"지에스25대전빅","industry":"편의점","coordinates":[127.437441354716,36.3488529423025],"sales":{"202602":4683}},{"id":"MA010120220807202946","name":"지코바치킨식당","industry":"치킨","coordinates":[127.4374346516,36.3416796233175],"sales":{"202602":557}},{"id":"MA010120220807307625","name":"한일약국","industry":"약국","coordinates":[127.434116955826,36.3399885011163],"sales":{"202602":5929}},{"id":"MA010120220807488372","name":"홍쌤꼬마김밥","industry":"김밥/만두/분식","coordinates":[127.435423531846,36.3445887486696],"sales":{"202602":566}},{"id":"MA010120220807787586","name":"디오엔지","industry":"가전제품 소매업","coordinates":[127.431491511365,36.3466486756251],"sales":{"202602":1988}},{"id":"MA010120220807795249","name":"평화이가네평화정육식당1","industry":"소고기 구이/찜","coordinates":[127.434699870229,36.3406532515039],"sales":{"202602":2429}},{"id":"MA010120220807800198","name":"씨유대전","industry":"편의점","coordinates":[127.434798165176,36.3403014358225],"sales":{"202602":2972}},{"id":"MA010120220807801495","name":"커피앤비어5.2","industry":"카페","coordinates":[127.433767283996,36.3472352112698],"sales":{"202602":912}},{"id":"MA010120220807804185","name":"정담손만두","industry":"김밥/만두/분식","coordinates":[127.435261101614,36.3474280377856],"sales":{"202602":849}},{"id":"MA010120220807827762","name":"용전네트웍스","industry":"핸드폰 소매업","coordinates":[127.435875692896,36.3477682435789],"sales":{"202602":552}},{"id":"MA010120220807930610","name":"메가엠지씨커피대전","industry":"카페","coordinates":[127.437609713733,36.3490776191905],"sales":{"202602":1216}},{"id":"MA010120220808231644","name":"제빨리","industry":"임시/일용 인력 공급업","coordinates":[127.431491511365,36.3466486756251],"sales":{}},{"id":"MA010120220808279353","name":"토마토약국","industry":"약국","coordinates":[127.437441354716,36.3488529423025],"sales":{"202602":26002}},{"id":"MA010120220808388793","name":"보물찾자","industry":"기타 의류 소매업","coordinates":[127.433429350645,36.3445509393399],"sales":{"202602":664}},{"id":"MA010120220808418670","name":"성산개발","industry":"기타 산업용 기계/장비 대여업","coordinates":[127.436349974831,36.3469194095628],"sales":{"202602":966}},{"id":"MA010120220808421519","name":"베스트노래연습장","industry":"노래방","coordinates":[127.435150231716,36.3415167400511],"sales":{"202602":796}},{"id":"MA010120220808442533","name":"이케이정보","industry":"컴퓨터/소프트웨어 소매업","coordinates":[127.433841588898,36.3405482293749],"sales":{"202602":1497}},{"id":"MA010120220808478352","name":"스마트포토","industry":"사진촬영업","coordinates":[127.433282742794,36.3442270483121],"sales":{"202602":305}},{"id":"MA010120220808486656","name":"안경플래너","industry":"안경렌즈 소매업","coordinates":[127.436139026074,36.3410535365913],"sales":{"202602":907}},{"id":"MA010120220808506712","name":"처가집곰탕","industry":"국/탕/찌개류","coordinates":[127.437248247971,36.3481867807827],"sales":{"202602":1699}},{"id":"MA010120220808554716","name":"스마트뷰대박공인중개사사무소","industry":"부동산 중개/대리업","coordinates":[127.433922268741,36.3430441897089],"sales":{"202602":39}},{"id":"MA010120220808589050","name":"로또기업","industry":"복권 발행/판매업","coordinates":[127.437062246061,36.3487912473591],"sales":{"202602":200}},{"id":"MA010120220808611113","name":"김도현헤어샵김도현HAIR#","industry":"미용실","coordinates":[127.433591942408,36.341729674067],"sales":{"202602":225}},{"id":"MA010120220808612690","name":"솔파란아동발달센터","industry":"그 외 기타 교육기관","coordinates":[127.437441354716,36.3488529423025],"sales":{"202602":331}},{"id":"MA010120220808622032","name":"미트트리사계절점","industry":"정육점","coordinates":[127.431542886091,36.3418272082748],"sales":{"202602":1061}},{"id":"MA010120220808791486","name":"금촌한우정육식당","industry":"돼지고기 구이/찜","coordinates":[127.436139026074,36.3410535365913],"sales":{"202602":1197}},{"id":"MA010120220808925130","name":"유엠에스","industry":"기타 엔지니어링 서비스업","coordinates":[127.434287325157,36.3445928831586],"sales":{"202602":27132}},{"id":"MA010120220809131645","name":"사계절마트","industry":"슈퍼마켓","coordinates":[127.431542886091,36.3418272082748],"sales":{"202602":9175}},{"id":"MA010120220809133257","name":"제일착한고기","industry":"돼지고기 구이/찜","coordinates":[127.435339882061,36.3475719385808],"sales":{"202602":946}},{"id":"MA010120220809585536","name":"충청통증지부학회","industry":"그 외 기타 교육기관","coordinates":[127.435833394025,36.3481739259145],"sales":{"202602":512}},{"id":"MA010120220809590732","name":"동광컴퓨터세탁","industry":"세탁소","coordinates":[127.432289010095,36.3438070952698],"sales":{"202602":215}},{"id":"MA010120220809689584","name":"카페아트","industry":"카페","coordinates":[127.434931635636,36.3462757350786],"sales":{"202602":854}},{"id":"MA010120220809736880","name":"곱깨비","industry":"곱창 전골/구이","coordinates":[127.434815313784,36.3473936137301],"sales":{"202602":1413}},{"id":"MA010120220809750929","name":"행복세탁","industry":"세탁소","coordinates":[127.437838555895,36.34816659591],"sales":{"202602":111}},{"id":"MA010120220809757724","name":"휴먼서플라이","industry":"임시/일용 인력 공급업","coordinates":[127.437441354716,36.3488529423025],"sales":{}},{"id":"MA010120220809772825","name":"장가네대구왕뽈떼기","industry":"백반/한정식","coordinates":[127.436099781789,36.340008317305],"sales":{"202602":1669}},{"id":"MA010120220809777985","name":"이선광장셀프주유소","industry":"주유소","coordinates":[127.436486918377,36.3395202696613],"sales":{"202602":39116}},{"id":"MA010120220809862222","name":"에스케이넷","industry":"사무기기 소매업","coordinates":[127.436486918377,36.3395202696613],"sales":{"202602":969}},{"id":"MA010120220809919078","name":"더쎈영어교습소","industry":"입시·교과학원","coordinates":[127.433922268741,36.3430441897089],"sales":{"202602":296}},{"id":"MA010120220809961871","name":"하루포토그래피","industry":"결혼 상담 서비스업","coordinates":[127.437441354716,36.3488529423025],"sales":{"202602":3011}},{"id":"MA010120220810021159","name":"히토미","industry":"일식 회/초밥","coordinates":[127.434754061261,36.3403827019915],"sales":{"202602":1352}},{"id":"MA010120220810030680","name":"주안인테리어필름","industry":"인테리어 디자인업","coordinates":[127.435824806045,36.3466329504721],"sales":{"202602":719}},{"id":"MA010120220810094195","name":"봉피규어스튜디오","industry":"문구/회화용품 소매업","coordinates":[127.438375187744,36.3445328988492],"sales":{"202602":3382}},{"id":"MA010120220810161556","name":"살롱드이플","industry":"네일숍","coordinates":[127.43741171562,36.3475373376772],"sales":{"202602":128}},{"id":"MA010120220810183018","name":"뽀빠이","industry":"그 외 기타 상품 전문 소매업","coordinates":[127.433131185266,36.3450206308879],"sales":{"202602":1381}},{"id":"MA010120220810194598","name":"박가순대","industry":"국/탕/찌개류","coordinates":[127.434912864632,36.346906624986],"sales":{"202602":339}},{"id":"MA010120220810211733","name":"달달놀이터대전","industry":"문구/회화용품 소매업","coordinates":[127.433922268741,36.3430441897089],"sales":{"202602":4006}},{"id":"MA010120220810214639","name":"행복한밥상","industry":"백반/한정식","coordinates":[127.436443014521,36.347621985161],"sales":{"202602":236}},{"id":"MA010120220810278857","name":"델리쉬푸드","industry":"백반/한정식","coordinates":[127.434165393353,36.344701467091],"sales":{"202602":635}},{"id":"MA010120220810298668","name":"길동치킨","industry":"치킨","coordinates":[127.434984063111,36.3476903868685],"sales":{"202602":1032}},{"id":"MA010120220810315923","name":"디자인날","industry":"패션/섬유/기타 전문 디자인업","coordinates":[127.435331909635,36.3441384954595],"sales":{}},{"id":"MA010120220810328233","name":"컴프","industry":"기타 의류 소매업","coordinates":[127.436947662744,36.3422401329418],"sales":{"202602":1065}},{"id":"MA010120220810374602","name":"씨유대전성남","industry":"편의점","coordinates":[127.435987291183,36.3478038834097],"sales":{"202602":4144}},{"id":"MA010120220810544502","name":"춘자네칼국수","industry":"국수/칼국수","coordinates":[127.435214607901,36.3410749301291],"sales":{"202602":783}},{"id":"MA010120220810970993","name":"케이광고인테리어","industry":"인테리어 디자인업","coordinates":[127.438136164422,36.3436235897184],"sales":{"202602":318}},{"id":"MA010120220811085663","name":"신용부동산중개인사무소","industry":"부동산 중개/대리업","coordinates":[127.436038676624,36.3410358792801],"sales":{"202602":99}},{"id":"MA010120220811191862","name":"복터","industry":"독서실/스터디 카페","coordinates":[127.434993849425,36.3474470343866],"sales":{"202602":99}},{"id":"MA010120220811193717","name":"카페보흠","industry":"카페","coordinates":[127.434296662993,36.3442684265664],"sales":{"202602":2495}},{"id":"MA010120220811228741","name":"디자인스텝","industry":"시각 디자인업","coordinates":[127.436422696453,36.3479735170176],"sales":{"202602":196}},{"id":"MA010120220811626935","name":"블레이키커피","industry":"카페","coordinates":[127.437441354716,36.3488529423025],"sales":{"202602":471}},{"id":"MA010120220811720001","name":"한멘뚝배기","industry":"국/탕/찌개류","coordinates":[127.436069440174,36.3485515576044],"sales":{"202602":2011}},{"id":"MA010120220811768888","name":"갈릴리장식","industry":"벽지/장판/마루 소매업","coordinates":[127.434931635636,36.3462757350786],"sales":{"202602":457}},{"id":"MA010120220811781592","name":"푸른약국","industry":"약국","coordinates":[127.435235913343,36.346905448838],"sales":{"202602":4772}},{"id":"MA010120220811808436","name":"이루다","industry":"자동차 정비소","coordinates":[127.438619363081,36.3423872086795],"sales":{"202602":774}},{"id":"MA010120220811910494","name":"요녀석","industry":"경양식","coordinates":[127.434067304515,36.3470989458169],"sales":{"202602":5289}},{"id":"MA010120220811955381","name":"큐사랑","industry":"미용실","coordinates":[127.434019632314,36.3445307734983],"sales":{"202602":302}},{"id":"MA010120220811989196","name":"엘리자베스수입구제","industry":"기타 의류 소매업","coordinates":[127.437716724421,36.3482932065027],"sales":{"202602":296}},{"id":"MA010120220812008207","name":"경영의상실","industry":"의류/이불 수선업","coordinates":[127.435431913402,36.342092465677],"sales":{"202602":189}},{"id":"MA010120220812035135","name":"청사초롱마트","industry":"슈퍼마켓","coordinates":[127.434913616369,36.3470417982966],"sales":{"202602":3698}},{"id":"MA010120220812045553","name":"이지헤어","industry":"미용실","coordinates":[127.434659007644,36.347331100216],"sales":{"202602":251}},{"id":"MA010120220812119918","name":"금동초벌","industry":"돼지고기 구이/찜","coordinates":[127.43449912171,36.3446191485017],"sales":{"202602":668}},{"id":"MA010120220812191663","name":"어바웃타임","industry":"카페","coordinates":[127.433775556224,36.3406926570114],"sales":{"202602":1245}},{"id":"MA010120220812211201","name":"과일은,달당","industry":"그 외 기타 간이 음식점","coordinates":[127.437441354716,36.3488529423025],"sales":{"202602":534}},{"id":"MA010120220812230246","name":"석촌공인중개사사무소","industry":"부동산 중개/대리업","coordinates":[127.437946282436,36.3415425733377],"sales":{"202602":49}},{"id":"MA010120220812262344","name":"다쿰몸사랑교정센터","industry":"마사지/안마","coordinates":[127.434931635636,36.3462757350786],"sales":{"202602":786}},{"id":"MA010120220812271800","name":"모모","industry":"기타 의류 소매업","coordinates":[127.433539894219,36.3443973387648],"sales":{"202602":3230}},{"id":"MA010120220812336747","name":"대명냉동","industry":"중고 상품 소매업","coordinates":[127.433279661987,36.339649093232],"sales":{"202602":305}},{"id":"MA010120220812336868","name":"친절한","industry":"핸드폰 소매업","coordinates":[127.437609713733,36.3490776191905],"sales":{"202602":270}},{"id":"MA010120220812383578","name":"애드림","industry":"광고 대행업","coordinates":[127.433473707973,36.3445147314889],"sales":{"202602":2378}},{"id":"MA010120220812515157","name":"참타운건강랜드","industry":"목욕탕/사우나","coordinates":[127.435637182163,36.3429478331603],"sales":{"202602":3269}},{"id":"MA010120220812561792","name":"성남24시세차타운","industry":"자동차 세차장","coordinates":[127.436669310588,36.3402675783247],"sales":{"202602":839}},{"id":"MA010120220812566502","name":"시스템에어컨","industry":"가전제품 수리업","coordinates":[127.43447176335,36.3416994434567],"sales":{"202602":797}},{"id":"MA010120220812567250","name":"새마을주점","industry":"치킨","coordinates":[127.438173350243,36.3423077391519],"sales":{"202602":1452}},{"id":"MA010120220812598200","name":"성남약국","industry":"약국","coordinates":[127.43406358925,36.3444224729591],"sales":{"202602":7228}},{"id":"MA010120220812624718","name":"수향","industry":"요리 주점","coordinates":[127.433495586935,36.3444425582],"sales":{"202602":352}},{"id":"MA010120220812677988","name":"대덕약국","industry":"약국","coordinates":[127.436069440174,36.3485515576044],"sales":{"202602":3911}},{"id":"MA010120220812687592","name":"정평종합주택관리","industry":"건축물 일반 청소업","coordinates":[127.433972653621,36.3400791426779],"sales":{"202602":476}},{"id":"MA010120220812702359","name":"가까운에너지","industry":"주유소","coordinates":[127.435961196388,36.3391256717103],"sales":{"202602":20392}},{"id":"MA010120220812725362","name":"또래오래","industry":"치킨","coordinates":[127.435339882061,36.3475719385808],"sales":{"202602":645}},{"id":"MA010120220812747440","name":"더하루커피","industry":"카페","coordinates":[127.437441354716,36.3488529423025],"sales":{"202602":1075}},{"id":"MA010120220812760169","name":"더블유스터디카페","industry":"독서실/스터디 카페","coordinates":[127.435045020203,36.3406249603203],"sales":{"202602":349}},{"id":"MA010120220812778171","name":"착한썬팅","industry":"자동차 정비소","coordinates":[127.433055892716,36.3475171552274],"sales":{"202602":2301}},{"id":"MA010120220812815562","name":"필립스보청기대전센터","industry":"의료기기 소매업","coordinates":[127.437441354716,36.3488529423025],"sales":{"202602":2322}},{"id":"MA010120220812817467","name":"초년화","industry":"마사지/안마","coordinates":[127.430696928635,36.3459846733685],"sales":{"202602":294}},{"id":"MA010120220812824950","name":"영신마트","industry":"슈퍼마켓","coordinates":[127.436069440174,36.3485515576044],"sales":{"202602":5126}},{"id":"MA010120220812892336","name":"바다폰","industry":"핸드폰 소매업","coordinates":[127.42988032828,36.3453658036215],"sales":{"202602":875}},{"id":"MA010120220812904259","name":"본죽","industry":"백반/한정식","coordinates":[127.437441354716,36.3488529423025],"sales":{"202602":1782}},{"id":"MA010120220813021054","name":"퍼플미디어대전센터","industry":"음악학원","coordinates":[127.435585357124,36.3476431379392],"sales":{"202602":244}},{"id":"MA010120220813056435","name":"또또기원","industry":"바둑/장기/체스 경기 운영업","coordinates":[127.433131185266,36.3450206308879],"sales":{}},{"id":"MA010120220813077463","name":"세븐스타코인노래연습장대전복합","industry":"노래방","coordinates":[127.437441354716,36.3488529423025],"sales":{"202602":658}},{"id":"MA010120220813098514","name":"유원하우스","industry":"기타 기술/직업 훈련학원","coordinates":[127.435602409958,36.342704642866],"sales":{"202602":1169}},{"id":"MA010120220813138028","name":"선참치","industry":"일식 회/초밥","coordinates":[127.434675067431,36.3422033618337],"sales":{"202602":3664}},{"id":"MA010120220813174133","name":"여러분식사해요","industry":"김밥/만두/분식","coordinates":[127.438363722507,36.3424872758365],"sales":{"202602":883}},{"id":"MA010120220813220964","name":"한아름인테리어","industry":"인테리어 디자인업","coordinates":[127.437946282436,36.3415425733377],"sales":{"202602":641}},{"id":"MA010120220813265452","name":"김가부엌","industry":"백반/한정식","coordinates":[127.43482971008,36.3419684939206],"sales":{"202602":772}},{"id":"MA010120220813276030","name":"바삭한옛날통닭","industry":"치킨","coordinates":[127.437946282436,36.3415425733377],"sales":{"202602":625}},{"id":"MA010120220813288327","name":"예스114","industry":"광고물 설계/제작업","coordinates":[127.434984063111,36.3476903868685],"sales":{"202602":909}},{"id":"MA010120220813355215","name":"맘모스당구클럽","industry":"당구장","coordinates":[127.435045020203,36.3406249603203],"sales":{"202602":175}},{"id":"MA010120220813393232","name":"세븐일레븐대전","industry":"편의점","coordinates":[127.433591942408,36.341729674067],"sales":{"202602":3112}},{"id":"MA010120220813432832","name":"와라칼국수와족발","industry":"족발/보쌈","coordinates":[127.43533837709,36.3473015919959],"sales":{"202602":1772}},{"id":"MA010120220813519560","name":"대전짱밧데리","industry":"자동차 정비소","coordinates":[127.433054157915,36.3451921331023],"sales":{"202602":873}},{"id":"MA010120220813547483","name":"888중화요리","industry":"중국집","coordinates":[127.433458328675,36.3397295510782],"sales":{"202602":864}},{"id":"MA010120220813630343","name":"24시전주콩나물향기국밥","industry":"국/탕/찌개류","coordinates":[127.43542589357,36.3410110782828],"sales":{"202602":574}},{"id":"MA010120220813724472","name":"건국공영","industry":"장례식장","coordinates":[127.434490937547,36.3411406455611],"sales":{"202602":6253}},{"id":"MA010120220813823103","name":"보람청과","industry":"채소/과일 소매업","coordinates":[127.433472159676,36.3442353731384],"sales":{"202602":2529}},{"id":"MA010120220813878111","name":"아모레카운셀러","industry":"화장품 소매업","coordinates":[127.43482971008,36.3419684939206],"sales":{"202602":3468}},{"id":"MA010120220813943542","name":"굽네치킨성남","industry":"치킨","coordinates":[127.434620552145,36.3444204486494],"sales":{"202602":190}},{"id":"MA010120220813955635","name":"뽀숑뷰티샵","industry":"피부 관리실","coordinates":[127.435524486726,36.3407133314212],"sales":{"202602":120}},{"id":"MA010120220813973714","name":"한길마취통증의학과의원","industry":"기타 의원","coordinates":[127.437441354716,36.3488529423025],"sales":{"202602":5820}},{"id":"MA010120220813996992","name":"좋은날","industry":"카페","coordinates":[127.436471429383,36.3407369119626],"sales":{"202602":391}},{"id":"MA010120220814018211","name":"대전약초","industry":"그 외 기타 상품 전문 소매업","coordinates":[127.437989084747,36.3432186005316],"sales":{"202602":976}},{"id":"MA010120220814022451","name":"소중하루","industry":"애완동물/애완용품 소매업","coordinates":[127.435346356302,36.3467338235459],"sales":{"202602":1421}},{"id":"MA010120220814102327","name":"제이에이초콜릿","industry":"김밥/만두/분식","coordinates":[127.435685765175,36.3476698071069],"sales":{"202602":783}},{"id":"MA010120220814117924","name":"하나매니지먼트","industry":"임시/일용 인력 공급업","coordinates":[127.428570549497,36.3441899698446],"sales":{}},{"id":"MA010120220814132945","name":"쏘맥꽃피었네","industry":"생맥주 전문","coordinates":[127.434984063111,36.3476903868685],"sales":{"202602":458}},{"id":"MA010120220814188444","name":"개미인력","industry":"고용 알선업","coordinates":[127.436139026074,36.3410535365913],"sales":{}},{"id":"MA010120220814217894","name":"대학독서실","industry":"독서실/스터디 카페","coordinates":[127.436298135615,36.3416206957199],"sales":{"202602":301}},{"id":"MA010120220814235106","name":"숙이네호프","industry":"생맥주 전문","coordinates":[127.434682839779,36.3476103773375],"sales":{"202602":708}},{"id":"MA010120220814304611","name":"보은","industry":"광고 대행업","coordinates":[127.437441354716,36.3488529423025],"sales":{"202602":701}},{"id":"MA010120220814330798","name":"홍가닭","industry":"치킨","coordinates":[127.438462104194,36.3421534804598],"sales":{"202602":153}},{"id":"MA0101202209A0090622","name":"텀브가든","industry":"카페","coordinates":[127.433471808745,36.3461819101657],"sales":{"202602":4487}},{"id":"MA0101202210A0090530","name":"맘스터치복합","industry":"버거","coordinates":[127.437441354716,36.3488529423025],"sales":{"202602":2428}},{"id":"MA0101202211A0009555","name":"송방고기장터","industry":"돼지고기 구이/찜","coordinates":[127.436816730003,36.3407356503484],"sales":{"202602":892}},{"id":"MA0101202211A0088235","name":"성민해법영수학원","industry":"입시·교과학원","coordinates":[127.43542589357,36.3410110782828],"sales":{"202602":535}},{"id":"MA0101202301A0002681","name":"폰사또모바일","industry":"카페","coordinates":[127.434943519069,36.3404000361169],"sales":{"202602":597}},{"id":"MA0101202301A0015331","name":"폰탑","industry":"핸드폰 소매업","coordinates":[127.437441354716,36.3488529423025],"sales":{"202602":120}},{"id":"MA0101202301A0093032","name":"청렴인권경영연구소","industry":"그 외 기타 교육기관","coordinates":[127.436617124234,36.3468823868374],"sales":{"202602":540}},{"id":"MA0101202302A0015924","name":"청담학원","industry":"입시·교과학원","coordinates":[127.43406358925,36.3444224729591],"sales":{"202602":851}},{"id":"MA0101202302A0017123","name":"더바른공간인테리어","industry":"인테리어 디자인업","coordinates":[127.436014164853,36.3446316538735],"sales":{"202602":676}},{"id":"MA0101202302A0100751","name":"효촌실면도#","industry":"피부 관리실","coordinates":[127.434931635636,36.3462757350786],"sales":{"202602":192}},{"id":"MA0101202302A0108859","name":"고속가스충전소","industry":"가스 충전소","coordinates":[127.434495116953,36.3479084473052],"sales":{"202602":35120}},{"id":"MA0101202303A0001876","name":"디에스레이션","industry":"기념품점","coordinates":[127.435464827616,36.34400283508],"sales":{"202602":585}},{"id":"MA0101202303A0027238","name":"담소","industry":"요리 주점","coordinates":[127.437838555895,36.34816659591],"sales":{"202602":604}},{"id":"MA0101202303A0040388","name":"아원주유소","industry":"주유소","coordinates":[127.435840739516,36.341496200291],"sales":{"202602":33635}},{"id":"MA0101202305A0039452","name":"티라미수헤어샵","industry":"미용실","coordinates":[127.438833632437,36.3428550326238],"sales":{"202602":192}},{"id":"MA0101202305A0063366","name":"리샘수학교습소","industry":"입시·교과학원","coordinates":[127.433315960783,36.3441908809051],"sales":{"202602":671}},{"id":"MA0101202305A0073336","name":"532에스티","industry":"카페","coordinates":[127.431542886091,36.3418272082748],"sales":{"202602":1912}},{"id":"MA0101202305A0075441","name":"예정원","industry":"꽃집","coordinates":[127.43524490851,36.3425166988344],"sales":{"202602":200}},{"id":"MA0101202305A0126092","name":"내집처럼클린","industry":"건축물 일반 청소업","coordinates":[127.437742764086,36.3429942095177],"sales":{"202602":403}},{"id":"MA0101202305A0136672","name":"은일세탁소","industry":"세탁소","coordinates":[127.434659007644,36.347331100216],"sales":{"202602":100}},{"id":"MA0101202305A0164606","name":"제비파스타&리조또대전","industry":"파스타/스테이크","coordinates":[127.433131185266,36.3450206308879],"sales":{"202602":302}},{"id":"MA0101202305A0174346","name":"쌍둥이네","industry":"백반/한정식","coordinates":[127.434815313784,36.3473936137301],"sales":{"202602":999}},{"id":"MA0101202306A0002587","name":"쌈마이대패","industry":"돼지고기 구이/찜","coordinates":[127.432874614728,36.3469680960823],"sales":{"202602":1005}},{"id":"MA0101202306A0034377","name":"파시파시","industry":"빵/도넛","coordinates":[127.433922268741,36.3430441897089],"sales":{"202602":717}},{"id":"MA0101202306A0053613","name":"상청","industry":"가전제품 수리업","coordinates":[127.436307326896,36.3472620112409],"sales":{"202602":572}},{"id":"MA0101202307A0102347","name":"청석골칡냉면","industry":"냉면/밀면","coordinates":[127.437837950436,36.3480584573243],"sales":{"202602":1107}},{"id":"MA0101202307A0105883","name":"꽈백최선생","industry":"빵/도넛","coordinates":[127.434958926709,36.3471768094271],"sales":{"202602":1418}},{"id":"MA0101202308A0028804","name":"햇살공인중개사사무소","industry":"부동산 중개/대리업","coordinates":[127.437946282436,36.3415425733377],"sales":{"202602":31}},{"id":"MA0101202308A0038081","name":"센스이케","industry":"피부 관리실","coordinates":[127.435696938529,36.3416769595283],"sales":{"202602":155}},{"id":"MA0101202308A0072534","name":"오닭꼬치","industry":"닭/오리고기 구이/찜","coordinates":[127.433770708925,36.3398185351523],"sales":{"202602":428}},{"id":"MA0101202308A0084892","name":"푸른들분식","industry":"김밥/만두/분식","coordinates":[127.436038676624,36.3410358792801],"sales":{"202602":1782}},{"id":"MA0101202308A0093976","name":"이스턴스터디카페","industry":"독서실/스터디 카페","coordinates":[127.433922268741,36.3430441897089],"sales":{"202602":207}},{"id":"MA0101202309A0042573","name":"쌈패","industry":"돼지고기 구이/찜","coordinates":[127.435901395621,36.3403875344115],"sales":{"202602":3045}},{"id":"MA0101202310A0007632","name":"건강청과","industry":"채소/과일 소매업","coordinates":[127.433472159676,36.3442353731384],"sales":{"202602":2265}},{"id":"MA0101202310A0018889","name":"금촌한우별관","industry":"소고기 구이/찜","coordinates":[127.435150231716,36.3415167400511],"sales":{"202602":1378}},{"id":"MA0101202310A0021343","name":"크린토피아코인워시365대전","industry":"셀프 빨래방","coordinates":[127.436617124234,36.3468823868374],"sales":{"202602":193}},{"id":"MA0101202310A0079886","name":"대전에스한의원","industry":"한의원","coordinates":[127.437441354716,36.3488529423025],"sales":{"202602":1001}},{"id":"MA0101202311A0022229","name":"휴먼잡","industry":"고용 알선업","coordinates":[127.436069440174,36.3485515576044],"sales":{}},{"id":"MA0101202311A0047777","name":"감성커피대전","industry":"카페","coordinates":[127.435225877072,36.347103743589],"sales":{"202602":1246}},{"id":"MA0101202406A0016693","name":"미헤어","industry":"미용실","coordinates":[127.434509810411,36.3445380039769],"sales":{"202602":376}},{"id":"MA0101202406A0117019","name":"꾸꾸삼겹","industry":"돼지고기 구이/찜","coordinates":[127.436618734228,36.3471707564988],"sales":{"202602":1177}},{"id":"MA0101202406A0131396","name":"제일국수","industry":"국수/칼국수","coordinates":[127.432519243268,36.3471676410579],"sales":{"202602":1113}},{"id":"MA0101202406A0139626","name":"둥지공인중개사사무소","industry":"부동산 중개/대리업","coordinates":[127.434566357997,36.3446909979406],"sales":{"202602":44}},{"id":"MA0101202406A0304394","name":"사계절분식","industry":"김밥/만두/분식","coordinates":[127.431542886091,36.3418272082748],"sales":{"202602":1697}},{"id":"MA0101202406A0310956","name":"더조은광고","industry":"광고 대행업","coordinates":[127.428951674805,36.3425935237508],"sales":{"202602":1742}},{"id":"MA0101202406A0322702","name":"휴게소대전복합","industry":"백반/한정식","coordinates":[127.437441354716,36.3488529423025],"sales":{"202602":349}},{"id":"MA0101202406A0361867","name":"대광전기","industry":"건물 및 토목 엔지니어링 서비스업","coordinates":[127.437001947728,36.3419876056453],"sales":{}},{"id":"MA0101202406A0428354","name":"한울유통","industry":"슈퍼마켓","coordinates":[127.436860967121,36.3426730135339],"sales":{"202602":9259}},{"id":"MA0101202406A0456386","name":"스마트뷰ok공인중개사사무소","industry":"부동산 중개/대리업","coordinates":[127.433922268741,36.3430441897089],"sales":{"202602":65}},{"id":"MA0101202406A0473732","name":"직화맵닭발","industry":"닭/오리고기 구이/찜","coordinates":[127.434721206172,36.3444921764627],"sales":{"202602":836}},{"id":"MA0101202406A0476573","name":"인생짜장","industry":"중국집","coordinates":[127.437976155883,36.3468774136354],"sales":{"202602":1262}},{"id":"MA0101202406A0599357","name":"태전산업개발","industry":"임시/일용 인력 공급업","coordinates":[127.428951674805,36.3425935237508],"sales":{}},{"id":"MA0101202408A0063221","name":"자신감수학","industry":"입시·교과학원","coordinates":[127.431061813575,36.3434690819357],"sales":{"202602":511}},{"id":"MA0101202408A0064531","name":"유어파트너스","industry":"장례식장","coordinates":[127.433721525867,36.3470190956771],"sales":{"202602":2581}},{"id":"MA0101202409A0006739","name":"궁인테리어,설비,누수,싱크대,배관막힘,하수구,도배,방수","industry":"인테리어 디자인업","coordinates":[127.435696938529,36.3416769595283],"sales":{"202602":783}},{"id":"MA0101202409A0066635","name":"놀러와포차","industry":"백반/한정식","coordinates":[127.435214607901,36.3410749301291],"sales":{"202602":229}},{"id":"MA0101202409A0074654","name":"안가네대추빵","industry":"빵/도넛","coordinates":[127.434958926709,36.3471768094271],"sales":{"202602":978}},{"id":"MA0101202409A0083606","name":"복권판매점","industry":"복권 발행/판매업","coordinates":[127.436381364348,36.3405660177036],"sales":{"202602":171}},{"id":"MA0101202409A0094245","name":"백만송이찻집&호프카페","industry":"생맥주 전문","coordinates":[127.43703269587,36.3415098707974],"sales":{"202602":406}},{"id":"MA0101202409A0108849","name":"썬시스템","industry":"가전제품 수리업","coordinates":[127.428951674805,36.3425935237508],"sales":{"202602":1577}},{"id":"MA0101202409A0110904","name":"앤비쥬","industry":"액세서리/잡화 소매업","coordinates":[127.438683852326,36.3439550148673],"sales":{"202602":209}},{"id":"MA0101202409A0167636","name":"백두","industry":"고용 알선업","coordinates":[127.432519243268,36.3471676410579],"sales":{}},{"id":"MA0101202409A0211907","name":"빽다방대전효촌","industry":"카페","coordinates":[127.434955468384,36.3465550121906],"sales":{"202602":1277}},{"id":"MA0101202409A0212197","name":"이모네잔치국수","industry":"국수/칼국수","coordinates":[127.43481421293,36.341184528528],"sales":{"202602":1074}},{"id":"MA0101202409A0216145","name":"서진푸드","industry":"백반/한정식","coordinates":[127.434900436645,36.3446717591376],"sales":{"202602":519}},{"id":"MA0101202409A0256930","name":"스마트영수학원","industry":"입시·교과학원","coordinates":[127.433591942408,36.341729674067],"sales":{"202602":978}},{"id":"MA0101202410A0205360","name":"일대일학원","industry":"입시·교과학원","coordinates":[127.436381364348,36.3405660177036],"sales":{"202602":303}},{"id":"MA0101202410A0347512","name":"스마트정육","industry":"정육점","coordinates":[127.433922268741,36.3430441897089],"sales":{"202602":3692}},{"id":"MA0101202410A0430745","name":"부모사랑요양병원","industry":"요양병원","coordinates":[127.435045020203,36.3406249603203],"sales":{"202602":8197}},{"id":"MA0101202410A0442657","name":"고개정육점","industry":"정육점","coordinates":[127.434419595021,36.344340073673],"sales":{"202602":7179}},{"id":"MA0101202410A0442901","name":"근화내과","industry":"내과/소아과 의원","coordinates":[127.43406358925,36.3444224729591],"sales":{"202602":2531}},{"id":"MA0101202410A0443001","name":"박재국연합치과의원","industry":"치과의원","coordinates":[127.437441354716,36.3488529423025],"sales":{"202602":1410}},{"id":"MA0101202410A0443020","name":"계림검도관","industry":"태권도/무술학원","coordinates":[127.434959678532,36.3473119827308],"sales":{"202602":188}},{"id":"MA0101202410A0443088","name":"내님","industry":"결혼 상담 서비스업","coordinates":[127.436326726425,36.3407554638532],"sales":{"202602":3049}},{"id":"MA0101202410A0443145","name":"추연구기타교습소","industry":"음악학원","coordinates":[127.43439476393,36.3438805651492],"sales":{"202602":82}},{"id":"MA0101202410A0443184","name":"효촌길축산","industry":"정육점","coordinates":[127.434776734415,36.3464655452352],"sales":{"202602":1252}},{"id":"MA0101202410A0443251","name":"효촌푸른의원","industry":"외과 의원","coordinates":[127.435235913343,36.346905448838],"sales":{"202602":5861}},{"id":"MA0101202410A0443276","name":"튼튼영어가양영어교습소","industry":"입시·교과학원","coordinates":[127.437946282436,36.3415425733377],"sales":{"202602":726}},{"id":"MA0101202410A0443477","name":"금강만화","industry":"만화방","coordinates":[127.432126766116,36.3467004505971],"sales":{}},{"id":"MA0101202410A0443632","name":"다정한정신과의원","industry":"신경/정신과 의원","coordinates":[127.435045020203,36.3406249603203],"sales":{"202602":2014}},{"id":"MA0101202410A0443732","name":"고려치과의원","industry":"치과의원","coordinates":[127.436583621433,36.340880690081],"sales":{"202602":3284}},{"id":"MA0101202410A0443756","name":"해충박사","industry":"소독, 구충 및 방제 서비스업","coordinates":[127.436326726425,36.3407554638532],"sales":{"202602":239}},{"id":"MA0101202410A0443918","name":"오복치과","industry":"치과의원","coordinates":[127.436318201553,36.3412241057133],"sales":{"202602":5834}},{"id":"MA0101202410A0443951","name":"이윤희정신과의원","industry":"요양병원","coordinates":[127.437441354716,36.3488529423025],"sales":{"202602":4575}},{"id":"MA0101202410A0443955","name":"미소인력개발","industry":"고용 알선업","coordinates":[127.436524759414,36.3403131651368],"sales":{}},{"id":"MA0101202410A0444102","name":"쁘띠피카소미술교습소","industry":"미술학원","coordinates":[127.433922268741,36.3430441897089],"sales":{"202602":248}},{"id":"MA0101202410A0444123","name":"유지현음악교습소","industry":"음악학원","coordinates":[127.431061813575,36.3434690819357],"sales":{"202602":205}},{"id":"MA0101202410A0444172","name":"김소영한의원","industry":"한의원","coordinates":[127.433953746686,36.3447022358334],"sales":{"202602":1426}},{"id":"MA0101202410A0444207","name":"성남치과의원","industry":"치과의원","coordinates":[127.435045020203,36.3406249603203],"sales":{"202602":9446}},{"id":"MA0101202410A0444279","name":"청사초롱정육점","industry":"정육점","coordinates":[127.434913616369,36.3470417982966],"sales":{"202602":3553}},{"id":"MA0101202410A0444404","name":"날망인력개발직업소개소","industry":"고용 알선업","coordinates":[127.434320192531,36.3444936345675],"sales":{}},{"id":"MA0101202410A0444405","name":"막쌤수학교습소","industry":"입시·교과학원","coordinates":[127.437946282436,36.3415425733377],"sales":{"202602":487}},{"id":"MA0101202410A0444479","name":"솔티음악교습소","industry":"음악학원","coordinates":[127.430905071434,36.3433254593199],"sales":{"202602":176}},{"id":"MA0101202410A0444656","name":"누리이비인후과","industry":"이비인후과 의원","coordinates":[127.436583621433,36.340880690081],"sales":{"202602":990}},{"id":"MA0101202410A0446504","name":"동대전정형외과","industry":"외과 의원","coordinates":[127.431491511365,36.3466486756251],"sales":{"202602":6937}},{"id":"MA0101202410A0447446","name":"윤대호크리닉","industry":"내과/소아과 의원","coordinates":[127.434858400823,36.3431218926429],"sales":{"202602":9221}},{"id":"MA0101202410A0447456","name":"성신치과의원","industry":"치과의원","coordinates":[127.432281425205,36.3464655860471],"sales":{"202602":6640}},{"id":"MA0101202410A0447460","name":"김남철소아청소년과의원","industry":"내과/소아과 의원","coordinates":[127.43647419503,36.3412325478298],"sales":{"202602":1865}},{"id":"MA0101202410A0447478","name":"여재동이비인후과","industry":"이비인후과 의원","coordinates":[127.43392714926,36.3399080847105],"sales":{"202602":4637}},{"id":"MA0101202410A0447480","name":"금강의원","industry":"내과/소아과 의원","coordinates":[127.431849669812,36.3469537809409],"sales":{"202602":4706}},{"id":"MA0101202410A0447505","name":"고려내과의원","industry":"내과/소아과 의원","coordinates":[127.436583621433,36.340880690081],"sales":{"202602":3227}},{"id":"MA0101202410A0448098","name":"대영계란","industry":"슈퍼마켓","coordinates":[127.435111942513,36.3426433474282],"sales":{"202602":4827}},{"id":"MA0101202410A0448103","name":"성남상회","industry":"곡물/곡분 소매업","coordinates":[127.434196660008,36.3443138486554],"sales":{"202602":2488}},{"id":"MA0101202410A0448104","name":"한밭화원","industry":"꽃집","coordinates":[127.436775697437,36.3413666224466],"sales":{"202602":762}},{"id":"MA0101202410A0448284","name":"스마트청과","industry":"채소/과일 소매업","coordinates":[127.435155846762,36.3425260349099],"sales":{"202602":2705}},{"id":"MA0101202410A0450297","name":"세종씨맘청과","industry":"채소/과일 소매업","coordinates":[127.436217737975,36.3451806270367],"sales":{"202602":683}},{"id":"MA0101202410A0478835","name":"삼성피아노학원","industry":"음악학원","coordinates":[127.433841588898,36.3405482293749],"sales":{"202602":112}},{"id":"MA0101202410A0479820","name":"알토컨설팅교육센터학원","industry":"기타 기술/직업 훈련학원","coordinates":[127.43568305408,36.3471831832755],"sales":{"202602":408}},{"id":"MA0101202410A0479962","name":"다인치과의원","industry":"치과의원","coordinates":[127.436381364348,36.3405660177036],"sales":{"202602":6086}},{"id":"MA0101202410A0480770","name":"새울청과.야채","industry":"채소/과일 소매업","coordinates":[127.434022996817,36.3391147028379],"sales":{"202602":1181}},{"id":"MA0101202410A0498432","name":"이스턴영어교습소","industry":"입시·교과학원","coordinates":[127.433922268741,36.3430441897089],"sales":{"202602":321}},{"id":"MA0101202410A0528213","name":"시대인재학원","industry":"입시·교과학원","coordinates":[127.43406358925,36.3444224729591],"sales":{"202602":990}},{"id":"MA0101202410A0604648","name":"평화이가네평화정육점","industry":"정육점","coordinates":[127.434755012887,36.3405539217088],"sales":{"202602":3876}},{"id":"MA0101202410A0620833","name":"힘찬한의원","industry":"한의원","coordinates":[127.434900436645,36.3446717591376],"sales":{"202602":1883}},{"id":"MA0101202410A0622887","name":"솔파란아동연구소","industry":"그 외 기타 교육기관","coordinates":[127.437441354716,36.3488529423025],"sales":{"202602":377}},{"id":"MA0101202410A0644217","name":"제일인력","industry":"고용 알선업","coordinates":[127.437946282436,36.3415425733377],"sales":{}},{"id":"MA0101202410A0699943","name":"섬김한의원","industry":"한의원","coordinates":[127.43482971008,36.3419684939206],"sales":{"202602":2228}},{"id":"MA0101202410A0711872","name":"효성태권도장","industry":"태권도/무술학원","coordinates":[127.434019632314,36.3445307734983],"sales":{"202602":355}},{"id":"MA0101202410A0786347","name":"홍광천한우직판장","industry":"정육점","coordinates":[127.432126766116,36.3467004505971],"sales":{"202602":7599}},{"id":"MA0101202410A0804701","name":"꿈그루수학","industry":"입시·교과학원","coordinates":[127.430905071434,36.3433254593199],"sales":{"202602":309}},{"id":"MA0101202410A0850293","name":"고향청과","industry":"채소/과일 소매업","coordinates":[127.433472559235,36.3443074656172],"sales":{"202602":1602}},{"id":"MA0101202410A0932812","name":"행복한피아노여행","industry":"음악학원","coordinates":[127.436099781789,36.340008317305],"sales":{"202602":465}},{"id":"MA0101202410A0998976","name":"스마트태권도","industry":"태권도/무술학원","coordinates":[127.433922268741,36.3430441897089],"sales":{"202602":704}},{"id":"MA0101202410A1008332","name":"충남종합복싱체육관","industry":"태권도/무술학원","coordinates":[127.4351238335,36.3427784802749],"sales":{"202602":297}},{"id":"MA0101202410A1012661","name":"삼성축산","industry":"정육점","coordinates":[127.436818491345,36.3410510549815],"sales":{"202602":4978}},{"id":"MA0101202410A1017497","name":"미래이비인후과의원","industry":"이비인후과 의원","coordinates":[127.437441354716,36.3488529423025],"sales":{"202602":2161}},{"id":"MA0101202410A1035109","name":"ILU언어심리발달센터","industry":"유사 의료업","coordinates":[127.433591942408,36.341729674067],"sales":{"202602":271}},{"id":"MA0101202411A0013176","name":"호미마라탕","industry":"마라탕/훠궈","coordinates":[127.437441354716,36.3488529423025],"sales":{"202602":1181}},{"id":"MA0101202411A0035939","name":"드초이세라믹스튜디오","industry":"예술품 소매업","coordinates":[127.437441354716,36.3488529423025],"sales":{"202602":715}},{"id":"MA0101202411A0037894","name":"카페블리스","industry":"카페","coordinates":[127.43411853525,36.3442870972607],"sales":{"202602":1030}},{"id":"MA0101202411A0038976","name":"터미널김밥천국","industry":"김밥/만두/분식","coordinates":[127.437609713733,36.3490776191905],"sales":{"202602":504}},{"id":"MA0101202411A0067360","name":"제일공인중개사사무소","industry":"부동산 중개/대리업","coordinates":[127.434490937547,36.3411406455611],"sales":{"202602":90}},{"id":"MA0101202411A0089111","name":"연","industry":"카페","coordinates":[127.438429950214,36.3423788919825],"sales":{"202602":1114}},{"id":"MA0101202411A0104956","name":"요리강사이진욱","industry":"기타 기술/직업 훈련학원","coordinates":[127.438363722507,36.3424872758365],"sales":{"202602":415}},{"id":"MA0101202411A0124047","name":"히어로보드카페대전복합","industry":"기타 오락장","coordinates":[127.437441354716,36.3488529423025],"sales":{"202602":774}},{"id":"MA0101202411A0178149","name":"성혁","industry":"부동산 중개/대리업","coordinates":[127.434993849425,36.3474470343866],"sales":{"202602":47}},{"id":"MA0101202412A0017119","name":"얼큰이칼국수식당","industry":"국수/칼국수","coordinates":[127.432126766116,36.3467004505971],"sales":{"202602":472}},{"id":"MA0101202412A0030808","name":"스마트노래연습장","industry":"노래방","coordinates":[127.435939582799,36.3412435109254],"sales":{"202602":620}},{"id":"MA0101202412A0031297","name":"파티스리프부아","industry":"백반/한정식","coordinates":[127.433141067262,36.3468049193261],"sales":{"202602":931}},{"id":"MA0101202501A0024405","name":"대전복합데이터복구센터","industry":"컴퓨터/노트북/프린터 수리업","coordinates":[127.437441354716,36.3488529423025],"sales":{"202602":958}},{"id":"MA0101202501A0050453","name":"롯데리아대전","industry":"버거","coordinates":[127.435045020203,36.3406249603203],"sales":{"202602":6161}},{"id":"MA0101202501A0059985","name":"조마루감자탕","industry":"국/탕/찌개류","coordinates":[127.430697127147,36.3460207196107],"sales":{"202602":3426}},{"id":"MA0101202502A0004177","name":"라야","industry":"사업/무형 재산권 중개업","coordinates":[127.437441354716,36.3488529423025],"sales":{"202602":140}},{"id":"MA0101202502A0015420","name":"영일철물","industry":"철물/공구 소매업","coordinates":[127.437191201332,36.3439604848656],"sales":{"202602":998}},{"id":"MA0101202502A0017508","name":"아이소리유소아보청기","industry":"의료기기 소매업","coordinates":[127.437441354716,36.3488529423025],"sales":{"202602":1816}},{"id":"MA0101202502A0021953","name":"더원산업개발공인중개사사무소","industry":"부동산 중개/대리업","coordinates":[127.437441354716,36.3488529423025],"sales":{"202602":87}},{"id":"MA0101202502A0041507","name":"태화당한의원","industry":"한의원","coordinates":[127.436608363642,36.3413221751788],"sales":{"202602":1052}},{"id":"MA0101202502A0043276","name":"골목짬뽕","industry":"중국집","coordinates":[127.433495586935,36.3444425582],"sales":{"202602":2273}},{"id":"MA0101202502A0045189","name":"소민클린","industry":"건축물 일반 청소업","coordinates":[127.437441354716,36.3488529423025],"sales":{"202602":528}},{"id":"MA0101202502A0052705","name":"대전에바크리닝차량에어컨냄새제거전문기업에바몬스터","industry":"자동차 세차장","coordinates":[127.437441354716,36.3488529423025],"sales":{"202602":259}},{"id":"MA0101202502A0057088","name":"위즈덤컴패니","industry":"가구 소매업","coordinates":[127.437441354716,36.3488529423025],"sales":{"202602":1532}},{"id":"MA0101202502A0076450","name":"모아옷수선","industry":"의류/이불 수선업","coordinates":[127.438167915851,36.3433260858678],"sales":{"202602":185}},{"id":"MA0101202502A0083886","name":"디피인쇄","industry":"명함/간판/광고물 제작","coordinates":[127.43553116098,36.34391247594],"sales":{"202602":478}},{"id":"MA0101202503A0009112","name":"퍼지","industry":"가전제품 수리업","coordinates":[127.429520700068,36.3447903453159],"sales":{"202602":1831}},{"id":"MA0101202503A0050275","name":"감성인테리어","industry":"인테리어 디자인업","coordinates":[127.437441354716,36.3488529423025],"sales":{"202602":466}},{"id":"MA0101202503A0055465","name":"올데이파스타대전","industry":"경양식","coordinates":[127.436419779581,36.3474508470528],"sales":{"202602":3433}},{"id":"MA0101202504A0023471","name":"씨에스애드기획","industry":"광고 대행업","coordinates":[127.437441354716,36.3488529423025],"sales":{"202602":1864}},{"id":"MA0101202504A0026375","name":"카페모레","industry":"카페","coordinates":[127.436422696453,36.3479735170176],"sales":{"202602":576}},{"id":"MA0101202505A0035570","name":"최강유틸","industry":"핸드폰 소매업","coordinates":[127.437441354716,36.3488529423025],"sales":{"202602":377}},{"id":"MA0101202505A0077945","name":"스마트인테리어","industry":"인테리어 디자인업","coordinates":[127.434931635636,36.3462757350786],"sales":{"202602":325}},{"id":"MA0101202505A0091985","name":"서브오일","industry":"자동차 세차장","coordinates":[127.437441354716,36.3488529423025],"sales":{"202602":98}},{"id":"MA0106202201A0010425","name":"버거킹대전터미널sk점","industry":"버거","coordinates":[127.434919630443,36.3481231846707],"sales":{"202602":2130}},{"id":"MA0106202201A1410912","name":"금촌한우정육식당","industry":"정육점","coordinates":[127.436038676624,36.3410358792801],"sales":{"202602":4068}},{"id":"MA0106202201A1410913","name":"금촌한우정육식당","industry":"백반/한정식","coordinates":[127.436038676624,36.3410358792801],"sales":{"202602":1283}},{"id":"MA0106202201A2215514","name":"씨제이올리브영대전","industry":"그 외 기타 상품 전문 소매업","coordinates":[127.437441354716,36.3488529423025],"sales":{"202602":569}},{"id":"MA0106202201A2364469","name":"대전터미널DT","industry":"카페","coordinates":[127.43423855232,36.3478462977432],"sales":{"202602":693}},{"id":"MA0106202408A0435445","name":"지에스GS25대전성남","industry":"편의점","coordinates":[127.435266874523,36.346463760969],"sales":{"202602":3714}},{"id":"MA0106202506A0766659","name":"카페모레","industry":"백반/한정식","coordinates":[127.436422696453,36.3479735170176],"sales":{"202602":218}},{"id":"MA0106202506A1117008","name":"GS25대전꿈돌이점","industry":"편의점","coordinates":[127.437441354716,36.3488529423025],"sales":{"202602":2600}},{"id":"MA0106202506A1348395","name":"판암매일시장(성남점)","industry":"가축 사료 소매업","coordinates":[127.435045020203,36.3406249603203],"sales":{"202602":680}},{"id":"MA0106202507A1675391","name":"시골집보리밥","industry":"백반/한정식","coordinates":[127.435339882061,36.3475719385808],"sales":{"202602":1352}},{"id":"MA0106202508A0541138","name":"헤어6.5","industry":"미용실","coordinates":[127.435235913343,36.346905448838],"sales":{"202602":208}},{"id":"MA0106202509A2229081","name":"행복한피아노교습소","industry":"음악학원","coordinates":[127.439009997148,36.3405383669468],"sales":{"202602":207}},{"id":"MA0106202509A2357558","name":"인생국물두루치기중","industry":"백반/한정식","coordinates":[127.437768286809,36.3475540554351],"sales":{"202602":1429}},{"id":"MA0106202510A1093711","name":"쌍팔통닭대전","industry":"치킨","coordinates":[127.43542589357,36.3410110782828],"sales":{"202602":529}},{"id":"MA0106202510A1108884","name":"착한빵집","industry":"그 외 기타 상품 전문 소매업","coordinates":[127.435445963807,36.3406144883534],"sales":{"202602":2257}},{"id":"MA0106202510A1962763","name":"만물상회","industry":"그 외 기타 상품 전문 소매업","coordinates":[127.434162692011,36.344214842919],"sales":{"202602":3442}},{"id":"MA0106202510A2206957","name":"골목식당","industry":"백반/한정식","coordinates":[127.438429950214,36.3423788919825],"sales":{"202602":822}},{"id":"MA0106202510A2356113","name":"대전S한의원","industry":"한의원","coordinates":[127.437441354716,36.3488529423025],"sales":{"202602":2370}},{"id":"MA0106202510A2411984","name":"이레축산","industry":"정육점","coordinates":[127.434755012887,36.3405539217088],"sales":{"202602":4082}},{"id":"MA0106202511A1073502","name":"술통","industry":"백반/한정식","coordinates":[127.435084802177,36.3417693071179],"sales":{"202602":675}},{"id":"MA0106202511A1586530","name":"오!해피O!HAPPY","industry":"백반/한정식","coordinates":[127.433141067262,36.3468049193261],"sales":{"202602":1371}},{"id":"MA0106202511A1698013","name":"미가","industry":"그 외 기타 상품 전문 소매업","coordinates":[127.431218795053,36.3456763922243],"sales":{"202602":2383}},{"id":"MA0106202512A0426293","name":"하까오손만두","industry":"김밥/만두/분식","coordinates":[127.435266874523,36.346463760969],"sales":{"202602":829}},{"id":"MA0106202512A1099849","name":"회오리날다","industry":"닭/오리고기 구이/찜","coordinates":[127.434698977724,36.3445012690618],"sales":{"202602":1379}},{"id":"MA0106202512A1374916","name":"오가네집밥","industry":"백반/한정식","coordinates":[127.436349974831,36.3469194095628],"sales":{"202602":1423}},{"id":"MA0106202601A1020377","name":"골목초밥집","industry":"일식 회/초밥","coordinates":[127.434682839779,36.3476103773375],"sales":{"202602":1341}},{"id":"MA0106202601A1040423","name":"시니가","industry":"백반/한정식","coordinates":[127.433775556224,36.3406926570114],"sales":{"202602":398}},{"id":"MA0106202601A2085397","name":"지에스25(GS25) 대전성남점","industry":"편의점","coordinates":[127.435339882061,36.3475719385808],"sales":{"202602":2568}},{"id":"MA0106202602A1127274","name":"동구 국민체육센터","industry":"수영장","coordinates":[127.438301997908,36.3394235091866],"sales":{"202602":9630}}]