[{"id":"MA010120220800151195","name":"헤민헤어샵","industry":"미용실","coordinates":[127.446609905465,36.3313362470754],"sales":{"202602":302}},{"id":"MA010120220800231484","name":"교동찜닭","industry":"닭/오리고기 구이/찜","coordinates":[127.442986752865,36.328763355922],"sales":{"202602":1135}},{"id":"MA010120220800323162","name":"탑비엠에스","industry":"건축물 일반 청소업","coordinates":[127.445562180412,36.3253293132009],"sales":{"202602":1105}},{"id":"MA010120220800529333","name":"보블랑뷰티","industry":"피부 관리실","coordinates":[127.44128223021,36.3286705318046],"sales":{"202602":234}},{"id":"MA010120220800905720","name":"조각구름협동조합","industry":"카페","coordinates":[127.443033734972,36.3311603096927],"sales":{"202602":1357}},{"id":"MA010120220801018937","name":"뉴보스턴","industry":"입시·교과학원","coordinates":[127.44312291052,36.3272398634358],"sales":{"202602":1242}},{"id":"MA010120220801294855","name":"화로연가식당","industry":"카페","coordinates":[127.445185591415,36.333522405402],"sales":{"202602":444}},{"id":"MA010120220801988389","name":"첫사랑스튜디오","industry":"사진촬영업","coordinates":[127.443690072524,36.3310226986514],"sales":{"202602":435}},{"id":"MA010120220802147817","name":"도도","industry":"여성 의류 소매업","coordinates":[127.443487302147,36.33061792212],"sales":{"202602":290}},{"id":"MA010120220802190026","name":"대전황실유럽십자수","industry":"침구류/커튼 소매업","coordinates":[127.443184400967,36.3302315400526],"sales":{"202602":336}},{"id":"MA010120220802218937","name":"금강A&C","industry":"철물/공구 소매업","coordinates":[127.442710751613,36.3311615064764],"sales":{"202602":292}},{"id":"MA010120220802687617","name":"효순식당","industry":"돼지고기 구이/찜","coordinates":[127.444734034948,36.3285405850086],"sales":{"202602":386}},{"id":"MA010120220802836744","name":"와스디","industry":"제품 디자인업","coordinates":[127.445286894851,36.3258800567103],"sales":{}},{"id":"MA010120220802914507","name":"위드드림","industry":"상용 인력 공급 및 인사관리 서비스업","coordinates":[127.442218212396,36.3307217537165],"sales":{"202602":6013}},{"id":"MA010120220802948188","name":"메디컬대동약국","industry":"약국","coordinates":[127.442876810697,36.3290160926465],"sales":{"202602":2555}},{"id":"MA010120220802956129","name":"다니그라피","industry":"기념품점","coordinates":[127.449039145847,36.3315524389496],"sales":{"202602":491}},{"id":"MA010120220802967697","name":"본죽대동","industry":"백반/한정식","coordinates":[127.442487370551,36.3290806173508],"sales":{"202602":1029}},{"id":"MA010120220802971646","name":"동산공방","industry":"기타 기술/직업 훈련학원","coordinates":[127.448744973827,36.3307514975879],"sales":{"202602":887}},{"id":"MA010120220802990484","name":"우정장터치킨","industry":"치킨","coordinates":[127.443589786302,36.3290494957324],"sales":{"202602":373}},{"id":"MA010120220803006714","name":"모모케키","industry":"빵/도넛","coordinates":[127.443288005282,36.3308259318803],"sales":{"202602":477}},{"id":"MA010120220803028078","name":"문구야놀자대전","industry":"문구/회화용품 소매업","coordinates":[127.440639200873,36.3272129985401],"sales":{"202602":358}},{"id":"MA010120220803118663","name":"돈돼지삼겹살","industry":"돼지고기 구이/찜","coordinates":[127.444623073918,36.332533206449],"sales":{"202602":1713}},{"id":"MA010120220803125033","name":"오늘감자탕","industry":"요리 주점","coordinates":[127.446103041803,36.324480189862],"sales":{"202602":205}},{"id":"MA010120220803158698","name":"오비브","industry":"유아용 의류 소매업","coordinates":[127.449177187958,36.3264963238941],"sales":{"202602":258}},{"id":"MA010120220803189790","name":"육아는장비빨","industry":"유아용 의류 소매업","coordinates":[127.440270824665,36.3270611560212],"sales":{"202602":100}},{"id":"MA010120220803195532","name":"행복한드럼","industry":"음악학원","coordinates":[127.443408728424,36.3305100725481],"sales":{"202602":448}},{"id":"MA010120220803225393","name":"오름수선","industry":"의류/이불 수선업","coordinates":[127.448657638393,36.3271741573416],"sales":{"202602":138}},{"id":"MA010120220803237890","name":"듀오네트워크","industry":"핸드폰 소매업","coordinates":[127.446782523215,36.3323088714599],"sales":{"202602":172}},{"id":"MA010120220803257343","name":"건강제일약국","industry":"약국","coordinates":[127.443831382192,36.3304093744736],"sales":{"202602":7628}},{"id":"MA010120220803292722","name":"동키치킨","industry":"치킨","coordinates":[127.442986752865,36.328763355922],"sales":{"202602":657}},{"id":"MA010120220803299559","name":"조인케어","industry":"임시/일용 인력 공급업","coordinates":[127.448622980285,36.3308420731108],"sales":{}},{"id":"MA010120220803425249","name":"신통치킨","industry":"치킨","coordinates":[127.445683655163,36.3271041777708],"sales":{"202602":590}},{"id":"MA010120220803449798","name":"대동부동산공인중개사사무소","industry":"부동산 중개/대리업","coordinates":[127.444982652964,36.3330905969868],"sales":{"202602":48}},{"id":"MA010120220803535250","name":"굿아이스크림할인점","industry":"슈퍼마켓","coordinates":[127.444461957009,36.3296590552854],"sales":{"202602":10373}},{"id":"MA010120220803563971","name":"꽃돼지복권","industry":"복권 발행/판매업","coordinates":[127.441806844761,36.330849439649],"sales":{"202602":173}},{"id":"MA010120220803581187","name":"대전행운부동산공인중개사사무소","industry":"부동산 중개/대리업","coordinates":[127.445383094619,36.3329989878804],"sales":{"202602":57}},{"id":"MA010120220803581468","name":"탑마트","industry":"슈퍼마켓","coordinates":[127.440297965411,36.3279261853667],"sales":{"202602":6127}},{"id":"MA010120220803590945","name":"여성의류","industry":"기타 의류 소매업","coordinates":[127.446620449957,36.3331836173016],"sales":{"202602":415}},{"id":"MA010120220803672532","name":"씨유대전","industry":"편의점","coordinates":[127.443502681676,36.3294012776136],"sales":{"202602":8277}},{"id":"MA010120220803787744","name":"씨유","industry":"편의점","coordinates":[127.44312291052,36.3272398634358],"sales":{"202602":5607}},{"id":"MA010120220803814085","name":"금커피별빙수대전","industry":"아이스크림/빙수","coordinates":[127.445173787178,36.3334052965813],"sales":{"202602":2844}},{"id":"MA010120220803844880","name":"황새싸운드","industry":"중고 상품 소매업","coordinates":[127.445531940113,36.3317548109947],"sales":{"202602":312}},{"id":"MA010120220803866659","name":"선미이용원","industry":"미용실","coordinates":[127.443831382192,36.3304093744736],"sales":{"202602":438}},{"id":"MA010120220804076017","name":"대동예일정형외과","industry":"외과 의원","coordinates":[127.440232512733,36.3281697440588],"sales":{"202602":4492}},{"id":"MA010120220804441176","name":"연진미용실","industry":"미용실","coordinates":[127.448744973827,36.3307514975879],"sales":{"202602":282}},{"id":"MA010120220804445753","name":"디자인큐","industry":"시각 디자인업","coordinates":[127.44522245052,36.3321705050139],"sales":{"202602":299}},{"id":"MA010120220804547602","name":"남정약국","industry":"약국","coordinates":[127.440982800597,36.3288969309631],"sales":{"202602":3526}},{"id":"MA010120220804603431","name":"신일품","industry":"중국집","coordinates":[127.446179815065,36.3242726326821],"sales":{"202602":2008}},{"id":"MA010120220804789946","name":"김신프로헤어","industry":"미용실","coordinates":[127.444801749888,36.3267379806518],"sales":{"202602":291}},{"id":"MA010120220804879044","name":"드림모바일","industry":"핸드폰 소매업","coordinates":[127.442444809376,36.3294322335617],"sales":{"202602":249}},{"id":"MA010120220804931538","name":"제이","industry":"핸드폰 소매업","coordinates":[127.443487302147,36.33061792212],"sales":{"202602":90}},{"id":"MA010120220805012599","name":"신이주신밥상","industry":"백반/한정식","coordinates":[127.448278188507,36.3309244725937],"sales":{"202602":661}},{"id":"MA010120220805031730","name":"오두막","industry":"백반/한정식","coordinates":[127.444774616466,36.3298020803472],"sales":{"202602":1634}},{"id":"MA010120220805040119","name":"라온라이스뜰애","industry":"그 외 기타 교육기관","coordinates":[127.447634136874,36.3273672418143],"sales":{"202602":694}},{"id":"MA010120220805163737","name":"대동단결","industry":"서점","coordinates":[127.450657494594,36.3321411235518],"sales":{"202602":425}},{"id":"MA010120220805164234","name":"스타메디텍","industry":"의료기기 소매업","coordinates":[127.441108558986,36.3294732196099],"sales":{"202602":2627}},{"id":"MA010120220805268215","name":"요가솔필라테스","industry":"요가/필라테스 학원","coordinates":[127.442271861543,36.3303610848688],"sales":{"202602":461}},{"id":"MA010120220805277529","name":"365홈마트","industry":"슈퍼마켓","coordinates":[127.444618209296,36.3316771077968],"sales":{"202602":17122}},{"id":"MA010120220805283411","name":"제이케이라운지","industry":"카페","coordinates":[127.441798653347,36.3293985766872],"sales":{"202602":453}},{"id":"MA010120220805408448","name":"혜성당구장","industry":"당구장","coordinates":[127.445786975288,36.3335111520688],"sales":{"202602":180}},{"id":"MA010120220805409069","name":"대동석유","industry":"주유소","coordinates":[127.445419180697,36.3315119138697],"sales":{"202602":79833}},{"id":"MA010120220805472765","name":"제이컴퍼니","industry":"화장품 소매업","coordinates":[127.446949193299,36.3302896150473],"sales":{"202602":685}},{"id":"MA010120220805493986","name":"곱창고대전","industry":"곱창 전골/구이","coordinates":[127.445786975288,36.3335111520688],"sales":{"202602":1466}},{"id":"MA010120220805640090","name":"킹콩왕돈까스와피자","industry":"피자","coordinates":[127.445219978772,36.3336935006118],"sales":{"202602":1233}},{"id":"MA010120220805656823","name":"골목상회","industry":"슈퍼마켓","coordinates":[127.450490639849,36.3321777995871],"sales":{"202602":17471}},{"id":"MA010120220805743772","name":"적덕민속식당","industry":"백반/한정식","coordinates":[127.445065141597,36.3319277735135],"sales":{"202602":573}},{"id":"MA010120220805744402","name":"작품미용실","industry":"미용실","coordinates":[127.44522245052,36.3321705050139],"sales":{"202602":111}},{"id":"MA010120220805744754","name":"일공공일안경콘택트","industry":"안경렌즈 소매업","coordinates":[127.445033417621,36.3263496124774],"sales":{"202602":2221}},{"id":"MA010120220805744821","name":"윤헤어","industry":"미용실","coordinates":[127.444761590805,36.3333888076928],"sales":{"202602":124}},{"id":"MA010120220805744823","name":"모나리자헤어칼라","industry":"미용실","coordinates":[127.442487370551,36.3290806173508],"sales":{"202602":316}},{"id":"MA010120220805746086","name":"아지트PC","industry":"PC방","coordinates":[127.445219978772,36.3336935006118],"sales":{"202602":1451}},{"id":"MA010120220805746226","name":"한길공인중개사사무소","industry":"부동산 중개/대리업","coordinates":[127.441939118361,36.3306056331554],"sales":{"202602":25}},{"id":"MA010120220805746615","name":"신흥상사","industry":"철물/공구 소매업","coordinates":[127.441115366013,36.3306807702716],"sales":{"202602":429}},{"id":"MA010120220805747264","name":"스마트","industry":"기타 의류 소매업","coordinates":[127.442948835907,36.3299350252468],"sales":{"202602":1388}},{"id":"MA010120220805747329","name":"꾸러기문구","industry":"문구/회화용품 소매업","coordinates":[127.444108802968,36.3321926717941],"sales":{"202602":263}},{"id":"MA010120220805748002","name":"차크린","industry":"자동차 정비소","coordinates":[127.445088383472,36.3262232431173],"sales":{"202602":1428}},{"id":"MA010120220805750743","name":"멍석골","industry":"백반/한정식","coordinates":[127.443176734268,36.3308443680335],"sales":{"202602":752}},{"id":"MA010120220805751255","name":"현이미용실","industry":"미용실","coordinates":[127.449039145847,36.3315524389496],"sales":{"202602":285}},{"id":"MA010120220805751401","name":"으랏차차노래연습장","industry":"노래방","coordinates":[127.446110482019,36.333600062513],"sales":{"202602":727}},{"id":"MA010120220805752774","name":"카스캠프식당","industry":"생맥주 전문","coordinates":[127.445821672041,36.3337363164621],"sales":{"202602":229}},{"id":"MA010120220805753561","name":"구구실내마차식당","industry":"요리 주점","coordinates":[127.444930262237,36.3317119935652],"sales":{"202602":581}},{"id":"MA010120220805753954","name":"왕산왕갈비탕","industry":"백반/한정식","coordinates":[127.441185339895,36.3312392410098],"sales":{"202602":1435}},{"id":"MA010120220805755107","name":"라꾸라꾸.텐트대여.온수옥매트","industry":"가전제품 소매업","coordinates":[127.446234674882,36.3241282396243],"sales":{"202602":771}},{"id":"MA010120220805755166","name":"이름없음식당","industry":"요리 주점","coordinates":[127.44510634596,36.3332974067256],"sales":{"202602":133}},{"id":"MA010120220805755537","name":"현대자동차","industry":"자동차 정비소","coordinates":[127.44579573942,36.3252743717502],"sales":{"202602":2586}},{"id":"MA010120220805756104","name":"우리식당","industry":"백반/한정식","coordinates":[127.44270718273,36.3305306966466],"sales":{"202602":294}},{"id":"MA010120220805758813","name":"수정기획","industry":"복사업","coordinates":[127.443955221226,36.3306432202503],"sales":{"202602":472}},{"id":"MA010120220805759566","name":"정가네참숯구이","industry":"돼지고기 구이/찜","coordinates":[127.444669338043,36.3269547556472],"sales":{"202602":1010}},{"id":"MA010120220805760391","name":"대우부동산중개인사무소","industry":"부동산 중개/대리업","coordinates":[127.444230548065,36.3320570430222],"sales":{"202602":58}},{"id":"MA010120220805760550","name":"청수원탕","industry":"목욕탕/사우나","coordinates":[127.447987741237,36.3307723617496],"sales":{"202602":3269}},{"id":"MA010120220805760585","name":"부산전자영상","industry":"가전제품 수리업","coordinates":[127.44599266778,36.3285629304449],"sales":{"202602":357}},{"id":"MA010120220805761192","name":"엘리트학생복","industry":"기타 의류 소매업","coordinates":[127.443352429416,36.3304021402983],"sales":{"202602":355}},{"id":"MA010120220805762077","name":"하나로동물병원","industry":"동물병원","coordinates":[127.444723926498,36.3326409722778],"sales":{"202602":3344}},{"id":"MA010120220805762359","name":"자매헤어","industry":"미용실","coordinates":[127.441416077595,36.3287060846112],"sales":{"202602":292}},{"id":"MA010120220805762452","name":"교촌치킨","industry":"치킨","coordinates":[127.44361098723,36.3308247335462],"sales":{"202602":1459}},{"id":"MA010120220805763020","name":"선우디지털스튜디오","industry":"사진촬영업","coordinates":[127.445765521371,36.3336554201293],"sales":{"202602":200}},{"id":"MA010120220805763190","name":"보은상회","industry":"곡물/곡분 소매업","coordinates":[127.442342454668,36.3310276937361],"sales":{"202602":1574}},{"id":"MA010120220805763369","name":"대성상사","industry":"가정용 연료 소매업","coordinates":[127.4410457995,36.33019439201],"sales":{"202602":2502}},{"id":"MA010120220805763374","name":"부담없는매운닭발집","industry":"닭/오리고기 구이/찜","coordinates":[127.440745196001,36.3302135244029],"sales":{"202602":627}},{"id":"MA010120220805765099","name":"키스피드","industry":"철물/공구 소매업","coordinates":[127.443494557827,36.329933001558],"sales":{"202602":1087}},{"id":"MA010120220805765104","name":"테마휴게방","industry":"기타 오락장","coordinates":[127.441273778209,36.3311217616731],"sales":{"202602":473}},{"id":"MA010120220805765662","name":"은아세탁소","industry":"세탁소","coordinates":[127.443100099846,36.3310789578603],"sales":{"202602":213}},{"id":"MA010120220805765788","name":"불광동숯불바베큐식당","industry":"치킨","coordinates":[127.447706011371,36.3263035846964],"sales":{"202602":427}},{"id":"MA010120220805765930","name":"장성등갈비","industry":"돼지고기 구이/찜","coordinates":[127.444930262237,36.3317119935652],"sales":{"202602":390}},{"id":"MA010120220805768465","name":"이지민헤어","industry":"미용실","coordinates":[127.441605813586,36.3287774778338],"sales":{"202602":217}},{"id":"MA010120220805769258","name":"아모레카운셀러","industry":"화장품 소매업","coordinates":[127.442986752865,36.328763355922],"sales":{"202602":698}},{"id":"MA010120220805770587","name":"GH모터스","industry":"자동차 정비소","coordinates":[127.448075223683,36.3265995893469],"sales":{"202602":1368}},{"id":"MA010120220805772200","name":"순수스킨케어","industry":"피부 관리실","coordinates":[127.441416077595,36.3287060846112],"sales":{"202602":366}},{"id":"MA010120220805772909","name":"쎄씨노래방","industry":"노래방","coordinates":[127.445219978772,36.3336935006118],"sales":{"202602":367}},{"id":"MA010120220805774096","name":"꼬치랑토스트랑","industry":"토스트/샌드위치/샐러드","coordinates":[127.444427470814,36.3294699365804],"sales":{"202602":1375}},{"id":"MA010120220805774107","name":"김환숙헤어갤러리","industry":"미용실","coordinates":[127.445736982799,36.3325560926593],"sales":{"202602":468}},{"id":"MA010120220805774132","name":"크레이지덕","industry":"치킨","coordinates":[127.446924592624,36.3259820855838],"sales":{"202602":821}},{"id":"MA010120220805775507","name":"온누리엔지니어링","industry":"기타 엔지니어링 서비스업","coordinates":[127.448293249529,36.3316093094964],"sales":{"202602":26718}},{"id":"MA010120220805776839","name":"대동솥뚜껑생고기","industry":"돼지고기 구이/찜","coordinates":[127.449034233085,36.3306963406726],"sales":{"202602":781}},{"id":"MA010120220805776955","name":"뚜레쥬르대전대동","industry":"빵/도넛","coordinates":[127.443426560246,36.3297259833884],"sales":{"202602":1114}},{"id":"MA010120220805777141","name":"풍년순대","industry":"국/탕/찌개류","coordinates":[127.443100099846,36.3310789578603],"sales":{"202602":639}},{"id":"MA010120220805777436","name":"일동석유","industry":"가정용 연료 소매업","coordinates":[127.441662008807,36.3308409631858],"sales":{"202602":8926}},{"id":"MA010120220805777591","name":"우송열쇠","industry":"철물/공구 소매업","coordinates":[127.444899872999,36.3322438002548],"sales":{"202602":1421}},{"id":"MA010120220805778224","name":"영광꽃집","industry":"꽃집","coordinates":[127.443595507643,36.330058791558],"sales":{"202602":416}},{"id":"MA010120220805778863","name":"O.K시스템","industry":"전시/컨벤션/행사 대행 서비스업","coordinates":[127.442799769174,36.3291785897758],"sales":{"202602":46}},{"id":"MA010120220805779185","name":"구룡촌건강원","industry":"건강보조식품 소매업","coordinates":[127.444015714294,36.3314901006981],"sales":{"202602":1550}},{"id":"MA010120220805779319","name":"우송문화사","industry":"복사업","coordinates":[127.445365179416,36.3337650536499],"sales":{"202602":348}},{"id":"MA010120220805779331","name":"최필선진공관오디오연구소","industry":"가전제품 소매업","coordinates":[127.447854458238,36.3327824825104],"sales":{"202602":905}},{"id":"MA010120220805779828","name":"김정문알로에","industry":"건강보조식품 소매업","coordinates":[127.44826872854,36.3273288164803],"sales":{"202602":1043}},{"id":"MA010120220805782239","name":"방실슈퍼","industry":"슈퍼마켓","coordinates":[127.447573853716,36.3324050400058],"sales":{"202602":8316}},{"id":"MA010120220805782927","name":"모여라노래연습장","industry":"노래방","coordinates":[127.444930262237,36.3317119935652],"sales":{"202602":471}},{"id":"MA010120220805784470","name":"정일품떡","industry":"떡/한과","coordinates":[127.44150741072,36.3291022647648],"sales":{"202602":1095}},{"id":"MA010120220805785110","name":"대동식당","industry":"백반/한정식","coordinates":[127.440982800597,36.3288969309631],"sales":{"202602":526}},{"id":"MA010120220805785217","name":"성인마트","industry":"그 외 기타 상품 전문 소매업","coordinates":[127.44150741072,36.3291022647648],"sales":{"202602":882}},{"id":"MA010120220805786483","name":"세인트김설영학생복구","industry":"기타 의류 소매업","coordinates":[127.445683399264,36.3251035671447],"sales":{"202602":2099}},{"id":"MA010120220805786888","name":"싸군통신","industry":"핸드폰 소매업","coordinates":[127.443487302147,36.33061792212],"sales":{"202602":263}},{"id":"MA010120220805787604","name":"유정헤어홀릭","industry":"미용실","coordinates":[127.443789793353,36.3289676474325],"sales":{"202602":139}},{"id":"MA010120220805787783","name":"구세약국","industry":"약국","coordinates":[127.443370261789,36.3296180511291],"sales":{"202602":5394}},{"id":"MA010120220805788014","name":"웅천건강원","industry":"건강보조식품 소매업","coordinates":[127.447434086463,36.3274400849446],"sales":{"202602":622}},{"id":"MA010120220805788180","name":"에덴정육점우리식단","industry":"정육점","coordinates":[127.448016032277,36.3259870113606],"sales":{"202602":2597}},{"id":"MA010120220805788860","name":"아쿠아이즈안경원","industry":"안경렌즈 소매업","coordinates":[127.445821672041,36.3337363164621],"sales":{"202602":1153}},{"id":"MA010120220805789018","name":"화이트화장품","industry":"화장품 소매업","coordinates":[127.445920980085,36.3316181838134],"sales":{"202602":919}},{"id":"MA010120220805789107","name":"에스케이대동주유소","industry":"주유소","coordinates":[127.448577304902,36.3267599178289],"sales":{"202602":11045}},{"id":"MA010120220805792072","name":"달보드레","industry":"카페","coordinates":[127.444229217873,36.3318227423195],"sales":{"202602":1156}},{"id":"MA010120220805792285","name":"오가경성만두","industry":"김밥/만두/분식","coordinates":[127.446809789824,36.3331829096176],"sales":{"202602":654}},{"id":"MA010120220805792295","name":"시크릿헤어","industry":"미용실","coordinates":[127.446377272683,36.3335089488691],"sales":{"202602":297}},{"id":"MA010120220805793003","name":"용방드림마트","industry":"슈퍼마켓","coordinates":[127.44951139198,36.3265130910224],"sales":{"202602":4717}},{"id":"MA010120220805795293","name":"김일수비뇨기과의원","industry":"피부/비뇨기과 의원","coordinates":[127.443358307748,36.3294739073192],"sales":{"202602":4898}},{"id":"MA010120220805795420","name":"큐빅공인중개사사무소","industry":"부동산 중개/대리업","coordinates":[127.44599266778,36.3285629304449],"sales":{"202602":20}},{"id":"MA010120220805795873","name":"미앤미세차장","industry":"자동차 세차장","coordinates":[127.443677656535,36.3288328873369],"sales":{"202602":764}},{"id":"MA010120220805797156","name":"60계치킨","industry":"치킨","coordinates":[127.443791582042,36.3292830523922],"sales":{"202602":818}},{"id":"MA010120220805797366","name":"대한유통","industry":"침구류/커튼 소매업","coordinates":[127.444663936857,36.3318842080616],"sales":{"202602":366}},{"id":"MA010120220805798145","name":"씨유대전대동","industry":"편의점","coordinates":[127.445559859602,36.3327459999323],"sales":{"202602":2968}},{"id":"MA010120220805798401","name":"시골야채쌈밥","industry":"백반/한정식","coordinates":[127.445456132748,36.3321335872742],"sales":{"202602":902}},{"id":"MA010120220805811067","name":"제일서비스통신주","industry":"핸드폰 소매업","coordinates":[127.442321995524,36.3293786175649],"sales":{"202602":100}},{"id":"MA010120220805813261","name":"뉴플러스환경주","industry":"건축물 일반 청소업","coordinates":[127.447105387705,36.3283875498173],"sales":{"202602":364}},{"id":"MA010120220805814085","name":"대전선호의원","industry":"기타 의원","coordinates":[127.44401360797,36.3291560631618],"sales":{"202602":5142}},{"id":"MA010120220805816849","name":"대일","industry":"상용 인력 공급 및 인사관리 서비스업","coordinates":[127.442688194507,36.3291429560349],"sales":{"202602":3279}},{"id":"MA010120220805818073","name":"글로벌씨드","industry":"컴퓨터 학원","coordinates":[127.445889724617,36.3319967941411],"sales":{"202602":362}},{"id":"MA010120220805818898","name":"제이에스씨엠주","industry":"포장/충전업","coordinates":[127.444865948124,36.3321538089821],"sales":{"202602":1450}},{"id":"MA010120220805819004","name":"승보이엔지","industry":"임시/일용 인력 공급업","coordinates":[127.447379545378,36.3256920071668],"sales":{}},{"id":"MA010120220805824325","name":"똘똘이식당","industry":"백반/한정식","coordinates":[127.447581601277,36.3259706153929],"sales":{"202602":1680}},{"id":"MA010120220805825244","name":"투앤투","industry":"요리 주점","coordinates":[127.448686624486,36.3322296444144],"sales":{"202602":463}},{"id":"MA010120220805825417","name":"황금돼지","industry":"돼지고기 구이/찜","coordinates":[127.446110482019,36.333600062513],"sales":{"202602":636}},{"id":"MA010120220805825683","name":"아모레카운셀러","industry":"화장품 소매업","coordinates":[127.442986752865,36.328763355922],"sales":{"202602":921}},{"id":"MA010120220805825688","name":"안경매니아","industry":"안경렌즈 소매업","coordinates":[127.445421381056,36.3338549617327],"sales":{"202602":635}},{"id":"MA010120220805825921","name":"기차길","industry":"백반/한정식","coordinates":[127.443925431588,36.32931860237],"sales":{"202602":2071}},{"id":"MA010120220805826270","name":"한국회관","industry":"횟집","coordinates":[127.447676979671,36.3309627730146],"sales":{"202602":1151}},{"id":"MA010120220805826383","name":"동보유통","industry":"슈퍼마켓","coordinates":[127.443425993686,36.3315914193679],"sales":{"202602":13721}},{"id":"MA010120220805828341","name":"용운식당","industry":"백반/한정식","coordinates":[127.447972156379,36.3261043287302],"sales":{"202602":913}},{"id":"MA010120220805828589","name":"태평양약국","industry":"약국","coordinates":[127.443049529744,36.3300157578648],"sales":{"202602":4727}},{"id":"MA010120220805829929","name":"정통짜장식당","industry":"중국집","coordinates":[127.444393362377,36.3313084620168],"sales":{"202602":1409}},{"id":"MA010120220805842442","name":"서울이용원","industry":"미용실","coordinates":[127.441060187494,36.3307710914916],"sales":{"202602":195}},{"id":"MA010120220805843345","name":"아모레카운셀러","industry":"화장품 소매업","coordinates":[127.442986752865,36.328763355922],"sales":{"202602":326}},{"id":"MA010120220805846369","name":"보은철물","industry":"철물/공구 소매업","coordinates":[127.449076802675,36.3264696658105],"sales":{"202602":1028}},{"id":"MA010120220805846512","name":"홍명카센타","industry":"자동차 정비소","coordinates":[127.448608132298,36.3263092140235],"sales":{"202602":1053}},{"id":"MA010120220805846518","name":"용운오토바이센타","industry":"모터사이클 수리업","coordinates":[127.448777869249,36.326777188474],"sales":{"202602":594}},{"id":"MA010120220805847164","name":"칸나미장원","industry":"미용실","coordinates":[127.441918268797,36.3308580394788],"sales":{"202602":790}},{"id":"MA010120220805847176","name":"금산슈퍼마켓","industry":"담배/전자담배 소매업","coordinates":[127.446494315223,36.3305977149294],"sales":{"202602":1624}},{"id":"MA010120220805847189","name":"제일세탁소","industry":"세탁소","coordinates":[127.446721666273,36.3333544623308],"sales":{"202602":115}},{"id":"MA010120220805847191","name":"반도종합장식","industry":"벽지/장판/마루 소매업","coordinates":[127.449659741483,36.327134344554],"sales":{"202602":412}},{"id":"MA010120220805847205","name":"대동","industry":"카페","coordinates":[127.443589786302,36.3290494957324],"sales":{"202602":1264}},{"id":"MA010120220805847218","name":"빛나라문구점","industry":"문구/회화용품 소매업","coordinates":[127.443929887151,36.3320671718974],"sales":{"202602":573}},{"id":"MA010120220805847219","name":"다락방식당","industry":"치킨","coordinates":[127.441516514055,36.3287417606908],"sales":{"202602":373}},{"id":"MA010120220805847221","name":"대동세탁소","industry":"세탁소","coordinates":[127.445163738168,36.3316390301435],"sales":{"202602":159}},{"id":"MA010120220805847230","name":"고려이용원","industry":"미용실","coordinates":[127.448055264958,36.3250586526221],"sales":{"202602":403}},{"id":"MA010120220805847231","name":"은혜미용실","industry":"미용실","coordinates":[127.445165237325,36.3299448142391],"sales":{"202602":195}},{"id":"MA010120220805847234","name":"동네이용원","industry":"미용실","coordinates":[127.446855648218,36.3314614931366],"sales":{"202602":272}},{"id":"MA010120220805847296","name":"노동이용원","industry":"미용실","coordinates":[127.445670618988,36.330681894976],"sales":{"202602":77}},{"id":"MA010120220805847302","name":"광화당한약방","industry":"건강보조식품 소매업","coordinates":[127.444078958723,36.3308590427499],"sales":{"202602":790}},{"id":"MA010120220805847308","name":"아리따움","industry":"화장품 소매업","coordinates":[127.441717387248,36.3288131125942],"sales":{"202602":483}},{"id":"MA010120220805847312","name":"일심상회","industry":"슈퍼마켓","coordinates":[127.445557244989,36.330330859136],"sales":{"202602":3015}},{"id":"MA010120220805847318","name":"가나카센타","industry":"자동차 정비소","coordinates":[127.445259555219,36.3328192131082],"sales":{"202602":1279}},{"id":"MA010120220805847333","name":"불어나라슈퍼","industry":"슈퍼마켓","coordinates":[127.445658044654,36.330429612661],"sales":{"202602":5205}},{"id":"MA010120220805847351","name":"체스월드타운","industry":"여성 의류 소매업","coordinates":[127.44361098723,36.3308247335462],"sales":{"202602":161}},{"id":"MA010120220805847352","name":"대영지업사","industry":"벽지/장판/마루 소매업","coordinates":[127.443489961366,36.3291219602549],"sales":{"202602":222}},{"id":"MA010120220805847679","name":"삼성이동통신","industry":"핸드폰 소매업","coordinates":[127.441060187494,36.3307710914916],"sales":{"202602":70}},{"id":"MA010120220805847680","name":"꼬꾸마시우송점","industry":"요리 주점","coordinates":[127.445786975288,36.3335111520688],"sales":{"202602":686}},{"id":"MA010120220805847827","name":"동아주유소","industry":"주유소","coordinates":[127.44515808644,36.332603308982],"sales":{"202602":10063}},{"id":"MA010120220805847828","name":"동일자전차","industry":"자전거 소매업","coordinates":[127.444314940217,36.3312276477658],"sales":{"202602":221}},{"id":"MA010120220805848980","name":"강진슈퍼","industry":"슈퍼마켓","coordinates":[127.448452840267,36.3322485453415],"sales":{"202602":12802}},{"id":"MA010120220805856018","name":"수안경원","industry":"안경렌즈 소매업","coordinates":[127.443494557827,36.329933001558],"sales":{"202602":1619}},{"id":"MA010120220805859335","name":"쿵쿵따노래방","industry":"노래방","coordinates":[127.444438372537,36.3313894004625],"sales":{"202602":326}},{"id":"MA010120220805862596","name":"성남인력개발","industry":"고용 알선업","coordinates":[127.443489961366,36.3291219602549],"sales":{}},{"id":"MA010120220805899035","name":"믿음포목","industry":"실/섬유제품 소매업","coordinates":[127.447734367864,36.3312599459825],"sales":{"202602":737}},{"id":"MA010120220805912830","name":"끼헤어","industry":"미용실","coordinates":[127.447896675464,36.3265371762102],"sales":{"202602":81}},{"id":"MA010120220805992788","name":"위닝텍","industry":"가전제품 수리업","coordinates":[127.445562180412,36.3253293132009],"sales":{"202602":133}},{"id":"MA010120220806146681","name":"뉴싱싱마트","industry":"슈퍼마켓","coordinates":[127.447734367864,36.3312599459825],"sales":{"202602":9764}},{"id":"MA010120220806171441","name":"이선봉생면국수&국밥","industry":"백반/한정식","coordinates":[127.443534354131,36.3310593236432],"sales":{"202602":511}},{"id":"MA010120220806174279","name":"월드노래방","industry":"노래방","coordinates":[127.443831382192,36.3304093744736],"sales":{"202602":472}},{"id":"MA010120220806174376","name":"하나로공인중개사사무소","industry":"부동산 중개/대리업","coordinates":[127.443779477859,36.3310764372667],"sales":{"202602":44}},{"id":"MA010120220806175948","name":"형제철물","industry":"철물/공구 소매업","coordinates":[127.446611139893,36.331552524595],"sales":{"202602":472}},{"id":"MA010120220806177159","name":"베스킨라빈스대동역점","industry":"아이스크림/빙수","coordinates":[127.442986752865,36.328763355922],"sales":{"202602":1072}},{"id":"MA010120220806182085","name":"정관장홍삼","industry":"건강보조식품 소매업","coordinates":[127.443408728424,36.3305100725481],"sales":{"202602":1412}},{"id":"MA010120220806183135","name":"성은애드","industry":"철물/공구 소매업","coordinates":[127.444230548065,36.3320570430222],"sales":{"202602":484}},{"id":"MA010120220806191377","name":"다인헤어","industry":"미용실","coordinates":[127.44128223021,36.3286705318046],"sales":{"202602":199}},{"id":"MA010120220806195040","name":"터사랑공인중개사사무소","industry":"부동산 중개/대리업","coordinates":[127.446809789824,36.3331829096176],"sales":{"202602":89}},{"id":"MA010120220806203548","name":"피자스쿨","industry":"피자","coordinates":[127.445675085108,36.3334214518258],"sales":{"202602":951}},{"id":"MA010120220806208574","name":"헤어아이","industry":"미용실","coordinates":[127.445675085108,36.3334214518258],"sales":{"202602":243}},{"id":"MA010120220806209262","name":"준싸롱","industry":"기타 의류 소매업","coordinates":[127.442253084825,36.3290093903847],"sales":{"202602":1563}},{"id":"MA010120220806215211","name":"JS엔지니어링","industry":"건물 및 토목 엔지니어링 서비스업","coordinates":[127.442986752865,36.328763355922],"sales":{}},{"id":"MA010120220806222474","name":"JK스포츠","industry":"운동용품 소매업","coordinates":[127.441798653347,36.3293985766872],"sales":{"202602":1367}},{"id":"MA010120220806235740","name":"혜성통신","industry":"핸드폰 소매업","coordinates":[127.441884697044,36.328857552965],"sales":{"202602":204}},{"id":"MA010120220806249878","name":"한국창업보육협회","industry":"교육컨설팅업","coordinates":[127.443527767808,36.3279322675129],"sales":{"202602":1332}},{"id":"MA010120220806375571","name":"별빛이흐르는카페","industry":"카페","coordinates":[127.451488958101,36.3314711158231],"sales":{"202602":737}},{"id":"MA010120220806380688","name":"구름식당","industry":"피자","coordinates":[127.443090238214,36.3313042883497],"sales":{"202602":254}},{"id":"MA010120220806388858","name":"써니공인중개사사무소","industry":"부동산 중개/대리업","coordinates":[127.443967679296,36.3289129162494],"sales":{"202602":40}},{"id":"MA010120220806490288","name":"대한에어텍","industry":"가전제품 수리업","coordinates":[127.448345897525,36.3252468098765],"sales":{"202602":296}},{"id":"MA010120220806502696","name":"씨스페이스대전","industry":"김밥/만두/분식","coordinates":[127.445585470509,36.3333316684304],"sales":{"202602":822}},{"id":"MA010120220806531691","name":"전원비래공인중개사사무소","industry":"부동산 중개/대리업","coordinates":[127.444734034948,36.3285405850086],"sales":{"202602":103}},{"id":"MA010120220806575039","name":"이레농산","industry":"채소/과일 소매업","coordinates":[127.447533637608,36.33121563899],"sales":{"202602":1858}},{"id":"MA010120220806684283","name":"어썸뷰티","industry":"피부 관리실","coordinates":[127.442986752865,36.328763355922],"sales":{"202602":166}},{"id":"MA010120220806719108","name":"에덴건강찻집","industry":"카페","coordinates":[127.448209712855,36.3306363532113],"sales":{"202602":641}},{"id":"MA010120220806731624","name":"어뉴애플헤어","industry":"미용실","coordinates":[127.444395678091,36.32779386733],"sales":{"202602":812}},{"id":"MA010120220806762592","name":"메가엠지씨커피대전","industry":"카페","coordinates":[127.440232512733,36.3281697440588],"sales":{"202602":994}},{"id":"MA010120220806778866","name":"이지","industry":"애완동물/애완용품 소매업","coordinates":[127.444758022387,36.3268823315805],"sales":{"202602":872}},{"id":"MA010120220806826157","name":"대동이룸학원","industry":"입시·교과학원","coordinates":[127.442986752865,36.328763355922],"sales":{"202602":1651}},{"id":"MA010120220806917884","name":"주관적:무국적주방","industry":"요리 주점","coordinates":[127.445765521371,36.3336554201293],"sales":{"202602":346}},{"id":"MA010120220806929115","name":"영완이네","industry":"백반/한정식","coordinates":[127.44504583949,36.332450527177],"sales":{"202602":813}},{"id":"MA010120220806969265","name":"에셀스킨","industry":"피부 관리실","coordinates":[127.440232512733,36.3281697440588],"sales":{"202602":222}},{"id":"MA010120220807055558","name":"월드중고","industry":"중고 상품 소매업","coordinates":[127.447201937474,36.3316404330503],"sales":{"202602":426}},{"id":"MA010120220807090908","name":"새돌생선.잡화","industry":"슈퍼마켓","coordinates":[127.443571395994,36.3277698938948],"sales":{"202602":13531}},{"id":"MA010120220807106194","name":"대덕구시니어클럽몰랐지카페","industry":"카페","coordinates":[127.443705042322,36.3316985248319],"sales":{"202602":374}},{"id":"MA010120220807108813","name":"빵빠레노래연습장","industry":"노래방","coordinates":[127.44951139198,36.3265130910224],"sales":{"202602":473}},{"id":"MA010120220807139818","name":"부자렌탈","industry":"스포츠/레크리에이션 용품 대여업","coordinates":[127.447248238438,36.3319466594609],"sales":{}},{"id":"MA010120220807404539","name":"파다주짓수대동지부","industry":"태권도/무술학원","coordinates":[127.445088383472,36.3262232431173],"sales":{"202602":387}},{"id":"MA010120220807406039","name":"파리바게뜨대전","industry":"빵/도넛","coordinates":[127.442986752865,36.328763355922],"sales":{"202602":1534}},{"id":"MA010120220807978575","name":"감성도야지","industry":"돼지고기 구이/찜","coordinates":[127.444758022387,36.3268823315805],"sales":{"202602":1233}},{"id":"MA010120220808090170","name":"뉴스타공인중개사사무소","industry":"부동산 중개/대리업","coordinates":[127.445517977479,36.3332147672472],"sales":{"202602":153}},{"id":"MA010120220808093449","name":"비에치씨대전","industry":"치킨","coordinates":[127.44344939629,36.3298250280158],"sales":{"202602":935}},{"id":"MA010120220808148234","name":"제이케이레인즈","industry":"볼링장","coordinates":[127.441798653347,36.3293985766872],"sales":{"202602":2613}},{"id":"MA010120220808152762","name":"정석학원","industry":"입시·교과학원","coordinates":[127.442986752865,36.328763355922],"sales":{"202602":1362}},{"id":"MA010120220808196331","name":"메디세라의료기","industry":"의료기기 소매업","coordinates":[127.444798252291,36.3320008610964],"sales":{"202602":1511}},{"id":"MA010120220808272519","name":"최내과의원","industry":"내과/소아과 의원","coordinates":[127.442876810697,36.3290160926465],"sales":{"202602":1852}},{"id":"MA010120220808273171","name":"대전세신교육사우나컨설팅","industry":"기타 기술/직업 훈련학원","coordinates":[127.441663431366,36.3291197118597],"sales":{"202602":1135}},{"id":"MA010120220808278013","name":"뉴다모아공인중개사사무소","industry":"부동산 중개/대리업","coordinates":[127.447634136874,36.3273672418143],"sales":{"202602":105}},{"id":"MA010120220808294843","name":"강남유통","industry":"중고 상품 소매업","coordinates":[127.446635423981,36.3280018011953],"sales":{"202602":471}},{"id":"MA010120220808337777","name":"피자파는집","industry":"피자","coordinates":[127.44469151087,36.3308567652499],"sales":{"202602":1022}},{"id":"MA010120220808403502","name":"대동별카페","industry":"카페","coordinates":[127.447734367864,36.3312599459825],"sales":{"202602":203}},{"id":"MA010120220808569852","name":"코오롱침장","industry":"침구류/커튼 소매업","coordinates":[127.44401360797,36.3291560631618],"sales":{"202602":380}},{"id":"MA010120220808585455","name":"도미노피자대전","industry":"피자","coordinates":[127.443690072524,36.3310226986514],"sales":{"202602":343}},{"id":"MA010120220808619777","name":"삼천리자전거","industry":"자전거 소매업","coordinates":[127.449113470678,36.3270372690214],"sales":{"202602":383}},{"id":"MA010120220808737905","name":"씨유대전우송","industry":"편의점","coordinates":[127.444963247603,36.333595327417],"sales":{"202602":4642}},{"id":"MA010120220808776936","name":"짱구키친","industry":"그 외 기타 간이 음식점","coordinates":[127.449158915708,36.3310743659093],"sales":{"202602":764}},{"id":"MA010120220808915039","name":"짜장짬뽕","industry":"중국집","coordinates":[127.442559951878,36.3300986774812],"sales":{"202602":1514}},{"id":"MA010120220808982975","name":"처갓집양념치킨자양","industry":"치킨","coordinates":[127.446721666273,36.3333544623308],"sales":{"202602":1254}},{"id":"MA010120220809131823","name":"족발맛터","industry":"족발/보쌈","coordinates":[127.44614681689,36.3243448499844],"sales":{"202602":1369}},{"id":"MA010120220809134799","name":"한아름공인중개사사무소","industry":"부동산 중개/대리업","coordinates":[127.447715343715,36.3259881380331],"sales":{"202602":70}},{"id":"MA010120220809344731","name":"대전동구지역자활센터달콤한공방카페","industry":"카페","coordinates":[127.445732003317,36.331681971012],"sales":{"202602":1604}},{"id":"MA010120220809365046","name":"명월본가수라상","industry":"백반/한정식","coordinates":[127.443033734972,36.3311603096927],"sales":{"202602":1929}},{"id":"MA010120220809395011","name":"펜타뷰114공인중개사사무소","industry":"부동산 중개/대리업","coordinates":[127.445683655163,36.3271041777708],"sales":{"202602":37}},{"id":"MA010120220809402994","name":"썸노래연습장","industry":"노래방","coordinates":[127.446377272683,36.3335089488691],"sales":{"202602":776}},{"id":"MA010120220809409124","name":"제이엠로지스","industry":"임시/일용 인력 공급업","coordinates":[127.440232512733,36.3281697440588],"sales":{}},{"id":"MA010120220809460376","name":"다정한작업실","industry":"시각 디자인업","coordinates":[127.442186531919,36.3310282706991],"sales":{"202602":323}},{"id":"MA010120220809602706","name":"민정약국","industry":"약국","coordinates":[127.44256553384,36.329116374999],"sales":{"202602":6183}},{"id":"MA010120220809625936","name":"앤썸하우스","industry":"여성 의류 소매업","coordinates":[127.443652011099,36.3302027699743],"sales":{"202602":239}},{"id":"MA010120220809636064","name":"화미장","industry":"미용실","coordinates":[127.441663431366,36.3291197118597],"sales":{"202602":338}},{"id":"MA010120220809697869","name":"하늘마을마을관리사회적협동조합","industry":"기타 기술/직업 훈련학원","coordinates":[127.448622980285,36.3308420731108],"sales":{"202602":447}},{"id":"MA010120220809715758","name":"뽀송하개21","industry":"애완동물/애완용품 소매업","coordinates":[127.446572350524,36.3325619860489],"sales":{"202602":565}},{"id":"MA010120220809727571","name":"대동골순대","industry":"국/탕/찌개류","coordinates":[127.445084751035,36.3314590891942],"sales":{"202602":1691}},{"id":"MA010120220809743938","name":"대전박영갤러리","industry":"기타 오락장","coordinates":[127.441884697044,36.328857552965],"sales":{"202602":691}},{"id":"MA010120220809770096","name":"모아이엔지","industry":"건물 및 토목 엔지니어링 서비스업","coordinates":[127.444049320278,36.3295614596712],"sales":{}},{"id":"MA010120220809877157","name":"네이루","industry":"네일숍","coordinates":[127.443915470261,36.3295259098368],"sales":{"202602":51}},{"id":"MA010120220809881211","name":"파이브퍼센트(FIVEPERCENT)","industry":"카페","coordinates":[127.451277711525,36.331534995899],"sales":{"202602":946}},{"id":"MA010120220809945308","name":"나나데코","industry":"침구류/커튼 소매업","coordinates":[127.446369338958,36.3243079721423],"sales":{"202602":164}},{"id":"MA010120220809966705","name":"세컨픽커피","industry":"카페","coordinates":[127.440297965411,36.3279261853667],"sales":{"202602":1435}},{"id":"MA010120220809968567","name":"감동플러스치과의원","industry":"치과의원","coordinates":[127.440232512733,36.3281697440588],"sales":{"202602":4307}},{"id":"MA010120220810089319","name":"브니엘패션옷수선","industry":"의류/이불 수선업","coordinates":[127.444426632275,36.327361187656],"sales":{"202602":112}},{"id":"MA010120220810092018","name":"박가네지지미","industry":"백반/한정식","coordinates":[127.443589786302,36.3290494957324],"sales":{"202602":847}},{"id":"MA010120220810236142","name":"구모카페","industry":"카페","coordinates":[127.443090238214,36.3313042883497],"sales":{"202602":1147}},{"id":"MA010120220810279690","name":"크크키친","industry":"김밥/만두/분식","coordinates":[127.444049320278,36.3295614596712],"sales":{"202602":577}},{"id":"MA010120220810327224","name":"더좋은사람","industry":"임시/일용 인력 공급업","coordinates":[127.442986752865,36.328763355922],"sales":{}},{"id":"MA010120220810369205","name":"재미지향적관점","industry":"제품 디자인업","coordinates":[127.443763080419,36.3321128501275],"sales":{}},{"id":"MA010120220810374280","name":"정통집","industry":"돼지고기 구이/찜","coordinates":[127.445210225553,36.3339368542602],"sales":{"202602":752}},{"id":"MA010120220810382673","name":"에스와이","industry":"액세서리/잡화 소매업","coordinates":[127.440270824665,36.3270611560212],"sales":{"202602":132}},{"id":"MA010120220810740277","name":"지지고","industry":"백반/한정식","coordinates":[127.445675085108,36.3334214518258],"sales":{"202602":883}},{"id":"MA010120220810827738","name":"새로운신경과","industry":"신경/정신과 의원","coordinates":[127.443370261789,36.3296180511291],"sales":{"202602":2540}},{"id":"MA010120220811082686","name":"초코모바일","industry":"핸드폰 소매업","coordinates":[127.44361098723,36.3308247335462],"sales":{"202602":186}},{"id":"MA010120220811451928","name":"라인","industry":"기타 의류 소매업","coordinates":[127.443903113326,36.3312742367974],"sales":{"202602":911}},{"id":"MA010120220811478472","name":"선우통신","industry":"핸드폰 소매업","coordinates":[127.449378113957,36.3265766745084],"sales":{"202602":392}},{"id":"MA010120220811530115","name":"펜타뷰","industry":"세탁소","coordinates":[127.445706236648,36.3271581641416],"sales":{"202602":229}},{"id":"MA010120220811653294","name":"용대리황태건어물","industry":"건어물/젓갈 소매업","coordinates":[127.449871702796,36.327196629286],"sales":{"202602":3323}},{"id":"MA010120220811680312","name":"또봉이통닭","industry":"치킨","coordinates":[127.44312291052,36.3272398634358],"sales":{"202602":164}},{"id":"MA010120220811689079","name":"지망","industry":"기타 기술/직업 훈련학원","coordinates":[127.450908567577,36.3312570247498],"sales":{"202602":587}},{"id":"MA010120220811704355","name":"전떡연대동지부","industry":"김밥/만두/분식","coordinates":[127.443925431588,36.32931860237],"sales":{"202602":573}},{"id":"MA010120220811710548","name":"미스아메리카노","industry":"카페","coordinates":[127.447715343715,36.3259881380331],"sales":{"202602":1006}},{"id":"MA010120220811787470","name":"오픈박스대전","industry":"슈퍼마켓","coordinates":[127.441798653347,36.3293985766872],"sales":{"202602":10077}},{"id":"MA010120220811805535","name":"고담꽃대패","industry":"돼지고기 구이/찜","coordinates":[127.444881799444,36.3329828313908],"sales":{"202602":859}},{"id":"MA010120220811831659","name":"최강푸드","industry":"백반/한정식","coordinates":[127.446219429215,36.3312205526971],"sales":{"202602":144}},{"id":"MA010120220811863608","name":"법무사사무소위로","industry":"법무사","coordinates":[127.445562180412,36.3253293132009],"sales":{}},{"id":"MA010120220811880244","name":"세탁인","industry":"세탁소","coordinates":[127.447807014738,36.3264383827706],"sales":{"202602":330}},{"id":"MA010120220811894715","name":"스타일피트니스","industry":"헬스장","coordinates":[127.442986752865,36.328763355922],"sales":{"202602":247}},{"id":"MA010120220811908749","name":"스와로네일","industry":"네일숍","coordinates":[127.442986752865,36.328763355922],"sales":{"202602":85}},{"id":"MA010120220812037637","name":"도구와사람들","industry":"건축물 일반 청소업","coordinates":[127.440270824665,36.3270611560212],"sales":{"202602":358}},{"id":"MA010120220812038109","name":"환상성인휴게소","industry":"기타 오락장","coordinates":[127.442559951878,36.3300986774812],"sales":{"202602":1158}},{"id":"MA010120220812064017","name":"동아인력개발","industry":"고용 알선업","coordinates":[127.443652011099,36.3302027699743],"sales":{}},{"id":"MA010120220812064806","name":"대동설비","industry":"그 외 기타 개인/가정용품 수리업","coordinates":[127.447573201211,36.3245017292371],"sales":{"202602":1044}},{"id":"MA010120220812106944","name":"좋은하루","industry":"광고물 설계/제작업","coordinates":[127.449901438444,36.3304317385727],"sales":{"202602":1349}},{"id":"MA010120220812107790","name":"새들뫼으뜸공인중개사사무소","industry":"부동산 중개/대리업","coordinates":[127.441226341947,36.3286346910843],"sales":{"202602":66}},{"id":"MA010120220812112301","name":"비알뷰티","industry":"피부 관리실","coordinates":[127.444420550653,36.3321734894877],"sales":{"202602":207}},{"id":"MA010120220812150549","name":"진DoL","industry":"여행사","coordinates":[127.449039145847,36.3315524389496],"sales":{"202602":988}},{"id":"MA010120220812159045","name":"상호종합서비스","industry":"컴퓨터/노트북/프린터 수리업","coordinates":[127.445377349606,36.3319896927973],"sales":{"202602":927}},{"id":"MA010120220812183609","name":"샤브쌈주머니","industry":"국수/칼국수","coordinates":[127.440297965411,36.3279261853667],"sales":{"202602":3178}},{"id":"MA010120220812211717","name":"킴스카펫트","industry":"전시/컨벤션/행사 대행 서비스업","coordinates":[127.442799769174,36.3291785897758],"sales":{"202602":207}},{"id":"MA010120220812218347","name":"춘향이단란주점","industry":"일반 유흥 주점","coordinates":[127.440982800597,36.3288969309631],"sales":{"202602":560}},{"id":"MA010120220812239995","name":"퍼센트스터디카페(%스터디카페)","industry":"독서실/스터디 카페","coordinates":[127.442986752865,36.328763355922],"sales":{"202602":286}},{"id":"MA010120220812260778","name":"신앤진부동산공인중개사사무소","industry":"부동산 중개/대리업","coordinates":[127.446411263174,36.3238482154745],"sales":{"202602":70}},{"id":"MA010120220812262265","name":"대성집","industry":"요리 주점","coordinates":[127.444734034948,36.3285405850086],"sales":{"202602":329}},{"id":"MA010120220812264009","name":"위니아서비스동","industry":"가전제품 수리업","coordinates":[127.445265103124,36.3318369111795],"sales":{"202602":257}},{"id":"MA010120220812281654","name":"대동손칼국수","industry":"국수/칼국수","coordinates":[127.44436430021,36.3320745693276],"sales":{"202602":563}},{"id":"MA010120220812329621","name":"수할인마트","industry":"슈퍼마켓","coordinates":[127.444235955455,36.3310477062269],"sales":{"202602":5485}},{"id":"MA010120220812363805","name":"신선칼국수","industry":"국수/칼국수","coordinates":[127.442271861543,36.3303610848688],"sales":{"202602":696}},{"id":"MA010120220812369603","name":"수할인마트정육","industry":"정육점","coordinates":[127.444235955455,36.3310477062269],"sales":{"202602":7684}},{"id":"MA010120220812491195","name":"문PC방","industry":"PC방","coordinates":[127.442986752865,36.328763355922],"sales":{"202602":1279}},{"id":"MA010120220812500216","name":"탄탄컴퍼니","industry":"핸드폰 소매업","coordinates":[127.442444809376,36.3294322335617],"sales":{"202602":110}},{"id":"MA010120220812635202","name":"클린앤클린","industry":"세탁소","coordinates":[127.444242560592,36.3263255191612],"sales":{"202602":97}},{"id":"MA010120220812690793","name":"옥란김밥","industry":"김밥/만두/분식","coordinates":[127.449489636176,36.3266032904567],"sales":{"202602":369}},{"id":"MA010120220812710142","name":"폰장사꾼","industry":"핸드폰 소매업","coordinates":[127.446256433785,36.3240380407238],"sales":{"202602":234}},{"id":"MA010120220812714206","name":"다봄한의원","industry":"한의원","coordinates":[127.440365344611,36.3280250665336],"sales":{"202602":1393}},{"id":"MA010120220812744549","name":"실전감자탕","industry":"국/탕/찌개류","coordinates":[127.446110482019,36.333600062513],"sales":{"202602":1197}},{"id":"MA010120220812793191","name":"프렌즈숲","industry":"카페","coordinates":[127.441003129714,36.3305279845476],"sales":{"202602":863}},{"id":"MA010120220812807584","name":"덕당국선도","industry":"태권도/무술학원","coordinates":[127.441939118361,36.3306056331554],"sales":{"202602":359}},{"id":"MA010120220812821766","name":"하늘공원카페","industry":"카페","coordinates":[127.451591274928,36.3318311994103],"sales":{"202602":582}},{"id":"MA010120220812826942","name":"낭만커피","industry":"카페","coordinates":[127.441181743143,36.3286258439521],"sales":{"202602":570}},{"id":"MA010120220812864921","name":"그래여기야","industry":"기념품점","coordinates":[127.441273778209,36.3311217616731],"sales":{"202602":679}},{"id":"MA010120220812898345","name":"톤블랙로스터스","industry":"카페","coordinates":[127.444798252291,36.3320008610964],"sales":{"202602":985}},{"id":"MA010120220812923893","name":"후라이드참잘하는집대동","industry":"치킨","coordinates":[127.443763080419,36.3321128501275],"sales":{"202602":1085}},{"id":"MA010120220812949481","name":"유니끄디자인","industry":"광고물 설계/제작업","coordinates":[127.450657494594,36.3321411235518],"sales":{"202602":469}},{"id":"MA010120220813019687","name":"제이케이골프죤파크GDR","industry":"골프 연습장","coordinates":[127.441798653347,36.3293985766872],"sales":{"202602":708}},{"id":"MA010120220813031297","name":"온담한의원","industry":"한의원","coordinates":[127.440232512733,36.3281697440588],"sales":{"202602":329}},{"id":"MA010120220813038394","name":"강산공인중개사사무소","industry":"부동산 중개/대리업","coordinates":[127.44133801688,36.3286883493503],"sales":{"202602":40}},{"id":"MA010120220813106099","name":"더드림약국","industry":"약국","coordinates":[127.440297965411,36.3279261853667],"sales":{"202602":5012}},{"id":"MA010120220813191377","name":"아인스푸드","industry":"백반/한정식","coordinates":[127.446377272683,36.3335089488691],"sales":{"202602":644}},{"id":"MA010120220813210438","name":"크린시티","industry":"건축물 일반 청소업","coordinates":[127.448599436095,36.3325634065701],"sales":{"202602":288}},{"id":"MA010120220813214453","name":"피자프라텔로","industry":"피자","coordinates":[127.445377349606,36.3319896927973],"sales":{"202602":762}},{"id":"MA010120220813220774","name":"알파정보시스템","industry":"명함/간판/광고물 제작","coordinates":[127.443571395994,36.3277698938948],"sales":{"202602":738}},{"id":"MA010120220813249579","name":"상을이네식당","industry":"백반/한정식","coordinates":[127.447245275508,36.3275309092069],"sales":{"202602":427}},{"id":"MA010120220813280895","name":"행정에이전트이천호행정사사무소","industry":"행정사","coordinates":[127.444663936857,36.3318842080616],"sales":{"202602":990}},{"id":"MA010120220813296244","name":"심스푸드","industry":"치킨","coordinates":[127.447734367864,36.3312599459825],"sales":{"202602":683}},{"id":"MA010120220813298252","name":"우리기술","industry":"건물 및 토목 엔지니어링 서비스업","coordinates":[127.447091229996,36.3259093682849],"sales":{}},{"id":"MA010120220813333356","name":"큰길합동공인중개사사무소","industry":"부동산 중개/대리업","coordinates":[127.442986752865,36.328763355922],"sales":{"202602":59}},{"id":"MA010120220813379492","name":"물고기","industry":"일식 회/초밥","coordinates":[127.444533461546,36.332443422236],"sales":{"202602":2119}},{"id":"MA010120220813390545","name":"자갈치꼼장어닭숯불구이","industry":"횟집","coordinates":[127.442320009008,36.3290271662588],"sales":{"202602":1705}},{"id":"MA010120220813423860","name":"중고일번지","industry":"중고 상품 소매업","coordinates":[127.448182565419,36.3258962694076],"sales":{"202602":173}},{"id":"MA010120220813515639","name":"쵸콜렛식당","industry":"요리 주점","coordinates":[127.445675085108,36.3334214518258],"sales":{"202602":834}},{"id":"MA010120220813545887","name":"아이비엔대동사잇길","industry":"카페","coordinates":[127.442698237708,36.3309182353739],"sales":{"202602":922}},{"id":"MA010120220813600358","name":"새들뫼사랑공인중개사사무소","industry":"부동산 중개/대리업","coordinates":[127.44312291052,36.3272398634358],"sales":{"202602":128}},{"id":"MA010120220813630994","name":"66-31번지헤어살롱","industry":"미용실","coordinates":[127.443367294003,36.3310599434764],"sales":{"202602":89}},{"id":"MA010120220813697461","name":"사계절김밥","industry":"김밥/만두/분식","coordinates":[127.443681743955,36.3295538129617],"sales":{"202602":536}},{"id":"MA010120220813700742","name":"빛드시스템","industry":"컴퓨터/소프트웨어 소매업","coordinates":[127.444899872999,36.3322438002548],"sales":{"202602":952}},{"id":"MA010120220813730738","name":"방진환경","industry":"건축물 일반 청소업","coordinates":[127.445874382124,36.3332134381735],"sales":{"202602":374}},{"id":"MA010120220813784004","name":"싱잉플라워","industry":"전시/컨벤션/행사 대행 서비스업","coordinates":[127.445955119218,36.3336997715955],"sales":{"202602":65}},{"id":"MA010120220813883954","name":"인애드","industry":"광고 대행업","coordinates":[127.446618958239,36.3329222820362],"sales":{"202602":1193}},{"id":"MA010120220813897077","name":"반석공조","industry":"가전제품 수리업","coordinates":[127.447251095179,36.3285492163544],"sales":{"202602":306}},{"id":"MA010120220813931209","name":"광혜헌","industry":"슈퍼마켓","coordinates":[127.448228660135,36.3261664494523],"sales":{"202602":19176}},{"id":"MA010120220813955056","name":"대동새들뫼공인중개사사무소","industry":"부동산 중개/대리업","coordinates":[127.44312291052,36.3272398634358],"sales":{"202602":92}},{"id":"MA010120220813976333","name":"외계인방앗간","industry":"빵/도넛","coordinates":[127.448083729052,36.32613995757],"sales":{"202602":964}},{"id":"MA010120220814037954","name":"씨앗나무교육원","industry":"그 외 기타 교육기관","coordinates":[127.444734034948,36.3285405850086],"sales":{"202602":1532}},{"id":"MA010120220814063001","name":"피크닉","industry":"치킨","coordinates":[127.443831382192,36.3304093744736],"sales":{"202602":793}},{"id":"MA010120220814093838","name":"어글리딜리셔스","industry":"파스타/스테이크","coordinates":[127.447088282285,36.333190879921],"sales":{"202602":302}},{"id":"MA010120220814166937","name":"헤이나","industry":"침구류/커튼 소매업","coordinates":[127.440232512733,36.3281697440588],"sales":{"202602":579}},{"id":"MA010120220814248997","name":"더라운지","industry":"카페","coordinates":[127.441798653347,36.3293985766872],"sales":{"202602":1242}},{"id":"MA010120220814279251","name":"태양공인중개사사무소","industry":"부동산 중개/대리업","coordinates":[127.443652011099,36.3302027699743],"sales":{"202602":52}},{"id":"MA010120220814321807","name":"헤어sy","industry":"미용실","coordinates":[127.44289580221,36.3304038332349],"sales":{"202602":401}},{"id":"MA010120220814365995","name":"정성협동조합","industry":"기타 교육지원 서비스업","coordinates":[127.444798252291,36.3320008610964],"sales":{"202602":40}},{"id":"MA0101202209A0010999","name":"히로스카츠","industry":"경양식","coordinates":[127.444982652964,36.3330905969868],"sales":{"202602":4361}},{"id":"MA0101202209A0019216","name":"대우plus공인중개사사무소","industry":"부동산 중개/대리업","coordinates":[127.444230548065,36.3320570430222],"sales":{"202602":49}},{"id":"MA0101202209A0051159","name":"조은세상식당","industry":"요리 주점","coordinates":[127.443681743955,36.3295538129617],"sales":{"202602":1021}},{"id":"MA0101202209A0078647","name":"네일체크인","industry":"네일숍","coordinates":[127.443041606883,36.3305835280215],"sales":{"202602":90}},{"id":"MA0101202210A0009204","name":"빅탑스엔지니어링","industry":"기타 엔지니어링 서비스업","coordinates":[127.442986752865,36.328763355922],"sales":{"202602":27546}},{"id":"MA0101202210A0030944","name":"영화공조","industry":"자동차 정비소","coordinates":[127.445304618444,36.3329091627577],"sales":{"202602":699}},{"id":"MA0101202210A0055594","name":"명품축산","industry":"정육점","coordinates":[127.448811796214,36.3268671787021],"sales":{"202602":4644}},{"id":"MA0101202210A0055631","name":"엄마식탁","industry":"백반/한정식","coordinates":[127.445624324212,36.3323312188991],"sales":{"202602":588}},{"id":"MA0101202210A0058376","name":"마드몽","industry":"카페","coordinates":[127.443041606883,36.3305835280215],"sales":{"202602":708}},{"id":"MA0101202210A0095458","name":"쿠이스","industry":"건축물 일반 청소업","coordinates":[127.446049399322,36.3326540564094],"sales":{"202602":301}},{"id":"MA0101202211A0002584","name":"이원식품","industry":"치킨","coordinates":[127.444533461546,36.332443422236],"sales":{"202602":166}},{"id":"MA0101202211A0031225","name":"해피데이김밥","industry":"김밥/만두/분식","coordinates":[127.444019734172,36.3282728878682],"sales":{"202602":821}},{"id":"MA0101202211A0057038","name":"이쁜공주구제샵","industry":"여성 의류 소매업","coordinates":[127.444015714294,36.3314901006981],"sales":{"202602":206}},{"id":"MA0101202211A0071890","name":"오름건설중기","industry":"건설기계/장비 대여업","coordinates":[127.441226341947,36.3286346910843],"sales":{"202602":1597}},{"id":"MA0101202302A0050758","name":"끄앙반","industry":"베트남식 전문","coordinates":[127.44529912239,36.3339004760704],"sales":{"202602":1034}},{"id":"MA0101202302A0088173","name":"안서동야곱집","industry":"곱창 전골/구이","coordinates":[127.445173787178,36.3334052965813],"sales":{"202602":396}},{"id":"MA0101202303A0008881","name":"제일학원대동2캠퍼스학원","industry":"입시·교과학원","coordinates":[127.442986752865,36.328763355922],"sales":{"202602":1032}},{"id":"MA0101202303A0045065","name":"마음.달","industry":"카페","coordinates":[127.446588518634,36.3236853415366],"sales":{"202602":1666}},{"id":"MA0101202303A0047310","name":"다임헤어","industry":"미용실","coordinates":[127.440243751059,36.3281877261908],"sales":{"202602":169}},{"id":"MA0101202303A0048376","name":"마왕족발대전","industry":"족발/보쌈","coordinates":[127.44436430021,36.3320745693276],"sales":{"202602":1840}},{"id":"MA0101202303A0051178","name":"용인테리어","industry":"인테리어 디자인업","coordinates":[127.441060187494,36.3307710914916],"sales":{"202602":781}},{"id":"MA0101202303A0102200","name":"한양고깃집","industry":"돼지고기 구이/찜","coordinates":[127.440982800597,36.3288969309631],"sales":{"202602":670}},{"id":"MA0101202305A0045753","name":"엄마손김밥","industry":"김밥/만두/분식","coordinates":[127.442352554199,36.3288738458804],"sales":{"202602":964}},{"id":"MA0101202305A0048221","name":"다홍웨딩","industry":"결혼 상담 서비스업","coordinates":[127.442986752865,36.328763355922],"sales":{"202602":3030}},{"id":"MA0101202305A0068719","name":"해장천하","industry":"백반/한정식","coordinates":[127.449378113957,36.3265766745084],"sales":{"202602":878}},{"id":"MA0101202305A0095218","name":"엘리트수","industry":"직원 훈련기관","coordinates":[127.443367294003,36.3310599434764],"sales":{}},{"id":"MA0101202305A0101424","name":"바틀샵대전대동역점","industry":"편의점","coordinates":[127.442163886573,36.3289916968755],"sales":{"202602":3112}},{"id":"MA0101202305A0130060","name":"탕후르츠빙수","industry":"그 외 기타 간이 음식점","coordinates":[127.447854458238,36.3327824825104],"sales":{"202602":304}},{"id":"MA0101202305A0157279","name":"지에스25대동","industry":"편의점","coordinates":[127.442986752865,36.328763355922],"sales":{"202602":5942}},{"id":"MA0101202305A0162368","name":"바이닐브레드","industry":"유아용 의류 소매업","coordinates":[127.450578961379,36.3320422903583],"sales":{"202602":317}},{"id":"MA0101202305A0183506","name":"아이스크림세상","industry":"슈퍼마켓","coordinates":[127.444242560592,36.3263255191612],"sales":{"202602":8745}},{"id":"MA0101202306A0009436","name":"하루엔소쿠대동역점","industry":"일식 카레/돈가스/덮밥","coordinates":[127.442386984164,36.3290539536672],"sales":{"202602":1150}},{"id":"MA0101202306A0048079","name":"루퍼스컴퍼니","industry":"기타 운송장비 대여업","coordinates":[127.444825969712,36.3270803375117],"sales":{"202602":195}},{"id":"MA0101202307A0013890","name":"쏭블리케이크","industry":"빵/도넛","coordinates":[127.440243751059,36.3281877261908],"sales":{"202602":884}},{"id":"MA0101202307A0020148","name":"맛있는베트남바게트송니꽌벳(SONGNHIQUANVIET)반미","industry":"베트남식 전문","coordinates":[127.443903113326,36.3312742367974],"sales":{"202602":1500}},{"id":"MA0101202307A0061550","name":"대동2지구공인중개사사무소","industry":"부동산 중개/대리업","coordinates":[127.447715343715,36.3259881380331],"sales":{"202602":77}},{"id":"MA0101202307A0093386","name":"파파존스대전","industry":"버거","coordinates":[127.445375731257,36.3258346669048],"sales":{"202602":4207}},{"id":"MA0101202308A0009444","name":"에스엠컴","industry":"경영 컨설팅업","coordinates":[127.440243751059,36.3281877261908],"sales":{"202602":8506}},{"id":"MA0101202308A0031362","name":"1st모바일","industry":"핸드폰 소매업","coordinates":[127.443681743955,36.3295538129617],"sales":{"202602":210}},{"id":"MA0101202308A0041607","name":"맘스터치대전","industry":"버거","coordinates":[127.440243751059,36.3281877261908],"sales":{"202602":5043}},{"id":"MA0101202309A0006948","name":"토리김밥","industry":"김밥/만두/분식","coordinates":[127.445439398325,36.3331069190944],"sales":{"202602":911}},{"id":"MA0101202309A0018267","name":"무색","industry":"요리 주점","coordinates":[127.445185591415,36.333522405402],"sales":{"202602":266}},{"id":"MA0101202309A0062356","name":"츄라냥ちゅらにゃん","industry":"액세서리/잡화 소매업","coordinates":[127.443903113326,36.3312742367974],"sales":{"202602":155}},{"id":"MA0101202310A0024898","name":"제이제이헤어","industry":"미용실","coordinates":[127.445683655163,36.3271041777708],"sales":{"202602":211}},{"id":"MA0101202310A0038375","name":"그린유컨설팅","industry":"경영 컨설팅업","coordinates":[127.444862342215,36.3334785502557],"sales":{"202602":7766}},{"id":"MA0101202310A0057365","name":"고은모터스","industry":"자동차 정비소","coordinates":[127.445844802979,36.3260672240244],"sales":{"202602":1744}},{"id":"MA0101202310A0073676","name":"구여사컵밥","industry":"김밥/만두/분식","coordinates":[127.445163738168,36.3316390301435],"sales":{"202602":1256}},{"id":"MA0101202311A0041709","name":"탈렌트노래연습장","industry":"노래방","coordinates":[127.444078958723,36.3308590427499],"sales":{"202602":588}},{"id":"MA0101202311A0095520","name":"인쌩맥주대전","industry":"생맥주 전문","coordinates":[127.446300413906,36.3239387470838],"sales":{"202602":1064}},{"id":"MA0101202311A0103289","name":"대동포차","industry":"요리 주점","coordinates":[127.441516514055,36.3287417606908],"sales":{"202602":218}},{"id":"MA0101202406A0006025","name":"대동기원","industry":"바둑/장기/체스 경기 운영업","coordinates":[127.442039964755,36.3307134013262],"sales":{}},{"id":"MA0101202406A0034182","name":"불티나반찬앤도시락","industry":"백반/한정식","coordinates":[127.443487761808,36.330699026235],"sales":{"202602":3584}},{"id":"MA0101202406A0073239","name":"커들스튜디오","industry":"사진촬영업","coordinates":[127.44510634596,36.3332974067256],"sales":{"202602":988}},{"id":"MA0101202406A0081817","name":"그린가든샐러드","industry":"백반/한정식","coordinates":[127.444825342901,36.3328478652158],"sales":{"202602":476}},{"id":"MA0101202406A0122128","name":"2층미용실","industry":"미용실","coordinates":[127.445421381056,36.3338549617327],"sales":{"202602":251}},{"id":"MA0101202406A0140106","name":"씨스페이시스대동역점","industry":"편의점","coordinates":[127.44133801688,36.3286883493503],"sales":{"202602":3110}},{"id":"MA0101202406A0150966","name":"초초펫","industry":"애완동물/애완용품 소매업","coordinates":[127.448622980285,36.3308420731108],"sales":{"202602":579}},{"id":"MA0101202406A0154773","name":"산1번지","industry":"카페","coordinates":[127.45192087007,36.3310459310599],"sales":{"202602":185}},{"id":"MA0101202406A0166376","name":"대동족발","industry":"족발/보쌈","coordinates":[127.442129813545,36.328874670028],"sales":{"202602":547}},{"id":"MA0101202406A0180451","name":"아하라이브","industry":"백반/한정식","coordinates":[127.442271861543,36.3303610848688],"sales":{"202602":801}},{"id":"MA0101202406A0214404","name":"배딘","industry":"백반/한정식","coordinates":[127.445185591415,36.333522405402],"sales":{"202602":342}},{"id":"MA0101202406A0216145","name":"춘선소제동숯불구이","industry":"돼지고기 구이/찜","coordinates":[127.441028923149,36.3291761253813],"sales":{"202602":1679}},{"id":"MA0101202406A0260221","name":"민정약국","industry":"약국","coordinates":[127.44256553384,36.329116374999],"sales":{"202602":1871}},{"id":"MA0101202406A0289291","name":"원더풀외형복원","industry":"자동차 세차장","coordinates":[127.444228829566,36.3278305346063],"sales":{"202602":78}},{"id":"MA0101202406A0336368","name":"채아헤어","industry":"미용실","coordinates":[127.44312291052,36.3272398634358],"sales":{"202602":372}},{"id":"MA0101202406A0341519","name":"국밥참맛있는집대전","industry":"국/탕/찌개류","coordinates":[127.443752910416,36.330319548263],"sales":{"202602":1789}},{"id":"MA0101202406A0344678","name":"해피코코","industry":"카페","coordinates":[127.445517977479,36.3332147672472],"sales":{"202602":777}},{"id":"MA0101202406A0404509","name":"구움베이커리","industry":"빵/도넛","coordinates":[127.443903113326,36.3312742367974],"sales":{"202602":1251}},{"id":"MA0101202406A0450477","name":"써니헤어","industry":"미용실","coordinates":[127.444752421861,36.3317757377598],"sales":{"202602":544}},{"id":"MA0101202406A0468291","name":"패밀리꼬마김밥대전","industry":"김밥/만두/분식","coordinates":[127.44312291052,36.3272398634358],"sales":{"202602":492}},{"id":"MA0101202406A0497392","name":"투썸대동","industry":"카페","coordinates":[127.444207783432,36.3280468951048],"sales":{"202602":509}},{"id":"MA0101202406A0517768","name":"신흥세차장","industry":"자동차 세차장","coordinates":[127.446126598752,36.3247053960908],"sales":{"202602":1405}},{"id":"MA0101202406A0565524","name":"에이지인스톨","industry":"가전제품 수리업","coordinates":[127.447896675464,36.3265371762102],"sales":{"202602":215}},{"id":"MA0101202406A0593693","name":"에이치디현대오일뱅크직영대동현대셀프주유소","industry":"주유소","coordinates":[127.445630538861,36.3255994113089],"sales":{"202602":4451}},{"id":"MA0101202408A0005378","name":"온클래스학원","industry":"입시·교과학원","coordinates":[127.440232512733,36.3281697440588],"sales":{"202602":1096}},{"id":"MA0101202408A0054001","name":"탑마트정육","industry":"정육점","coordinates":[127.440297965411,36.3279261853667],"sales":{"202602":464}},{"id":"MA0101202408A0061541","name":"서산상회","industry":"건어물/젓갈 소매업","coordinates":[127.441254256193,36.3296348934997],"sales":{"202602":2365}},{"id":"MA0101202409A0028814","name":"대동제일학원스터디룸","industry":"독서실/스터디 카페","coordinates":[127.442986752865,36.328763355922],"sales":{"202602":204}},{"id":"MA0101202409A0127940","name":"카페아리냥이","industry":"카페","coordinates":[127.445793286666,36.3326640237135],"sales":{"202602":679}},{"id":"MA0101202409A0129727","name":"별빛호프","industry":"생맥주 전문","coordinates":[127.445377349606,36.3319896927973],"sales":{"202602":281}},{"id":"MA0101202409A0136770","name":"재은책방","industry":"중고 상품 소매업","coordinates":[127.445786975288,36.3335111520688],"sales":{"202602":493}},{"id":"MA0101202409A0153604","name":"천지헤어","industry":"미용실","coordinates":[127.441605813586,36.3287774778338],"sales":{"202602":332}},{"id":"MA0101202409A0159158","name":"이제이그레이스","industry":"남성 의류 소매업","coordinates":[127.445786975288,36.3335111520688],"sales":{"202602":562}},{"id":"MA0101202409A0168375","name":"월드","industry":"철물/공구 소매업","coordinates":[127.445624324212,36.3323312188991],"sales":{"202602":587}},{"id":"MA0101202409A0173886","name":"다올에치브이에이씨","industry":"가전제품 수리업","coordinates":[127.447896675464,36.3265371762102],"sales":{"202602":261}},{"id":"MA0101202409A0195958","name":"화다","industry":"그 외 기타 종합 소매업","coordinates":[127.445786975288,36.3335111520688],"sales":{"202602":2975}},{"id":"MA0101202409A0198172","name":"밀리언달러베이비","industry":"경영 컨설팅업","coordinates":[127.444235955455,36.3310477062269],"sales":{"202602":6750}},{"id":"MA0101202409A0199159","name":"워시테리아","industry":"세탁소","coordinates":[127.444142291704,36.3282814442789],"sales":{"202602":236}},{"id":"MA0101202409A0205993","name":"꼬랑네일","industry":"네일숍","coordinates":[127.443749796474,36.3317344057032],"sales":{"202602":97}},{"id":"MA0101202409A0220133","name":"소소가게","industry":"여성 의류 소매업","coordinates":[127.448686624486,36.3322296444144],"sales":{"202602":199}},{"id":"MA0101202409A0232183","name":"전담24","industry":"담배/전자담배 소매업","coordinates":[127.445955119218,36.3336997715955],"sales":{"202602":948}},{"id":"MA0101202409A0260763","name":"청양청과물","industry":"채소/과일 소매업","coordinates":[127.448599517446,36.3306348907922],"sales":{"202602":1250}},{"id":"MA0101202410A0195867","name":"미플란트치과의원","industry":"치과의원","coordinates":[127.443358307748,36.3294739073192],"sales":{"202602":1356}},{"id":"MA0101202410A0221008","name":"뉴대한연탄","industry":"가정용 연료 소매업","coordinates":[127.446594036356,36.3305072247923],"sales":{"202602":3095}},{"id":"MA0101202410A0225979","name":"대동해법수학교습소","industry":"입시·교과학원","coordinates":[127.44312291052,36.3272398634358],"sales":{"202602":765}},{"id":"MA0101202410A0260329","name":"이근섭한의원","industry":"한의원","coordinates":[127.442057912134,36.3299473354451],"sales":{"202602":1325}},{"id":"MA0101202410A0272664","name":"대동쌀집","industry":"곡물/곡분 소매업","coordinates":[127.448056216197,36.3310604812576],"sales":{"202602":3402}},{"id":"MA0101202410A0334846","name":"시원척척재활의학과","industry":"기타 의원","coordinates":[127.442876810697,36.3290160926465],"sales":{"202602":6176}},{"id":"MA0101202410A0337427","name":"레인보우미술","industry":"미술학원","coordinates":[127.444064662101,36.3322649298463],"sales":{"202602":155}},{"id":"MA0101202410A0377029","name":"예일이비인후과의원","industry":"이비인후과 의원","coordinates":[127.442876810697,36.3290160926465],"sales":{"202602":3812}},{"id":"MA0101202410A0377299","name":"속튼튼내과","industry":"내과/소아과 의원","coordinates":[127.440297965411,36.3279261853667],"sales":{"202602":2999}},{"id":"MA0101202410A0382477","name":"라시움영어대동학원","industry":"입시·교과학원","coordinates":[127.440639200873,36.3272129985401],"sales":{"202602":1020}},{"id":"MA0101202410A0430948","name":"대전동산의원","industry":"한의원","coordinates":[127.443049529744,36.3300157578648],"sales":{"202602":481}},{"id":"MA0101202410A0442803","name":"청우안마지압원","industry":"유사 의료업","coordinates":[127.443967679296,36.3289129162494],"sales":{"202602":351}},{"id":"MA0101202410A0442898","name":"안두원신경정신과","industry":"신경/정신과 의원","coordinates":[127.443358307748,36.3294739073192],"sales":{"202602":1488}},{"id":"MA0101202410A0442949","name":"안태규한의원","industry":"한의원","coordinates":[127.443931047576,36.3283453113858],"sales":{"202602":1114}},{"id":"MA0101202410A0442994","name":"대동한의원","industry":"한의원","coordinates":[127.443049529744,36.3300157578648],"sales":{"202602":2422}},{"id":"MA0101202410A0443153","name":"만물상회","industry":"채소/과일 소매업","coordinates":[127.447612485686,36.3255289233182],"sales":{"202602":1848}},{"id":"MA0101202410A0443230","name":"김흥진치과의원","industry":"치과의원","coordinates":[127.443049529744,36.3300157578648],"sales":{"202602":1886}},{"id":"MA0101202410A0443271","name":"드림미술교습소","industry":"미술학원","coordinates":[127.440639200873,36.3272129985401],"sales":{"202602":341}},{"id":"MA0101202410A0443286","name":"서울이비인후과","industry":"이비인후과 의원","coordinates":[127.443049529744,36.3300157578648],"sales":{"202602":1380}},{"id":"MA0101202410A0443392","name":"대동성모마취통증의학과의원","industry":"기타 의원","coordinates":[127.443049529744,36.3300157578648],"sales":{"202602":6142}},{"id":"MA0101202410A0443397","name":"두레원","industry":"고용 알선업","coordinates":[127.443652011099,36.3302027699743],"sales":{}},{"id":"MA0101202410A0443449","name":"심미연합치과의원","industry":"치과의원","coordinates":[127.443370261789,36.3296180511291],"sales":{"202602":1735}},{"id":"MA0101202410A0443497","name":"정상의거인학원","industry":"입시·교과학원","coordinates":[127.442986752865,36.328763355922],"sales":{"202602":572}},{"id":"MA0101202410A0443753","name":"이조은치과","industry":"치과의원","coordinates":[127.442986752865,36.328763355922],"sales":{"202602":2241}},{"id":"MA0101202410A0443985","name":"더프라임학원","industry":"입시·교과학원","coordinates":[127.440639200873,36.3272129985401],"sales":{"202602":636}},{"id":"MA0101202410A0444151","name":"이앤앰영수전문학원","industry":"입시·교과학원","coordinates":[127.444015714294,36.3314901006981],"sales":{"202602":733}},{"id":"MA0101202410A0444181","name":"예산미트정육점","industry":"정육점","coordinates":[127.445032754283,36.332108129217],"sales":{"202602":3679}},{"id":"MA0101202410A0444354","name":"유레카수학원","industry":"입시·교과학원","coordinates":[127.446103041803,36.324480189862],"sales":{"202602":399}},{"id":"MA0101202410A0444384","name":"데이지피아노음악교습소","industry":"음악학원","coordinates":[127.44312291052,36.3272398634358],"sales":{"202602":290}},{"id":"MA0101202410A0444438","name":"펜타뷰축산정육점","industry":"정육점","coordinates":[127.445683655163,36.3271041777708],"sales":{"202602":4627}},{"id":"MA0101202410A0444467","name":"민들레안과","industry":"안과 의원","coordinates":[127.443049529744,36.3300157578648],"sales":{"202602":6070}},{"id":"MA0101202410A0446081","name":"한국정육점","industry":"정육점","coordinates":[127.447676979671,36.3309627730146],"sales":{"202602":3587}},{"id":"MA0101202410A0446204","name":"고향정육점","industry":"정육점","coordinates":[127.447244632873,36.3313158501033],"sales":{"202602":3304}},{"id":"MA0101202410A0446466","name":"바하음악학원","industry":"음악학원","coordinates":[127.440639200873,36.3272129985401],"sales":{"202602":287}},{"id":"MA0101202410A0446468","name":"정가네정육점","industry":"정육점","coordinates":[127.444669338043,36.3269547556472],"sales":{"202602":1798}},{"id":"MA0101202410A0447444","name":"제생한의원","industry":"한의원","coordinates":[127.442427018702,36.330225334251],"sales":{"202602":977}},{"id":"MA0101202410A0447457","name":"대동치과의원","industry":"치과의원","coordinates":[127.441935962918,36.3300469157706],"sales":{"202602":2034}},{"id":"MA0101202410A0447464","name":"차치과의원","industry":"치과의원","coordinates":[127.442948835907,36.3299350252468],"sales":{"202602":2590}},{"id":"MA0101202410A0447467","name":"은산부인과","industry":"산부인과 의원","coordinates":[127.443370261789,36.3296180511291],"sales":{"202602":12190}},{"id":"MA0101202410A0447474","name":"윤한의원","industry":"한의원","coordinates":[127.444539172177,36.3314881549139],"sales":{"202602":351}},{"id":"MA0101202410A0447485","name":"대한정형외과의원","industry":"외과 의원","coordinates":[127.443757663119,36.3311576240761],"sales":{"202602":10186}},{"id":"MA0101202410A0447486","name":"제일내과","industry":"내과/소아과 의원","coordinates":[127.443876646835,36.3305353709911],"sales":{"202602":1997}},{"id":"MA0101202410A0447488","name":"나상연정형외과","industry":"외과 의원","coordinates":[127.441250953313,36.3290491412519],"sales":{"202602":4519}},{"id":"MA0101202410A0447492","name":"김명숙소아과의원","industry":"내과/소아과 의원","coordinates":[127.443370261789,36.3296180511291],"sales":{"202602":4104}},{"id":"MA0101202410A0447530","name":"대전기독병원","industry":"요양병원","coordinates":[127.44170274298,36.3301649307508],"sales":{"202602":6386}},{"id":"MA0101202410A0448305","name":"수정식품","industry":"채소/과일 소매업","coordinates":[127.448056216197,36.3310604812576],"sales":{"202602":1036}},{"id":"MA0101202410A0448324","name":"삼성토탈의전서비스","industry":"장례식장","coordinates":[127.448225769961,36.32566180155],"sales":{"202602":6322}},{"id":"MA0101202410A0479205","name":"신광서점","industry":"서점","coordinates":[127.445086098172,36.3297378385249],"sales":{"202602":2249}},{"id":"MA0101202410A0481666","name":"조안과의원","industry":"안과 의원","coordinates":[127.442688194507,36.3291429560349],"sales":{"202602":3870}},{"id":"MA0101202410A0482513","name":"한스발달지원센터","industry":"유사 의료업","coordinates":[127.443049529744,36.3300157578648],"sales":{"202602":421}},{"id":"MA0101202410A0515909","name":"건강백세안마원","industry":"유사 의료업","coordinates":[127.444663936857,36.3318842080616],"sales":{"202602":497}},{"id":"MA0101202410A0593600","name":"경희대성빈태권도","industry":"태권도/무술학원","coordinates":[127.440639200873,36.3272129985401],"sales":{"202602":641}},{"id":"MA0101202410A0700882","name":"쎈수학러닝센터대동수학교습소","industry":"입시·교과학원","coordinates":[127.442986752865,36.328763355922],"sales":{"202602":1215}},{"id":"MA0101202410A0707531","name":"노아음악학원","industry":"음악학원","coordinates":[127.442986752865,36.328763355922],"sales":{"202602":241}},{"id":"MA0101202410A0782542","name":"혜윰영어교습소","industry":"입시·교과학원","coordinates":[127.444466073239,36.3323445435544],"sales":{"202602":1503}},{"id":"MA0101202410A0815231","name":"더쎈복싱GYM","industry":"태권도/무술학원","coordinates":[127.440961034313,36.3289871288813],"sales":{"202602":373}},{"id":"MA0101202410A0819502","name":"어머니인력","industry":"고용 알선업","coordinates":[127.444978501781,36.3323606603529],"sales":{}},{"id":"MA0101202410A0897446","name":"목포수산","industry":"수산물 소매업","coordinates":[127.447547619143,36.3278181538475],"sales":{"202602":3172}},{"id":"MA0101202411A0025277","name":"케이크상점","industry":"빵/도넛","coordinates":[127.444801749888,36.3267379806518],"sales":{"202602":1779}},{"id":"MA0101202411A0034893","name":"김복남맥주대전","industry":"생맥주 전문","coordinates":[127.442637453553,36.3300172846554],"sales":{"202602":337}},{"id":"MA0101202411A0067435","name":"땡큐라면","industry":"반찬/식료품 소매업","coordinates":[127.445683399264,36.3251035671447],"sales":{"202602":907}},{"id":"MA0101202411A0088882","name":"윈썸","industry":"백반/한정식","coordinates":[127.451676889216,36.3312270884111],"sales":{"202602":2145}},{"id":"MA0101202411A0110895","name":"덴푸라오모이","industry":"기타 일식 음식점","coordinates":[127.444758022387,36.3268823315805],"sales":{"202602":1299}},{"id":"MA0101202411A0123580","name":"코리엔탈깻잎두마리치킨가양","industry":"치킨","coordinates":[127.445439398325,36.3331069190944],"sales":{"202602":1440}},{"id":"MA0101202411A0124234","name":"스타일플랜","industry":"여성 의류 소매업","coordinates":[127.441884697044,36.328857552965],"sales":{"202602":153}},{"id":"MA0101202411A0144507","name":"카페디귿","industry":"카페","coordinates":[127.442559951878,36.3300986774812],"sales":{"202602":845}},{"id":"MA0101202411A0145942","name":"연정","industry":"미용실","coordinates":[127.44768482296,36.3245463700485],"sales":{"202602":207}},{"id":"MA0101202411A0148843","name":"파타르","industry":"인테리어 디자인업","coordinates":[127.442710751613,36.3311615064764],"sales":{"202602":941}},{"id":"MA0101202411A0172725","name":"제일학원대동1캠퍼스학원","industry":"입시·교과학원","coordinates":[127.442986752865,36.328763355922],"sales":{"202602":1739}},{"id":"MA0101202412A0015287","name":"민턴","industry":"기타 의류 소매업","coordinates":[127.444982652964,36.3330905969868],"sales":{"202602":241}},{"id":"MA0101202412A0019592","name":"오스틴실용음악학원","industry":"음악학원","coordinates":[127.443931047576,36.3283453113858],"sales":{"202602":204}},{"id":"MA0101202412A0037348","name":"비에이치명품수선","industry":"가죽/가방/신발 수선업","coordinates":[127.440745196001,36.3302135244029],"sales":{"202602":132}},{"id":"MA0101202412A0040902","name":"더블유엔","industry":"미용실","coordinates":[127.445173787178,36.3334052965813],"sales":{"202602":494}},{"id":"MA0101202412A0041087","name":"카페미숑","industry":"카페","coordinates":[127.443652011099,36.3302027699743],"sales":{"202602":1080}},{"id":"MA0101202412A0041570","name":"봉봉호떡푸드","industry":"빵/도넛","coordinates":[127.443358307748,36.3294739073192],"sales":{"202602":429}},{"id":"MA0101202501A0004072","name":"엔케이씨엔에스앤에스","industry":"사업시설 유지·관리 서비스업","coordinates":[127.443818404954,36.3300849993624],"sales":{"202602":341}},{"id":"MA0101202501A0007640","name":"명품축산","industry":"정육점","coordinates":[127.448811796214,36.3268671787021],"sales":{"202602":3706}},{"id":"MA0101202501A0045973","name":"신수학학원","industry":"입시·교과학원","coordinates":[127.442986752865,36.328763355922],"sales":{"202602":1591}},{"id":"MA0101202501A0046705","name":"연월당","industry":"피자","coordinates":[127.447814541983,36.3258075311553],"sales":{"202602":2390}},{"id":"MA0101202502A0064824","name":"아일리","industry":"건강보조식품 소매업","coordinates":[127.444235955455,36.3310477062269],"sales":{"202602":1045}},{"id":"MA0101202502A0086670","name":"카페요아정대동","industry":"카페","coordinates":[127.442444809376,36.3294322335617],"sales":{"202602":247}},{"id":"MA0101202502A0098426","name":"타임","industry":"사업시설 유지·관리 서비스업","coordinates":[127.445654607961,36.3259147333249],"sales":{"202602":365}},{"id":"MA0101202502A0108515","name":"미니포크레인017035","industry":"건설기계/장비 대여업","coordinates":[127.447387633079,36.3271068236551],"sales":{"202602":2805}},{"id":"MA0101202503A0013739","name":"허갈닭강정","industry":"치킨","coordinates":[127.445365179416,36.3337650536499],"sales":{"202602":358}},{"id":"MA0101202503A0026205","name":"온네일","industry":"네일숍","coordinates":[127.443967679296,36.3289129162494],"sales":{"202602":92}},{"id":"MA0101202503A0049091","name":"마주봄펫","industry":"애완동물/애완용품 소매업","coordinates":[127.450335181766,36.3322594912136],"sales":{"202602":691}},{"id":"MA0101202503A0066075","name":"캥거루센터","industry":"기타 교육지원 서비스업","coordinates":[127.447408412602,36.3268454047792],"sales":{"202602":38}},{"id":"MA0101202503A0071222","name":"큰길공인중개사사무소","industry":"부동산 중개/대리업","coordinates":[127.442986752865,36.328763355922],"sales":{"202602":73}},{"id":"MA0101202504A0024338","name":"보틀샵","industry":"슈퍼마켓","coordinates":[127.442163886573,36.3289916968755],"sales":{"202602":8280}},{"id":"MA0101202504A0042961","name":"주락","industry":"생맥주 전문","coordinates":[127.44529912239,36.3339004760704],"sales":{"202602":1714}},{"id":"MA0101202504A0077542","name":"오름선물","industry":"액세서리/잡화 소매업","coordinates":[127.45017147994,36.3309083448146],"sales":{"202602":340}},{"id":"MA0101202504A0085656","name":"대동펜타뷰공인중개사사무소","industry":"부동산 중개/대리업","coordinates":[127.445683655163,36.3271041777708],"sales":{"202602":125}},{"id":"MA0101202504A0090614","name":"우리뷰티","industry":"미용실","coordinates":[127.443603171049,36.3294459634929],"sales":{"202602":416}},{"id":"MA0101202505A0004057","name":"천우에어컨철거업체","industry":"가전제품 수리업","coordinates":[127.446379190477,36.3240826411904],"sales":{"202602":263}},{"id":"MA0101202505A0034519","name":"비비큐","industry":"치킨","coordinates":[127.444420550653,36.3321734894877],"sales":{"202602":261}},{"id":"MA0101202505A0069156","name":"청마루회관","industry":"백반/한정식","coordinates":[127.447056052284,36.3275496406238],"sales":{"202602":1104}},{"id":"MA0106202201A0010635","name":"비케이알버거킹대전대동DT점","industry":"버거","coordinates":[127.445905153594,36.3249315165447],"sales":{"202602":1469}},{"id":"MA0106202201A0045966","name":"롯데리아대전대동","industry":"피자","coordinates":[127.443358307748,36.3294739073192],"sales":{"202602":784}},{"id":"MA0106202201A1902574","name":"파크랜드대전","industry":"운동용품 소매업","coordinates":[127.440982800597,36.3288969309631],"sales":{"202602":1625}},{"id":"MA0106202306A2068833","name":"GS25대동","industry":"편의점","coordinates":[127.442986752865,36.328763355922],"sales":{"202602":10986}},{"id":"MA0106202506A1096116","name":"주락","industry":"백반/한정식","coordinates":[127.44529912239,36.3339004760704],"sales":{"202602":527}},{"id":"MA0106202506A2092178","name":"우리뷰티","industry":"미용실","coordinates":[127.443603171049,36.3294459634929],"sales":{"202602":156}},{"id":"MA0106202506A2268723","name":"팀메이크짐","industry":"헬스장","coordinates":[127.440243751059,36.3281877261908],"sales":{"202602":331}},{"id":"MA0106202506A2372129","name":"우리팻","industry":"애완동물/애완용품 소매업","coordinates":[127.447129963548,36.3307395267596],"sales":{"202602":1538}},{"id":"MA0106202507A1727631","name":"대동현대셀프","industry":"주유소","coordinates":[127.445630538861,36.3255994113089],"sales":{"202602":35268}},{"id":"MA0106202507A2385378","name":"초콜릿짐","industry":"헬스장","coordinates":[127.445219978772,36.3336935006118],"sales":{"202602":250}},{"id":"MA0106202508A0506789","name":"프로당구장","industry":"당구장","coordinates":[127.445185591415,36.333522405402],"sales":{"202602":296}},{"id":"MA0106202508A1435108","name":"귀족볶음밥 대전본점","industry":"백반/한정식","coordinates":[127.44421939539,36.3300925214596],"sales":{"202602":813}},{"id":"MA0106202508A2391229","name":"기분좋은 이발관","industry":"미용실","coordinates":[127.444533461546,36.332443422236],"sales":{"202602":296}},{"id":"MA0106202509A0489436","name":"매디나","industry":"백반/한정식","coordinates":[127.445955119218,36.3336997715955],"sales":{"202602":332}},{"id":"MA0106202509A1366040","name":"이앤엠학원","industry":"입시·교과학원","coordinates":[127.442948835907,36.3299350252468],"sales":{"202602":436}},{"id":"MA0106202510A0391598","name":"엠픽스","industry":"기타 산업용 기계/장비 대여업","coordinates":[127.444825969712,36.3270803375117],"sales":{"202602":966}},{"id":"MA0106202510A0705524","name":"피자프라텔로","industry":"피자","coordinates":[127.445377349606,36.3319896927973],"sales":{"202602":1378}},{"id":"MA0106202510A1076176","name":"대전베이크하우스","industry":"백반/한정식","coordinates":[127.444828385997,36.3314239965795],"sales":{"202602":223}},{"id":"MA0106202510A1109467","name":"착한빵집","industry":"그 외 기타 상품 전문 소매업","coordinates":[127.443184400967,36.3302315400526],"sales":{"202602":1048}},{"id":"MA0106202510A1198235","name":"동섬","industry":"백반/한정식","coordinates":[127.444049320278,36.3295614596712],"sales":{"202602":920}},{"id":"MA0106202510A1610522","name":"다품루웨이","industry":"중국집","coordinates":[127.444862342215,36.3334785502557],"sales":{"202602":2205}},{"id":"MA0106202510A1927166","name":"이로한식뷔페","industry":"뷔페","coordinates":[127.444245337819,36.3287767081658],"sales":{"202602":3267}},{"id":"MA0106202510A2174859","name":"발리휘트니스클럽","industry":"헬스장","coordinates":[127.446103041803,36.324480189862],"sales":{"202602":676}},{"id":"MA0106202511A0123703","name":"비비헤어","industry":"미용실","coordinates":[127.442948835907,36.3299350252468],"sales":{"202602":449}},{"id":"MA0106202511A0713476","name":"아이스꽁꽁","industry":"그 외 기타 상품 전문 소매업","coordinates":[127.444734034948,36.3285405850086],"sales":{"202602":1088}},{"id":"MA0106202512A0478848","name":"또봉이통닭","industry":"치킨","coordinates":[127.44312291052,36.3272398634358],"sales":{"202602":586}},{"id":"MA0106202512A1051324","name":"소담밥상","industry":"백반/한정식","coordinates":[127.443296334767,36.3303302542953],"sales":{"202602":355}},{"id":"MA0106202512A2078189","name":"아라다이스","industry":"미용실","coordinates":[127.44128223021,36.3286705318046],"sales":{"202602":225}},{"id":"MA0106202601A0473841","name":"씨유(CU)신흥삼거리점","industry":"편의점","coordinates":[127.446179815065,36.3242726326821],"sales":{"202602":1670}},{"id":"MA0106202601A0614777","name":"아임일리터 대동오거리점","industry":"카페","coordinates":[127.442799769174,36.3291785897758],"sales":{"202602":429}},{"id":"MA0106202601A1277895","name":"빽다방 대전대동점","industry":"카페","coordinates":[127.440243751059,36.3281877261908],"sales":{"202602":1431}},{"id":"MA0106202601A1697702","name":"크레이지빙수 대동점","industry":"카페","coordinates":[127.442986752865,36.328763355922],"sales":{"202602":668}},{"id":"MA0106202602A0285134","name":"어뉴(A New)애플헤어 소제점(2Nd)","industry":"미용실","coordinates":[127.440973694792,36.329257435004],"sales":{"202602":101}}]