[{"id":"MA010120220800063148","name":"엔에스지자전거","industry":"자전거 소매업","coordinates":[127.439845570895,36.3445274959894],"sales":{"202602":302}},{"id":"MA010120220800109325","name":"경영종합부동산","industry":"부동산 중개/대리업","coordinates":[127.442158274594,36.3398238443747],"sales":{"202602":71}},{"id":"MA010120220800311238","name":"대전주주여행사","industry":"여행사","coordinates":[127.443231078058,36.3482999156994],"sales":{"202602":847}},{"id":"MA010120220800315265","name":"한국침술연합회","industry":"경영 컨설팅업","coordinates":[127.440300019729,36.346102876449],"sales":{"202602":3176}},{"id":"MA010120220800339614","name":"수노래연습장","industry":"노래방","coordinates":[127.4411204871,36.3434413880775],"sales":{"202602":621}},{"id":"MA010120220800462349","name":"픽미픽미우송점","industry":"슈퍼마켓","coordinates":[127.445588343716,36.3397029637444],"sales":{"202602":19908}},{"id":"MA010120220800525427","name":"지에스25","industry":"편의점","coordinates":[127.441380294672,36.3480274023889],"sales":{"202602":1824}},{"id":"MA010120220800638184","name":"큐당구장","industry":"당구장","coordinates":[127.443209219304,36.3444429744772],"sales":{"202602":492}},{"id":"MA010120220800676772","name":"제이헤어클럽","industry":"미용실","coordinates":[127.442749176149,36.3458234754423],"sales":{"202602":286}},{"id":"MA010120220801052195","name":"착한감자탕","industry":"국/탕/찌개류","coordinates":[127.440909681035,36.347542506132],"sales":{"202602":1008}},{"id":"MA010120220801095342","name":"조이몰","industry":"슈퍼마켓","coordinates":[127.438945098878,36.3468378115339],"sales":{"202602":18382}},{"id":"MA010120220801539499","name":"가양민물장어","industry":"해산물 구이/찜","coordinates":[127.443422244482,36.3446855011277],"sales":{"202602":2664}},{"id":"MA010120220802270161","name":"스트링스튜디오","industry":"악기 소매업","coordinates":[127.44117034506,36.3404312822872],"sales":{"202602":3274}},{"id":"MA010120220802279630","name":"선샤인단란주점","industry":"일반 유흥 주점","coordinates":[127.438534832077,36.3491643450727],"sales":{"202602":90}},{"id":"MA010120220802291842","name":"작은쉼터식당","industry":"요리 주점","coordinates":[127.443663423608,36.3439997139493],"sales":{"202602":784}},{"id":"MA010120220802586919","name":"헤어살롱가나","industry":"미용실","coordinates":[127.442799074011,36.342831393693],"sales":{"202602":210}},{"id":"MA010120220802686216","name":"코코헤어클럽","industry":"미용실","coordinates":[127.440194001506,36.3470585109462],"sales":{"202602":177}},{"id":"MA010120220802895681","name":"탄탄공인중개사사무소","industry":"부동산 중개/대리업","coordinates":[127.445588343716,36.3397029637444],"sales":{"202602":43}},{"id":"MA010120220802905969","name":"오성상회","industry":"슈퍼마켓","coordinates":[127.442908912697,36.338622502715],"sales":{"202602":8450}},{"id":"MA010120220802936187","name":"짤방커트","industry":"미용실","coordinates":[127.442874546909,36.3423895387573],"sales":{"202602":539}},{"id":"MA010120220802949443","name":"참조은마트","industry":"슈퍼마켓","coordinates":[127.44117034506,36.3404312822872],"sales":{"202602":3287}},{"id":"MA010120220802958830","name":"에스에이치엔지니어링","industry":"건물 및 토목 엔지니어링 서비스업","coordinates":[127.447259068324,36.3416342472204],"sales":{}},{"id":"MA010120220803044561","name":"유가옥식당","industry":"백반/한정식","coordinates":[127.444640524703,36.3454019132974],"sales":{"202602":770}},{"id":"MA010120220803048203","name":"제이와이","industry":"피부 관리실","coordinates":[127.442830348223,36.3424527847267],"sales":{"202602":261}},{"id":"MA010120220803058909","name":"연변짬뽕","industry":"중국집","coordinates":[127.441439554387,36.3486580047344],"sales":{"202602":2081}},{"id":"MA010120220803109423","name":"오성유통","industry":"슈퍼마켓","coordinates":[127.442943858727,36.3388927255758],"sales":{"202602":13427}},{"id":"MA010120220803325106","name":"명동얼큰이칼국수","industry":"국수/칼국수","coordinates":[127.442461082102,36.3500330214419],"sales":{"202602":534}},{"id":"MA010120220803364526","name":"동춘인력개발","industry":"고용 알선업","coordinates":[127.443364150132,36.3422976059445],"sales":{}},{"id":"MA010120220803397540","name":"영광카오토","industry":"자동차 정비소","coordinates":[127.443687701327,36.3463156399633],"sales":{"202602":1121}},{"id":"MA010120220803404204","name":"홍가짜장","industry":"중국집","coordinates":[127.445154936692,36.3457514558396],"sales":{"202602":1654}},{"id":"MA010120220803415738","name":"헤이즌","industry":"카페","coordinates":[127.446223430189,36.3436387246633],"sales":{"202602":843}},{"id":"MA010120220803784754","name":"디에떼가양다솜","industry":"카페","coordinates":[127.442569284858,36.3435621957866],"sales":{"202602":939}},{"id":"MA010120220803787037","name":"비어22","industry":"요리 주점","coordinates":[127.442860468539,36.3458050395861],"sales":{"202602":121}},{"id":"MA010120220803819678","name":"성남우미린공인중개사사무소","industry":"부동산 중개/대리업","coordinates":[127.440611773086,36.3460746921879],"sales":{"202602":50}},{"id":"MA010120220803854670","name":"은지네","industry":"백반/한정식","coordinates":[127.439937144568,36.3489248855852],"sales":{"202602":969}},{"id":"MA010120220803917317","name":"이순신소국밥","industry":"국/탕/찌개류","coordinates":[127.439482531168,36.3393921385226],"sales":{"202602":1624}},{"id":"MA010120220804121357","name":"로켓건축사사무소","industry":"건축 설계 및 관련 서비스업","coordinates":[127.444292450248,36.3409964676684],"sales":{}},{"id":"MA010120220804235059","name":"황바우보신정","industry":"백반/한정식","coordinates":[127.442003525219,36.349890527099],"sales":{"202602":543}},{"id":"MA010120220804288223","name":"현대석유","industry":"가정용 연료 소매업","coordinates":[127.442404727941,36.338101688858],"sales":{"202602":7047}},{"id":"MA010120220804577246","name":"마을","industry":"카페","coordinates":[127.440719123742,36.3433797867521],"sales":{"202602":526}},{"id":"MA010120220804607401","name":"선우도배인테리어","industry":"인테리어 디자인업","coordinates":[127.439969651606,36.348762554732],"sales":{"202602":883}},{"id":"MA010120220804670911","name":"미르여행사","industry":"여행사","coordinates":[127.443197000942,36.3462183317648],"sales":{"202602":1129}},{"id":"MA010120220804681952","name":"금산삼계탕","industry":"국/탕/찌개류","coordinates":[127.442299397881,36.3431126080101],"sales":{"202602":702}},{"id":"MA010120220804887660","name":"형아우","industry":"국수/칼국수","coordinates":[127.439891616408,36.3388499286792],"sales":{"202602":905}},{"id":"MA010120220805006704","name":"애드민","industry":"광고 대행업","coordinates":[127.445588343716,36.3397029637444],"sales":{"202602":1742}},{"id":"MA010120220805012496","name":"신비식당","industry":"요리 주점","coordinates":[127.442000653984,36.3395270398519],"sales":{"202602":374}},{"id":"MA010120220805057932","name":"팀헐크레슬링","industry":"태권도/무술학원","coordinates":[127.4411204871,36.3434413880775],"sales":{"202602":354}},{"id":"MA010120220805079980","name":"머리하는날","industry":"미용실","coordinates":[127.442339294771,36.3403188204302],"sales":{"202602":188}},{"id":"MA010120220805084567","name":"신선만두애","industry":"김밥/만두/분식","coordinates":[127.441602464205,36.3400241578371],"sales":{"202602":454}},{"id":"MA010120220805099764","name":"남천","industry":"카페","coordinates":[127.438878674048,36.3389708055062],"sales":{"202602":1070}},{"id":"MA010120220805125807","name":"으뜸공인중개사사무소","industry":"부동산 중개/대리업","coordinates":[127.440572995649,36.3431460203256],"sales":{"202602":39}},{"id":"MA010120220805207419","name":"클린에이스","industry":"가전제품 수리업","coordinates":[127.443679976558,36.3429903377842],"sales":{"202602":918}},{"id":"MA010120220805221440","name":"에스와이생활건강","industry":"반찬/식료품 소매업","coordinates":[127.438873820589,36.3381056955519],"sales":{"202602":994}},{"id":"MA010120220805243438","name":"개성시대","industry":"의류/이불 수선업","coordinates":[127.443831031886,36.3460537674176],"sales":{"202602":125}},{"id":"MA010120220805279074","name":"정성이가득찬집밥","industry":"백반/한정식","coordinates":[127.440492890621,36.3427678225181],"sales":{"202602":1873}},{"id":"MA010120220805283236","name":"조선가마솥순대","industry":"국/탕/찌개류","coordinates":[127.442565131625,36.344796819255],"sales":{"202602":701}},{"id":"MA010120220805356799","name":"대덕전자","industry":"중고 상품 소매업","coordinates":[127.443663769747,36.3381691155166],"sales":{"202602":323}},{"id":"MA010120220805368519","name":"아침마을114공인중개사사무소","industry":"부동산 중개/대리업","coordinates":[127.44117034506,36.3404312822872],"sales":{"202602":56}},{"id":"MA010120220805532867","name":"대도인테리어","industry":"인테리어 디자인업","coordinates":[127.440194001506,36.3470585109462],"sales":{"202602":242}},{"id":"MA010120220805653870","name":"성우갤러리","industry":"예술품 소매업","coordinates":[127.438718843884,36.3382774877775],"sales":{"202602":897}},{"id":"MA010120220805742314","name":"성심아트","industry":"명함/간판/광고물 제작","coordinates":[127.442898326841,36.3465889202014],"sales":{"202602":1272}},{"id":"MA010120220805743812","name":"현대세탁소","industry":"세탁소","coordinates":[127.441380294672,36.3480274023889],"sales":{"202602":161}},{"id":"MA010120220805743859","name":"천연장","industry":"여관/모텔","coordinates":[127.442773819308,36.3442733654626],"sales":{"202602":1288}},{"id":"MA010120220805744590","name":"대원공인중개사사무소","industry":"부동산 중개/대리업","coordinates":[127.444055802066,36.3444398317113],"sales":{"202602":148}},{"id":"MA010120220805745346","name":"니콘대전센타","industry":"사진기/기타 광학기기 소매업","coordinates":[127.439406227586,36.3496027188561],"sales":{"202602":2247}},{"id":"MA010120220805745732","name":"동바","industry":"생맥주 전문","coordinates":[127.437828929732,36.3484369831811],"sales":{"202602":541}},{"id":"MA010120220805745735","name":"골목식당","industry":"돼지고기 구이/찜","coordinates":[127.44165764851,36.339933836466],"sales":{"202602":1497}},{"id":"MA010120220805745832","name":"모델미용실","industry":"미용실","coordinates":[127.440387790134,36.3478418177801],"sales":{"202602":286}},{"id":"MA010120220805745912","name":"가양직매장","industry":"슈퍼마켓","coordinates":[127.440433668673,36.3480759537532],"sales":{"202602":8872}},{"id":"MA010120220805746683","name":"광고기획아이다","industry":"명함/간판/광고물 제작","coordinates":[127.443294443152,36.3476868828885],"sales":{"202602":1026}},{"id":"MA010120220805747054","name":"하나공인중개사무소","industry":"부동산 중개/대리업","coordinates":[127.440172939588,36.3472748701505],"sales":{"202602":48}},{"id":"MA010120220805747080","name":"현헤어뉴스","industry":"미용실","coordinates":[127.441107232442,36.3391158004804],"sales":{"202602":379}},{"id":"MA010120220805747342","name":"대명물류","industry":"슈퍼마켓","coordinates":[127.440933789608,36.3478668395716],"sales":{"202602":3426}},{"id":"MA010120220805747519","name":"대신","industry":"광고 매체 판매업","coordinates":[127.441554304442,36.3453052157227],"sales":{}},{"id":"MA010120220805747528","name":"손헤어샵","industry":"미용실","coordinates":[127.439300408714,36.3426640711098],"sales":{"202602":436}},{"id":"MA010120220805747559","name":"호성미공","industry":"제품 디자인업","coordinates":[127.440827822852,36.3429017636109],"sales":{}},{"id":"MA010120220805747862","name":"강청골순대국밥","industry":"백반/한정식","coordinates":[127.447985002629,36.3419649625436],"sales":{"202602":1458}},{"id":"MA010120220805748076","name":"컴퓨터라인","industry":"가전제품 수리업","coordinates":[127.445546253166,36.3401356843428],"sales":{"202602":1439}},{"id":"MA010120220805748302","name":"우진모터스","industry":"자동차 정비소","coordinates":[127.439989657986,36.3424182184459],"sales":{"202602":810}},{"id":"MA010120220805748902","name":"다복이네바다","industry":"횟집","coordinates":[127.4420757665,36.3449338066123],"sales":{"202602":2231}},{"id":"MA010120220805749914","name":"우송세탁소","industry":"세탁소","coordinates":[127.442937822863,36.3397939224459],"sales":{"202602":176}},{"id":"MA010120220805750166","name":"청솔종합광고기획","industry":"명함/간판/광고물 제작","coordinates":[127.443967621588,36.346566928889],"sales":{"202602":796}},{"id":"MA010120220805750470","name":"오토만토탈서비스","industry":"자동차 정비소","coordinates":[127.442117420095,36.3444199834913],"sales":{"202602":560}},{"id":"MA010120220805751823","name":"다래미용실","industry":"미용실","coordinates":[127.442552360588,36.3445084909612],"sales":{"202602":159}},{"id":"MA010120220805755305","name":"머리하기좋은날","industry":"미용실","coordinates":[127.4411204871,36.3434413880775],"sales":{"202602":624}},{"id":"MA010120220805755576","name":"광무이동통신","industry":"핸드폰 소매업","coordinates":[127.441522359786,36.3435931035624],"sales":{"202602":242}},{"id":"MA010120220805756807","name":"업소명없음","industry":"당구장","coordinates":[127.438053644482,36.3487786054886],"sales":{"202602":257}},{"id":"MA010120220805758268","name":"가양생필품","industry":"그 외 기타 종합 소매업","coordinates":[127.442314024246,36.3456989225719],"sales":{"202602":2975}},{"id":"MA010120220805758904","name":"상민카","industry":"자동차 정비소","coordinates":[127.442503341672,36.3417510802047],"sales":{"202602":889}},{"id":"MA010120220805759648","name":"석촌부추칼국수","industry":"국수/칼국수","coordinates":[127.439521313241,36.3383646567495],"sales":{"202602":698}},{"id":"MA010120220805760027","name":"강기획","industry":"광고 대행업","coordinates":[127.439406227586,36.3496027188561],"sales":{"202602":1900}},{"id":"MA010120220805761529","name":"첨단시스템","industry":"컴퓨터/사무기기 대여업","coordinates":[127.443851009372,36.3456481651493],"sales":{"202602":227}},{"id":"MA010120220805762647","name":"방아실우가촌","industry":"백반/한정식","coordinates":[127.438352792335,36.3385491834094],"sales":{"202602":948}},{"id":"MA010120220805762733","name":"OK정보통신","industry":"컴퓨터/사무기기 대여업","coordinates":[127.447874232951,36.3420735185956],"sales":{"202602":399}},{"id":"MA010120220805763492","name":"부부반점","industry":"중국집","coordinates":[127.440738342105,36.3388828560635],"sales":{"202602":654}},{"id":"MA010120220805763695","name":"양지공인중개사","industry":"부동산 중개/대리업","coordinates":[127.43792832178,36.3383344576071],"sales":{"202602":104}},{"id":"MA010120220805764204","name":"박가네등갈비","industry":"돼지고기 구이/찜","coordinates":[127.444645699424,36.3463120792364],"sales":{"202602":1075}},{"id":"MA010120220805764219","name":"천안원조닭똥집","industry":"백반/한정식","coordinates":[127.438094266126,36.3480755413893],"sales":{"202602":1521}},{"id":"MA010120220805764542","name":"비아트헤어샵","industry":"미용실","coordinates":[127.440964692002,36.3434689982709],"sales":{"202602":218}},{"id":"MA010120220805765273","name":"현대카오디오","industry":"자동차 부품 소매업","coordinates":[127.446295304278,36.3445216064592],"sales":{"202602":1398}},{"id":"MA010120220805765373","name":"만인건강원","industry":"건강보조식품 소매업","coordinates":[127.439666720051,36.3384722628764],"sales":{"202602":3427}},{"id":"MA010120220805766341","name":"이온워터시스템","industry":"가전제품 소매업","coordinates":[127.443388011613,36.3425768813625],"sales":{"202602":1234}},{"id":"MA010120220805766360","name":"헤어베네","industry":"미용실","coordinates":[127.440448437715,36.3388298543578],"sales":{"202602":131}},{"id":"MA010120220805766992","name":"가양철물","industry":"철물/공구 소매업","coordinates":[127.443440130239,36.341945866152],"sales":{"202602":661}},{"id":"MA010120220805767248","name":"돼지촌","industry":"돼지고기 구이/찜","coordinates":[127.442088383049,36.345195100304],"sales":{"202602":1584}},{"id":"MA010120220805768183","name":"대문수선집","industry":"의류/이불 수선업","coordinates":[127.440407130886,36.3394067583443],"sales":{"202602":87}},{"id":"MA010120220805768589","name":"대동여지도","industry":"자동차 부품 소매업","coordinates":[127.444535482444,36.3465197591634],"sales":{"202602":3512}},{"id":"MA010120220805768798","name":"끌레오","industry":"기타 의류 소매업","coordinates":[127.444130690316,36.3419342900332],"sales":{"202602":260}},{"id":"MA010120220805769658","name":"양지다방","industry":"카페","coordinates":[127.440259946205,36.3389837485737],"sales":{"202602":1178}},{"id":"MA010120220805769814","name":"대성쌀떡방앗간","industry":"떡/한과","coordinates":[127.442569104113,36.3415615901106],"sales":{"202602":1676}},{"id":"MA010120220805770021","name":"화성떡방앗간","industry":"떡/한과","coordinates":[127.440370006317,36.3427051932153],"sales":{"202602":430}},{"id":"MA010120220805770037","name":"가양막창","industry":"곱창 전골/구이","coordinates":[127.445154218583,36.3456252942295],"sales":{"202602":746}},{"id":"MA010120220805771185","name":"우리시스템","industry":"가전제품 소매업","coordinates":[127.44286885236,36.3453183747896],"sales":{"202602":320}},{"id":"MA010120220805771496","name":"굴자랑","industry":"백반/한정식","coordinates":[127.442086294558,36.3448256268217],"sales":{"202602":758}},{"id":"MA010120220805772307","name":"아침현대공인중개사사무소","industry":"부동산 중개/대리업","coordinates":[127.44117034506,36.3404312822872],"sales":{"202602":74}},{"id":"MA010120220805772546","name":"대원산업","industry":"건축물 일반 청소업","coordinates":[127.443614721333,36.3393408245214],"sales":{"202602":564}},{"id":"MA010120220805772673","name":"희원숯불갈비","industry":"돼지고기 구이/찜","coordinates":[127.4430940078,36.3418029621098],"sales":{"202602":2762}},{"id":"MA010120220805773084","name":"신성숯불구이식당","industry":"돼지고기 구이/찜","coordinates":[127.440628531052,36.3391626251163],"sales":{"202602":475}},{"id":"MA010120220805773088","name":"가양카서비스","industry":"자동차 정비소","coordinates":[127.442916829217,36.345921983264],"sales":{"202602":1697}},{"id":"MA010120220805773310","name":"상록수헤어갤러리","industry":"미용실","coordinates":[127.439065225051,36.3424396418677],"sales":{"202602":140}},{"id":"MA010120220805773415","name":"새천년카클리닉","industry":"자동차 정비소","coordinates":[127.440218891484,36.3396057102843],"sales":{"202602":5559}},{"id":"MA010120220805773639","name":"남일수산","industry":"슈퍼마켓","coordinates":[127.440851457164,36.3451185641582],"sales":{"202602":19367}},{"id":"MA010120220805774251","name":"나이스치킨","industry":"치킨","coordinates":[127.441890744765,36.3397887868967],"sales":{"202602":959}},{"id":"MA010120220805776022","name":"작은아씨들공방","industry":"기타 기술/직업 훈련학원","coordinates":[127.440572995649,36.3431460203256],"sales":{"202602":450}},{"id":"MA010120220805777008","name":"세이","industry":"마사지/안마","coordinates":[127.444301296083,36.3464755714234],"sales":{"202602":536}},{"id":"MA010120220805777888","name":"고려전기","industry":"전기용품/조명장치 소매업","coordinates":[127.442382237117,36.3459419869329],"sales":{"202602":457}},{"id":"MA010120220805778170","name":"한국피자헛","industry":"피자","coordinates":[127.446969339766,36.3435638432528],"sales":{"202602":1839}},{"id":"MA010120220805778734","name":"화성코킹인테리어","industry":"인테리어 디자인업","coordinates":[127.442215450909,36.345996674653],"sales":{"202602":784}},{"id":"MA010120220805778964","name":"칠칠이불","industry":"침구류/커튼 소매업","coordinates":[127.440268782718,36.3464904961643],"sales":{"202602":420}},{"id":"MA010120220805779244","name":"오병이어카플러스","industry":"자동차 정비소","coordinates":[127.441390220215,36.3399168009828],"sales":{"202602":462}},{"id":"MA010120220805779295","name":"그린원시스템","industry":"건축물 일반 청소업","coordinates":[127.440001733795,36.3386242296373],"sales":{"202602":1358}},{"id":"MA010120220805780080","name":"홍제희미용실","industry":"미용실","coordinates":[127.442764448114,36.346553369376],"sales":{"202602":136}},{"id":"MA010120220805780392","name":"호텔선샤인","industry":"호텔/리조트","coordinates":[127.438534832077,36.3491643450727],"sales":{"202602":14274}},{"id":"MA010120220805780483","name":"예쁨헤어","industry":"미용실","coordinates":[127.442371255219,36.342030933196],"sales":{"202602":766}},{"id":"MA010120220805781919","name":"진미용실","industry":"미용실","coordinates":[127.444757081355,36.3423915592389],"sales":{"202602":453}},{"id":"MA010120220805782935","name":"사랑이네","industry":"김밥/만두/분식","coordinates":[127.443997292173,36.3439444035576],"sales":{"202602":526}},{"id":"MA010120220805783041","name":"중앙반점","industry":"중국집","coordinates":[127.442531533609,36.3427963377399],"sales":{"202602":1873}},{"id":"MA010120220805783115","name":"구룡포회수산","industry":"횟집","coordinates":[127.443701084393,36.3447475483105],"sales":{"202602":1181}},{"id":"MA010120220805783339","name":"맑은청소","industry":"건축물 일반 청소업","coordinates":[127.442764623294,36.3387131548263],"sales":{"202602":400}},{"id":"MA010120220805783653","name":"비트주짓수","industry":"태권도/무술학원","coordinates":[127.441969707235,36.3439068608089],"sales":{"202602":335}},{"id":"MA010120220805784531","name":"에스에이통신","industry":"핸드폰 소매업","coordinates":[127.438138689321,36.3381083928572],"sales":{"202602":489}},{"id":"MA010120220805784791","name":"팀에이스포츠","industry":"운동용품 소매업","coordinates":[127.444169395946,36.3389422475401],"sales":{"202602":995}},{"id":"MA010120220805784844","name":"싱싱횟집","industry":"횟집","coordinates":[127.442566610445,36.3450581541439],"sales":{"202602":1920}},{"id":"MA010120220805784905","name":"두원수산","industry":"횟집","coordinates":[127.441867581561,36.3455473746508],"sales":{"202602":782}},{"id":"MA010120220805785516","name":"디지털사진관","industry":"사진촬영업","coordinates":[127.438886273432,36.3383399552736],"sales":{"202602":590}},{"id":"MA010120220805785629","name":"카119","industry":"자동차 정비소","coordinates":[127.442641568452,36.3405880535425],"sales":{"202602":1008}},{"id":"MA010120220805786173","name":"올레마운틴","industry":"유아용 의류 소매업","coordinates":[127.442664144547,36.3367039073345],"sales":{"202602":225}},{"id":"MA010120220805786385","name":"헤어샵라비","industry":"미용실","coordinates":[127.44117034506,36.3404312822872],"sales":{"202602":248}},{"id":"MA010120220805787633","name":"후니","industry":"명함/간판/광고물 제작","coordinates":[127.443231078058,36.3482999156994],"sales":{"202602":306}},{"id":"MA010120220805788298","name":"명성카센타","industry":"자동차 정비소","coordinates":[127.444435943541,36.3466462936703],"sales":{"202602":908}},{"id":"MA010120220805788550","name":"더크린주방","industry":"주방/가정용품 소매업","coordinates":[127.440237139586,36.3468060234658],"sales":{"202602":346}},{"id":"MA010120220805788911","name":"흑염소토속마을","industry":"기타 한식 음식점","coordinates":[127.440971782269,36.3486777552851],"sales":{"202602":616}},{"id":"MA010120220805789092","name":"경원통신","industry":"핸드폰 소매업","coordinates":[127.44172347484,36.3437005012203],"sales":{"202602":299}},{"id":"MA010120220805789544","name":"박가네왕솥뚜껑생삼겹살","industry":"돼지고기 구이/찜","coordinates":[127.442575709983,36.3446976509718],"sales":{"202602":1487}},{"id":"MA010120220805790576","name":"황기누룽지삼계탕","industry":"국/탕/찌개류","coordinates":[127.441032004919,36.349479577101],"sales":{"202602":2034}},{"id":"MA010120220805791200","name":"선샤인","industry":"일반 유흥 주점","coordinates":[127.438534832077,36.3491643450727],"sales":{"202602":1393}},{"id":"MA010120220805791989","name":"버블빈","industry":"카페","coordinates":[127.438517797439,36.3381790964054],"sales":{"202602":1656}},{"id":"MA010120220805792515","name":"사또할인마트","industry":"슈퍼마켓","coordinates":[127.444447802169,36.342852308575],"sales":{"202602":2404}},{"id":"MA010120220805792709","name":"이바돔감자탕","industry":"국/탕/찌개류","coordinates":[127.442117473054,36.3503406920207],"sales":{"202602":2495}},{"id":"MA010120220805793419","name":"현광고기획","industry":"광고물 설계/제작업","coordinates":[127.441554304442,36.3453052157227],"sales":{"202602":913}},{"id":"MA010120220805793476","name":"계룡건강원","industry":"건강보조식품 소매업","coordinates":[127.438979324878,36.3390425298195],"sales":{"202602":668}},{"id":"MA010120220805793647","name":"울엄마양평해장국","industry":"국/탕/찌개류","coordinates":[127.4420987583,36.3450598858721],"sales":{"202602":2368}},{"id":"MA010120220805793753","name":"양지석유","industry":"가정용 연료 소매업","coordinates":[127.443077662199,36.3408838250352],"sales":{"202602":2888}},{"id":"MA010120220805793893","name":"제일상회","industry":"채소/과일 소매업","coordinates":[127.443252454304,36.342243949837],"sales":{"202602":872}},{"id":"MA010120220805794494","name":"예성활어회","industry":"횟집","coordinates":[127.442940972386,36.3423171986508],"sales":{"202602":652}},{"id":"MA010120220805795550","name":"동부식당","industry":"백반/한정식","coordinates":[127.441226732557,36.3464779512834],"sales":{"202602":2606}},{"id":"MA010120220805795624","name":"건영카크리닉","industry":"자동차 정비소","coordinates":[127.442018134545,36.3445915737825],"sales":{"202602":431}},{"id":"MA010120220805795955","name":"약손발체형관리","industry":"마사지/안마","coordinates":[127.437741526249,36.3487437023073],"sales":{"202602":530}},{"id":"MA010120220805796493","name":"동현카센타","industry":"자동차 정비소","coordinates":[127.44254045648,36.3443733589824],"sales":{"202602":538}},{"id":"MA010120220805796698","name":"선수선","industry":"의류/이불 수선업","coordinates":[127.444438865005,36.3432398465845],"sales":{"202602":140}},{"id":"MA010120220805796899","name":"대한공예자격협회","industry":"기념품점","coordinates":[127.440772719919,36.3449836785398],"sales":{"202602":415}},{"id":"MA010120220805797193","name":"국일목욕탕","industry":"목욕탕/사우나","coordinates":[127.439521313241,36.3383646567495],"sales":{"202602":3269}},{"id":"MA010120220805797619","name":"복권전문판매점","industry":"담배/전자담배 소매업","coordinates":[127.442314024246,36.3456989225719],"sales":{"202602":1286}},{"id":"MA010120220805797681","name":"위위","industry":"카페","coordinates":[127.442282586524,36.349988623581],"sales":{"202602":1201}},{"id":"MA010120220805797796","name":"아침마을미트팜","industry":"정육점","coordinates":[127.44117034506,36.3404312822872],"sales":{"202602":5065}},{"id":"MA010120220805798479","name":"대전선샤인호텔점투썸플레이스","industry":"카페","coordinates":[127.438534832077,36.3491643450727],"sales":{"202602":753}},{"id":"MA010120220805798532","name":"새천년카","industry":"자동차 정비소","coordinates":[127.442264706813,36.3428874429061],"sales":{"202602":1282}},{"id":"MA010120220805798932","name":"꿀같은밤","industry":"요리 주점","coordinates":[127.440419940547,36.3476164059598],"sales":{"202602":329}},{"id":"MA010120220805811713","name":"고속모터스주","industry":"자동차 정비소","coordinates":[127.439807165785,36.3495832204186],"sales":{"202602":937}},{"id":"MA010120220805812885","name":"케이오에스씨주","industry":"건축물 일반 청소업","coordinates":[127.443731843634,36.3442788237803],"sales":{"202602":337}},{"id":"MA010120220805813534","name":"어울림주","industry":"소독, 구충 및 방제 서비스업","coordinates":[127.444271000278,36.3470253997947],"sales":{"202602":506}},{"id":"MA010120220805815533","name":"대교동대전H/L사업국","industry":"입시·교과학원","coordinates":[127.442571309465,36.3498253434783],"sales":{"202602":507}},{"id":"MA010120220805815598","name":"시스원대전지사주","industry":"컴퓨터/노트북/프린터 수리업","coordinates":[127.439406227586,36.3496027188561],"sales":{"202602":927}},{"id":"MA010120220805815795","name":"짬뽕가","industry":"중국집","coordinates":[127.445154218583,36.3456252942295],"sales":{"202602":1800}},{"id":"MA010120220805816389","name":"다솜주","industry":"슈퍼마켓","coordinates":[127.438404242241,36.3377920078202],"sales":{"202602":5495}},{"id":"MA010120220805817811","name":"청화이엔지","industry":"건축 설계 및 관련 서비스업","coordinates":[127.442083729785,36.348313177542],"sales":{}},{"id":"MA010120220805818013","name":"(엠케이렌트카","industry":"자동차 대여업","coordinates":[127.441002174246,36.3441897990749],"sales":{"202602":687}},{"id":"MA010120220805818573","name":"신영에너지","industry":"주유소","coordinates":[127.446680649099,36.3437271339292],"sales":{"202602":4981}},{"id":"MA010120220805818961","name":"가양기아오토큐","industry":"자동차 정비소","coordinates":[127.438106889225,36.3383968853828],"sales":{"202602":296}},{"id":"MA010120220805824627","name":"가나전자음향","industry":"그 외 기타 개인/가정용품 수리업","coordinates":[127.439300408714,36.3426640711098],"sales":{"202602":2305}},{"id":"MA010120220805824714","name":"별난왕갈비","industry":"돼지고기 구이/찜","coordinates":[127.444281914392,36.3450247541671],"sales":{"202602":1325}},{"id":"MA010120220805824750","name":"대성철물","industry":"철물/공구 소매업","coordinates":[127.442400339583,36.3412648274855],"sales":{"202602":514}},{"id":"MA010120220805824979","name":"한일석유판매소","industry":"가정용 연료 소매업","coordinates":[127.445582287892,36.3425506965887],"sales":{"202602":4588}},{"id":"MA010120220805825076","name":"옥천이용원","industry":"미용실","coordinates":[127.441544075168,36.3395467511015],"sales":{"202602":138}},{"id":"MA010120220805825280","name":"직영고기마을","industry":"돼지고기 구이/찜","coordinates":[127.440592286402,36.3465704094803],"sales":{"202602":810}},{"id":"MA010120220805826014","name":"아담헤어숍","industry":"미용실","coordinates":[127.443725293862,36.3411607861867],"sales":{"202602":342}},{"id":"MA010120220805826254","name":"신화공조","industry":"가전제품 수리업","coordinates":[127.440321588384,36.3459766326755],"sales":{"202602":584}},{"id":"MA010120220805826323","name":"성원불교사","industry":"그 외 기타 상품 전문 소매업","coordinates":[127.43949058188,36.3428075597454],"sales":{"202602":1300}},{"id":"MA010120220805826415","name":"한일부동산","industry":"부동산 중개/대리업","coordinates":[127.439916284275,36.3491772908638],"sales":{"202602":89}},{"id":"MA010120220805826594","name":"거상당구장","industry":"당구장","coordinates":[127.440719123742,36.3433797867521],"sales":{"202602":148}},{"id":"MA010120220805826665","name":"민정양품","industry":"기타 의류 소매업","coordinates":[127.442620033771,36.3426878691095],"sales":{"202602":829}},{"id":"MA010120220805826723","name":"대전백반","industry":"백반/한정식","coordinates":[127.441414578694,36.3481804752034],"sales":{"202602":2292}},{"id":"MA010120220805826728","name":"대도종합의류","industry":"기타 의류 소매업","coordinates":[127.440628531052,36.3391626251163],"sales":{"202602":559}},{"id":"MA010120220805826737","name":"아침마을세탁","industry":"세탁소","coordinates":[127.44117034506,36.3404312822872],"sales":{"202602":138}},{"id":"MA010120220805827134","name":"승인종합서비스","industry":"자동차 정비소","coordinates":[127.442428427955,36.3422920620366],"sales":{"202602":365}},{"id":"MA010120220805827392","name":"오복식당","industry":"백반/한정식","coordinates":[127.442024305963,36.3397702694855],"sales":{"202602":3423}},{"id":"MA010120220805827629","name":"꽃댕기미용실","industry":"미용실","coordinates":[127.443909519727,36.3461435932311],"sales":{"202602":153}},{"id":"MA010120220805828042","name":"신호카포스","industry":"자동차 정비소","coordinates":[127.440347645923,36.3486259864505],"sales":{"202602":2105}},{"id":"MA010120220805828228","name":"수정자갈치꼼장어","industry":"횟집","coordinates":[127.437741526249,36.3487437023073],"sales":{"202602":1578}},{"id":"MA010120220805829106","name":"신바람숯불갈비","industry":"돼지고기 구이/찜","coordinates":[127.444301296083,36.3464755714234],"sales":{"202602":1120}},{"id":"MA010120220805829527","name":"영락슈퍼","industry":"슈퍼마켓","coordinates":[127.439429620834,36.3478183098586],"sales":{"202602":3121}},{"id":"MA010120220805831708","name":"건우보일러","industry":"철물/공구 소매업","coordinates":[127.439969651606,36.348762554732],"sales":{"202602":1095}},{"id":"MA010120220805835330","name":"위즈덤푸드그때그갈비찜,그램","industry":"백반/한정식","coordinates":[127.439398588508,36.3383290610342],"sales":{"202602":3426}},{"id":"MA010120220805841463","name":"영이미용실","industry":"미용실","coordinates":[127.437697874695,36.34890607339],"sales":{"202602":367}},{"id":"MA010120220805841528","name":"뱅크공인중개사사무소","industry":"부동산 중개/대리업","coordinates":[127.438096739886,36.348517107252],"sales":{"202602":51}},{"id":"MA010120220805841867","name":"황금공인중개사사무소","industry":"부동산 중개/대리업","coordinates":[127.442714023394,36.3455172066672],"sales":{"202602":86}},{"id":"MA010120220805843326","name":"온조식당","industry":"백반/한정식","coordinates":[127.441534575563,36.3497030144421],"sales":{"202602":1296}},{"id":"MA010120220805848775","name":"국일부동산중개사무소","industry":"부동산 중개/대리업","coordinates":[127.440943125036,36.3435952422016],"sales":{"202602":64}},{"id":"MA010120220805848801","name":"광명전자","industry":"전기용품/조명장치 소매업","coordinates":[127.440569470772,36.3444977941899],"sales":{"202602":1123}},{"id":"MA010120220805848802","name":"청호사","industry":"세탁소","coordinates":[127.443809153434,36.3441613841091],"sales":{"202602":85}},{"id":"MA010120220805848818","name":"썬헤어클럽","industry":"미용실","coordinates":[127.440840861692,36.3471913024158],"sales":{"202602":380}},{"id":"MA010120220805848824","name":"미미이용원","industry":"미용실","coordinates":[127.44310413596,36.339658129759],"sales":{"202602":730}},{"id":"MA010120220805848833","name":"지하이용원","industry":"미용실","coordinates":[127.442773819308,36.3442733654626],"sales":{"202602":127}},{"id":"MA010120220805848839","name":"송이쌍방울","industry":"기타 의류 소매업","coordinates":[127.44298310449,36.3458226085183],"sales":{"202602":806}},{"id":"MA010120220805848844","name":"광고마당","industry":"기타 광고 관련 서비스업","coordinates":[127.444156722512,36.3386719422805],"sales":{"202602":474}},{"id":"MA010120220805848847","name":"21세기최첨단팔팔세탁소","industry":"세탁소","coordinates":[127.440236249258,36.3387315069596],"sales":{"202602":199}},{"id":"MA010120220805848867","name":"송미용실","industry":"미용실","coordinates":[127.440341517135,36.3396232820162],"sales":{"202602":280}},{"id":"MA010120220805848874","name":"동광이용원","industry":"미용실","coordinates":[127.442799074011,36.342831393693],"sales":{"202602":298}},{"id":"MA010120220805848888","name":"궁전식당","industry":"일반 유흥 주점","coordinates":[127.439858676321,36.3428963228937],"sales":{"202602":438}},{"id":"MA010120220805848900","name":"삽다리순대","industry":"국/탕/찌개류","coordinates":[127.442677411851,36.3429850439962],"sales":{"202602":2087}},{"id":"MA010120220805848938","name":"주은세탁","industry":"세탁소","coordinates":[127.442430697708,36.3407240105382],"sales":{"202602":71}},{"id":"MA010120220805848952","name":"세종카","industry":"자동차 정비소","coordinates":[127.442363429066,36.3426167253127],"sales":{"202602":5063}},{"id":"MA010120220805848957","name":"롯데슈퍼","industry":"슈퍼마켓","coordinates":[127.443875528385,36.3440800319526],"sales":{"202602":1960}},{"id":"MA010120220805848978","name":"청산지업사","industry":"벽지/장판/마루 소매업","coordinates":[127.440997499616,36.3433607363335],"sales":{"202602":317}},{"id":"MA010120220805848989","name":"청솔식당","industry":"백반/한정식","coordinates":[127.441521858216,36.3494236977966],"sales":{"202602":666}},{"id":"MA010120220805848997","name":"동부상회","industry":"기타 의류 소매업","coordinates":[127.438095881637,36.348363910936],"sales":{"202602":298}},{"id":"MA010120220805849034","name":"매봉주유소","industry":"주유소","coordinates":[127.443499606245,36.3445770732061],"sales":{"202602":25279}},{"id":"MA010120220805849065","name":"오성상사","industry":"철물/공구 소매업","coordinates":[127.440950073221,36.3468033949083],"sales":{"202602":925}},{"id":"MA010120220805849093","name":"한밭출력센타","industry":"복사업","coordinates":[127.442461082102,36.3500330214419],"sales":{"202602":410}},{"id":"MA010120220805849458","name":"부산아구탕","industry":"백반/한정식","coordinates":[127.43781900079,36.3486533011519],"sales":{"202602":1261}},{"id":"MA010120220805849949","name":"동부슈퍼","industry":"슈퍼마켓","coordinates":[127.439228342094,36.3496664549486],"sales":{"202602":14403}},{"id":"MA010120220805850864","name":"선호상사","industry":"자동차 부품 소매업","coordinates":[127.441241300991,36.3391873995319],"sales":{"202602":609}},{"id":"MA010120220805852670","name":"깨끗한물수건","industry":"그 외 기타 상품 전문 소매업","coordinates":[127.438649739773,36.3378722127534],"sales":{"202602":2232}},{"id":"MA010120220805856816","name":"김영옥건강","industry":"그 외 기타 간이 음식점","coordinates":[127.440172939588,36.3472748701505],"sales":{"202602":534}},{"id":"MA010120220805856878","name":"행복오리","industry":"닭/오리고기 구이/찜","coordinates":[127.441343518739,36.3474327638421],"sales":{"202602":1623}},{"id":"MA010120220805857113","name":"간판집","industry":"명함/간판/광고물 제작","coordinates":[127.443337319004,36.3454247785914],"sales":{"202602":631}},{"id":"MA010120220805859018","name":"삼성김밥","industry":"반찬/식료품 소매업","coordinates":[127.439396614476,36.3379776101172],"sales":{"202602":820}},{"id":"MA010120220805863308","name":"민재산업주","industry":"상용 인력 공급 및 인사관리 서비스업","coordinates":[127.444271000278,36.3470253997947],"sales":{"202602":4646}},{"id":"MA010120220805864153","name":"현대자동차대전하이테크센터주","industry":"자동차 정비소","coordinates":[127.445629927071,36.3450467701911],"sales":{"202602":3069}},{"id":"MA010120220805938697","name":"푸른디자인","industry":"시각 디자인업","coordinates":[127.44614314314,36.3432334962286],"sales":{"202602":324}},{"id":"MA010120220805938835","name":"풍년잡화","industry":"예술품 소매업","coordinates":[127.438873820589,36.3381056955519],"sales":{"202602":533}},{"id":"MA010120220805960813","name":"사랑방카페","industry":"카페","coordinates":[127.443831031886,36.3460537674176],"sales":{"202602":1307}},{"id":"MA010120220805964858","name":"게대박","industry":"돼지고기 구이/찜","coordinates":[127.444082429843,36.3452057303531],"sales":{"202602":1267}},{"id":"MA010120220805990057","name":"제이에이치건축사무소","industry":"건축 설계 및 관련 서비스업","coordinates":[127.442013478264,36.3477096513514],"sales":{}},{"id":"MA010120220806068799","name":"정보통신블루피아","industry":"핸드폰 소매업","coordinates":[127.439228342094,36.3496664549486],"sales":{"202602":806}},{"id":"MA010120220806175190","name":"우정호프","industry":"요리 주점","coordinates":[127.442580146589,36.3454816556158],"sales":{"202602":462}},{"id":"MA010120220806176720","name":"행복마트","industry":"슈퍼마켓","coordinates":[127.444061210882,36.3434304969921],"sales":{"202602":4007}},{"id":"MA010120220806178432","name":"씨유","industry":"편의점","coordinates":[127.443553104991,36.3441893699506],"sales":{"202602":5003}},{"id":"MA010120220806182223","name":"한고을공인중개사","industry":"부동산 중개/대리업","coordinates":[127.44172347484,36.3437005012203],"sales":{"202602":54}},{"id":"MA010120220806186084","name":"웅진카센타","industry":"자동차 정비소","coordinates":[127.440786280925,36.3473897618987],"sales":{"202602":692}},{"id":"MA010120220806200205","name":"대주카서비스","industry":"자동차 정비소","coordinates":[127.447476583469,36.3426607712245],"sales":{"202602":1809}},{"id":"MA010120220806203622","name":"먹골가마솥추어탕","industry":"국/탕/찌개류","coordinates":[127.440764763446,36.34752501727],"sales":{"202602":804}},{"id":"MA010120220806245307","name":"합자회사금강위생","industry":"사업시설 유지·관리 서비스업","coordinates":[127.44299771386,36.3385681031075],"sales":{"202602":352}},{"id":"MA010120220806250375","name":"대한사회복지원","industry":"소독, 구충 및 방제 서비스업","coordinates":[127.442365722565,36.3430222451222],"sales":{"202602":982}},{"id":"MA010120220806369345","name":"국제공인중개사사무소","industry":"부동산 중개/대리업","coordinates":[127.443841369866,36.3380603151204],"sales":{"202602":41}},{"id":"MA010120220806434450","name":"도투락식당","industry":"백반/한정식","coordinates":[127.442061869876,36.3365619485821],"sales":{"202602":1931}},{"id":"MA010120220806468801","name":"다올","industry":"카페","coordinates":[127.444335900037,36.3427626073001],"sales":{"202602":734}},{"id":"MA010120220806469250","name":"예산건강원","industry":"건강보조식품 소매업","coordinates":[127.438192756737,36.3477597695886],"sales":{"202602":1112}},{"id":"MA010120220806567036","name":"삼성실사","industry":"명함/간판/광고물 제작","coordinates":[127.442461082102,36.3500330214419],"sales":{"202602":387}},{"id":"MA010120220806573353","name":"화연유통","industry":"화장품 소매업","coordinates":[127.442903685659,36.3475351323484],"sales":{"202602":2384}},{"id":"MA010120220806625619","name":"기찬민물","industry":"수산물 소매업","coordinates":[127.442159587487,36.3499079732002],"sales":{"202602":3172}},{"id":"MA010120220806647633","name":"화신상회","industry":"채소/과일 소매업","coordinates":[127.439403144097,36.3391401015326],"sales":{"202602":1847}},{"id":"MA010120220806796634","name":"대문수선","industry":"의류/이불 수선업","coordinates":[127.440407130886,36.3394067583443],"sales":{"202602":496}},{"id":"MA010120220806851998","name":"곰","industry":"국수/칼국수","coordinates":[127.437828929732,36.3484369831811],"sales":{"202602":2186}},{"id":"MA010120220806882875","name":"이안CCTV","industry":"핸드폰/통신장비 수리업","coordinates":[127.444969387921,36.3425079215396],"sales":{}},{"id":"MA010120220806892666","name":"린나이냉난방","industry":"가전제품 수리업","coordinates":[127.439845570895,36.3445274959894],"sales":{"202602":529}},{"id":"MA010120220806910393","name":"씨유대전","industry":"편의점","coordinates":[127.440825876904,36.3445328955831],"sales":{"202602":5147}},{"id":"MA010120220806940241","name":"족발의정석","industry":"족발/보쌈","coordinates":[127.44166533652,36.3432681526189],"sales":{"202602":1252}},{"id":"MA010120220806952093","name":"더기테이블","industry":"백반/한정식","coordinates":[127.445291193229,36.3403348933106],"sales":{"202602":1672}},{"id":"MA010120220806959357","name":"짱구포차","industry":"백반/한정식","coordinates":[127.44395074057,36.3435931187219],"sales":{"202602":3209}},{"id":"MA010120220806999751","name":"다하나","industry":"돼지고기 구이/찜","coordinates":[127.442399677002,36.3411476772872],"sales":{"202602":2380}},{"id":"MA010120220807074991","name":"청주식당","industry":"백반/한정식","coordinates":[127.442218571258,36.3426082496906],"sales":{"202602":3643}},{"id":"MA010120220807083676","name":"이마트24","industry":"편의점","coordinates":[127.442990239618,36.3490487824177],"sales":{"202602":3826}},{"id":"MA010120220807093380","name":"하나로정육식당","industry":"소고기 구이/찜","coordinates":[127.447682447442,36.3416506854406],"sales":{"202602":2030}},{"id":"MA010120220807140074","name":"스텔라헤어","industry":"네일숍","coordinates":[127.442607234526,36.3404259693247],"sales":{"202602":128}},{"id":"MA010120220807148571","name":"율샵","industry":"액세서리/잡화 소매업","coordinates":[127.44148614885,36.3490183018505],"sales":{"202602":209}},{"id":"MA010120220807151357","name":"병수개성손만두","industry":"김밥/만두/분식","coordinates":[127.441326378176,36.3463694425065],"sales":{"202602":450}},{"id":"MA010120220807174225","name":"미니스톱가양","industry":"편의점","coordinates":[127.447850510425,36.3418212787983],"sales":{"202602":3737}},{"id":"MA010120220807212401","name":"대박식당","industry":"백반/한정식","coordinates":[127.441330452152,36.3431432254543],"sales":{"202602":2479}},{"id":"MA010120220807413253","name":"대전탑산업쇼핑","industry":"건강보조식품 소매업","coordinates":[127.443741923501,36.3480186561601],"sales":{"202602":364}},{"id":"MA010120220807432641","name":"가야숯불치킨","industry":"치킨","coordinates":[127.443731843634,36.3442788237803],"sales":{"202602":645}},{"id":"MA010120220807565967","name":"담다","industry":"정육점","coordinates":[127.443117714991,36.3420552029579],"sales":{"202602":3028}},{"id":"MA010120220808037945","name":"왔다삼겹살","industry":"돼지고기 구이/찜","coordinates":[127.446969339766,36.3435638432528],"sales":{"202602":1174}},{"id":"MA010120220808041614","name":"대전부동산씨앤디","industry":"부동산 중개/대리업","coordinates":[127.438873820589,36.3381056955519],"sales":{"202602":125}},{"id":"MA010120220808210795","name":"스카이비어","industry":"요리 주점","coordinates":[127.444843852737,36.345896802003],"sales":{"202602":211}},{"id":"MA010120220808214472","name":"마카롱부띠끄","industry":"빵/도넛","coordinates":[127.44213813692,36.346114113286],"sales":{"202602":1848}},{"id":"MA010120220808237248","name":"리더스파츠","industry":"자동차 부품 소매업","coordinates":[127.44100495808,36.3466590046202],"sales":{"202602":663}},{"id":"MA010120220808308362","name":"제이디자인","industry":"명함/간판/광고물 제작","coordinates":[127.440302223956,36.3484729543745],"sales":{"202602":532}},{"id":"MA010120220808319036","name":"성원식당","industry":"백반/한정식","coordinates":[127.438096739886,36.348517107252],"sales":{"202602":1538}},{"id":"MA010120220808357144","name":"월드유통","industry":"슈퍼마켓","coordinates":[127.442620033771,36.3426878691095],"sales":{"202602":2400}},{"id":"MA010120220808362606","name":"세종과학아카데미협동조합","industry":"교육컨설팅업","coordinates":[127.441888865786,36.349314200438],"sales":{"202602":715}},{"id":"MA010120220808370661","name":"은미포차","industry":"요리 주점","coordinates":[127.447301665435,36.3412916416639],"sales":{"202602":89}},{"id":"MA010120220808372944","name":"중앙청과","industry":"채소/과일 소매업","coordinates":[127.445961721957,36.3407198979424],"sales":{"202602":1507}},{"id":"MA010120220808394126","name":"아줌마돈까스","industry":"경양식","coordinates":[127.441030022742,36.3491281269184],"sales":{"202602":4361}},{"id":"MA010120220808429255","name":"김밥마마","industry":"김밥/만두/분식","coordinates":[127.44213813692,36.346114113286],"sales":{"202602":786}},{"id":"MA010120220808501317","name":"최고다공인중개사사무소","industry":"부동산 중개/대리업","coordinates":[127.445184739654,36.3392448689469],"sales":{"202602":64}},{"id":"MA010120220808520791","name":"베스트종합유통","industry":"건강보조식품 소매업","coordinates":[127.443235532366,36.3451548040842],"sales":{"202602":419}},{"id":"MA010120220808537450","name":"풍운공인중개사","industry":"부동산 중개/대리업","coordinates":[127.44395074057,36.3435931187219],"sales":{"202602":103}},{"id":"MA010120220808701510","name":"대패가1900","industry":"돼지고기 구이/찜","coordinates":[127.439110236245,36.3425205821633],"sales":{"202602":5336}},{"id":"MA010120220808764842","name":"본요가,필라테스","industry":"요가/필라테스 학원","coordinates":[127.442990239618,36.3490487824177],"sales":{"202602":489}},{"id":"MA010120220808782283","name":"다정플러스대전지사","industry":"기념품점","coordinates":[127.442748925945,36.3398757281036],"sales":{"202602":755}},{"id":"MA010120220808914398","name":"파티박스","industry":"백반/한정식","coordinates":[127.446295304278,36.3445216064592],"sales":{"202602":1639}},{"id":"MA010120220808971630","name":"홈마트","industry":"슈퍼마켓","coordinates":[127.442190467787,36.3396074433898],"sales":{"202602":8659}},{"id":"MA010120220809458527","name":"벨라헤어샵","industry":"미용실","coordinates":[127.438083401273,36.3381806895228],"sales":{"202602":330}},{"id":"MA010120220809606314","name":"현대매점","industry":"슈퍼마켓","coordinates":[127.445629927071,36.3450467701911],"sales":{"202602":7479}},{"id":"MA010120220809619880","name":"살롱드엘렌","industry":"미용실","coordinates":[127.44072453909,36.3463175932158],"sales":{"202602":427}},{"id":"MA010120220809722815","name":"디케이인테리어","industry":"인테리어 디자인업","coordinates":[127.441018547374,36.3451179476372],"sales":{"202602":796}},{"id":"MA010120220809724232","name":"미래인더스트리","industry":"건축물 일반 청소업","coordinates":[127.44596829842,36.3418733762428],"sales":{"202602":257}},{"id":"MA010120220809730830","name":"영재여인숙","industry":"여관/모텔","coordinates":[127.437964929263,36.3488510245268],"sales":{"202602":499}},{"id":"MA010120220809743248","name":"미래농산","industry":"곡물/곡분 소매업","coordinates":[127.444731945761,36.3458071011777],"sales":{"202602":335}},{"id":"MA010120220809809820","name":"대전이불","industry":"침구류/커튼 소매업","coordinates":[127.442773819308,36.3442733654626],"sales":{"202602":280}},{"id":"MA010120220809825872","name":"제일철물","industry":"철물/공구 소매업","coordinates":[127.441107232442,36.3391158004804],"sales":{"202602":635}},{"id":"MA010120220809906616","name":"떡수레","industry":"떡/한과","coordinates":[127.442458276456,36.3416611296447],"sales":{"202602":796}},{"id":"MA010120220809917439","name":"텐빌리언커피","industry":"카페","coordinates":[127.441670444243,36.3500900167099],"sales":{"202602":753}},{"id":"MA010120220809927357","name":"숙이의뿌리효소이야기","industry":"건강보조식품 소매업","coordinates":[127.441390220215,36.3399168009828],"sales":{"202602":1183}},{"id":"MA010120220809939439","name":"베스트노래연습장","industry":"노래방","coordinates":[127.442457409296,36.3454460631702],"sales":{"202602":559}},{"id":"MA010120220809939918","name":"대전출장홈타이아로마","industry":"가전제품 소매업","coordinates":[127.445439636688,36.3429297214207],"sales":{"202602":960}},{"id":"MA010120220809942647","name":"대전입주청소클린애드","industry":"건축물 일반 청소업","coordinates":[127.441722013217,36.3473863066975],"sales":{"202602":419}},{"id":"MA010120220809977094","name":"제이에스래버러토리","industry":"부동산 중개/대리업","coordinates":[127.444425449701,36.3408788204982],"sales":{"202602":29}},{"id":"MA010120220810004259","name":"오복중고","industry":"중고 상품 소매업","coordinates":[127.442778975174,36.3392808416257],"sales":{"202602":287}},{"id":"MA010120220810013649","name":"수정리폼하우스","industry":"의류/이불 수선업","coordinates":[127.440964692002,36.3434689982709],"sales":{"202602":316}},{"id":"MA010120220810051216","name":"애플노래연습장","industry":"노래방","coordinates":[127.445044619281,36.3459411131543],"sales":{"202602":695}},{"id":"MA010120220810062917","name":"조은인테리어","industry":"인테리어 디자인업","coordinates":[127.440565873602,36.347814126161],"sales":{"202602":514}},{"id":"MA010120220810075139","name":"소나무약손뷰티","industry":"피부 관리실","coordinates":[127.440827822852,36.3429017636109],"sales":{"202602":264}},{"id":"MA010120220810110346","name":"하늘바우","industry":"백반/한정식","coordinates":[127.44746616624,36.3427869745658],"sales":{"202602":908}},{"id":"MA010120220810114147","name":"터줏대감","industry":"돼지고기 구이/찜","coordinates":[127.442545963513,36.3453466061687],"sales":{"202602":369}},{"id":"MA010120220810156935","name":"경인화학","industry":"소독, 구충 및 방제 서비스업","coordinates":[127.444271000278,36.3470253997947],"sales":{"202602":239}},{"id":"MA010120220810262035","name":"다슬밥상","industry":"백반/한정식","coordinates":[127.440615717531,36.3388652847293],"sales":{"202602":1068}},{"id":"MA010120220810278172","name":"대박스마트공인중개사","industry":"부동산 중개/대리업","coordinates":[127.438138689321,36.3381083928572],"sales":{"202602":37}},{"id":"MA010120220810343781","name":"대전개인택시금산향우회","industry":"광고 대행업","coordinates":[127.439799215636,36.3382645051737],"sales":{"202602":1745}},{"id":"MA010120220810373082","name":"곱슬머리","industry":"미용실","coordinates":[127.444251343396,36.3435649664124],"sales":{"202602":112}},{"id":"MA010120220810391166","name":"행정홍보사","industry":"광고 대행업","coordinates":[127.444843852737,36.345896802003],"sales":{"202602":825}},{"id":"MA010120220810411494","name":"숯불홍닭갈비","industry":"닭/오리고기 구이/찜","coordinates":[127.445154218583,36.3456252942295],"sales":{"202602":575}},{"id":"MA010120220810426565","name":"로열세일부동산중개법인","industry":"부동산 중개/대리업","coordinates":[127.440901945429,36.3481463207819],"sales":{"202602":97}},{"id":"MA010120220810432468","name":"건영세차장","industry":"자동차 세차장","coordinates":[127.442018134545,36.3445915737825],"sales":{"202602":189}},{"id":"MA010120220810435285","name":"돈방제주맛돼지","industry":"돼지고기 구이/찜","coordinates":[127.442038783255,36.3443031218004],"sales":{"202602":1913}},{"id":"MA010120220810544759","name":"아띠디자인","industry":"광고물 설계/제작업","coordinates":[127.439275661476,36.3382574189441],"sales":{"202602":590}},{"id":"MA010120220810573155","name":"아침마을맛있는김밥집","industry":"김밥/만두/분식","coordinates":[127.44117034506,36.3404312822872],"sales":{"202602":2655}},{"id":"MA010120220810898363","name":"한국시설진단","industry":"광고 대행업","coordinates":[127.439406227586,36.3496027188561],"sales":{"202602":2189}},{"id":"MA010120220811076570","name":"구구스오븐치킨","industry":"치킨","coordinates":[127.442748925945,36.3398757281036],"sales":{"202602":489}},{"id":"MA010120220811149872","name":"진주냉면","industry":"냉면/밀면","coordinates":[127.444640524703,36.3454019132974],"sales":{"202602":1681}},{"id":"MA010120220811195199","name":"필립연합공인중개사사무소","industry":"부동산 중개/대리업","coordinates":[127.438873820589,36.3381056955519],"sales":{"202602":43}},{"id":"MA010120220811197368","name":"씨유대전가양","industry":"편의점","coordinates":[127.441353590384,36.3472434802396],"sales":{"202602":3106}},{"id":"MA010120220811386911","name":"유림피아노","industry":"음악학원","coordinates":[127.442328585163,36.3423645255522],"sales":{"202602":193}},{"id":"MA010120220811775848","name":"참댄스","industry":"레크리에이션 교육기관","coordinates":[127.447864177627,36.3422628027972],"sales":{"202602":257}},{"id":"MA010120220811827488","name":"웜스피치","industry":"그 외 기타 교육기관","coordinates":[127.438557234457,36.3471997049968],"sales":{"202602":648}},{"id":"MA010120220812082350","name":"보배반점대전복합","industry":"중국집","coordinates":[127.438747956984,36.3494249029672],"sales":{"202602":825}},{"id":"MA010120220812113329","name":"귀뚜라미보일러","industry":"그 외 기타 개인/가정용품 수리업","coordinates":[127.443499862715,36.3465866892523],"sales":{"202602":901}},{"id":"MA010120220812150537","name":"드림오토컴퍼니중앙","industry":"자동차 대여업","coordinates":[127.44213813692,36.346114113286],"sales":{"202602":1543}},{"id":"MA010120220812181863","name":"신용카센터","industry":"자동차 정비소","coordinates":[127.440615327094,36.3467055005517],"sales":{"202602":714}},{"id":"MA010120220812287855","name":"실내포차","industry":"백반/한정식","coordinates":[127.445099649834,36.3458237556514],"sales":{"202602":1364}},{"id":"MA010120220812340193","name":"중앙리플렛","industry":"광고물 설계/제작업","coordinates":[127.439288469781,36.3385547595405],"sales":{"202602":1224}},{"id":"MA010120220812386665","name":"로얄공인중개사사무소","industry":"부동산 중개/대리업","coordinates":[127.44166533652,36.3432681526189],"sales":{"202602":86}},{"id":"MA010120220812410686","name":"영인마차","industry":"요리 주점","coordinates":[127.437828929732,36.3484369831811],"sales":{"202602":150}},{"id":"MA010120220812435880","name":"오징어와세꼬시","industry":"횟집","coordinates":[127.437964929263,36.3488510245268],"sales":{"202602":693}},{"id":"MA010120220812439799","name":"뀨냥네","industry":"애완동물/애완용품 소매업","coordinates":[127.44517055613,36.3426243249507],"sales":{"202602":654}},{"id":"MA010120220812451636","name":"탑할인마트","industry":"슈퍼마켓","coordinates":[127.442011018717,36.3453035273184],"sales":{"202602":6776}},{"id":"MA010120220812489521","name":"건강나라","industry":"건강보조식품 소매업","coordinates":[127.440537423497,36.3447412292577],"sales":{"202602":902}},{"id":"MA010120220812505790","name":"싹쓸이폐기","industry":"건축물 일반 청소업","coordinates":[127.443717319366,36.3397549838818],"sales":{"202602":983}},{"id":"MA010120220812603933","name":"세일창투","industry":"부동산 중개/대리업","coordinates":[127.443766854025,36.3465226159397],"sales":{"202602":82}},{"id":"MA010120220812637170","name":"신일양화점","industry":"신발 소매업","coordinates":[127.44080730563,36.3392610950556],"sales":{"202602":995}},{"id":"MA010120220812648363","name":"우리민물새우칼국수","industry":"국수/칼국수","coordinates":[127.438263432578,36.3385044523974],"sales":{"202602":1908}},{"id":"MA010120220812655112","name":"식탁비서","industry":"백반/한정식","coordinates":[127.438610284289,36.348713481545],"sales":{"202602":1234}},{"id":"MA010120220812724544","name":"그때거기","industry":"백반/한정식","coordinates":[127.444781800446,36.3447795777971],"sales":{"202602":2413}},{"id":"MA010120220812732660","name":"한울협동조합","industry":"기타 기술/직업 훈련학원","coordinates":[127.442431843199,36.3428958359927],"sales":{"202602":1169}},{"id":"MA010120220812762003","name":"하르방베이커리","industry":"빵/도넛","coordinates":[127.442457409296,36.3454460631702],"sales":{"202602":715}},{"id":"MA010120220812813992","name":"폰캐시","industry":"핸드폰 소매업","coordinates":[127.443041540815,36.3404063365711],"sales":{"202602":588}},{"id":"MA010120220812865204","name":"호프광장","industry":"생맥주 전문","coordinates":[127.442457409296,36.3454460631702],"sales":{"202602":730}},{"id":"MA010120220812870501","name":"지리산나라","industry":"신발 소매업","coordinates":[127.447331518937,36.3426162556229],"sales":{"202602":479}},{"id":"MA010120220812979461","name":"엠케이오토가디언","industry":"자동차 세차장","coordinates":[127.440326076624,36.3487522301775],"sales":{"202602":499}},{"id":"MA010120220812995359","name":"본요가필라테스","industry":"요가/필라테스 학원","coordinates":[127.442990239618,36.3490487824177],"sales":{"202602":433}},{"id":"MA010120220813017806","name":"김성진","industry":"가전제품 수리업","coordinates":[127.446019071708,36.342963607208],"sales":{"202602":596}},{"id":"MA010120220813036550","name":"원미면옥","industry":"냉면/밀면","coordinates":[127.441919663269,36.3449073487703],"sales":{"202602":533}},{"id":"MA010120220813039230","name":"작은행복","industry":"의류/이불 수선업","coordinates":[127.44176608285,36.339410754482],"sales":{"202602":156}},{"id":"MA010120220813067596","name":"아방커피","industry":"카페","coordinates":[127.438747956984,36.3494249029672],"sales":{"202602":1192}},{"id":"MA010120220813120775","name":"통불","industry":"요리 주점","coordinates":[127.442000653984,36.3395270398519],"sales":{"202602":322}},{"id":"MA010120220813125906","name":"오아시스","industry":"일반 유흥 주점","coordinates":[127.440137608519,36.3429764015807],"sales":{"202602":207}},{"id":"MA010120220813263314","name":"태현축산","industry":"정육점","coordinates":[127.442011018717,36.3453035273184],"sales":{"202602":4685}},{"id":"MA010120220813270210","name":"오토쉴드","industry":"자동차 세차장","coordinates":[127.441002174246,36.3441897990749],"sales":{"202602":851}},{"id":"MA010120220813315593","name":"씨유","industry":"편의점","coordinates":[127.444848534671,36.338885651075],"sales":{"202602":6783}},{"id":"MA010120220813335524","name":"녹원유통","industry":"슈퍼마켓","coordinates":[127.440652695305,36.343452125631],"sales":{"202602":13055}},{"id":"MA010120220813339280","name":"오족오족","industry":"백반/한정식","coordinates":[127.442181217276,36.3458526135635],"sales":{"202602":688}},{"id":"MA010120220813431212","name":"가짜미끼","industry":"장난감 소매업","coordinates":[127.439820935065,36.3381652960187],"sales":{"202602":26059}},{"id":"MA010120220813457144","name":"탑마트야채","industry":"채소/과일 소매업","coordinates":[127.442011018717,36.3453035273184],"sales":{"202602":5641}},{"id":"MA010120220813458399","name":"비.비당구클럽","industry":"당구장","coordinates":[127.438106889225,36.3383968853828],"sales":{"202602":142}},{"id":"MA010120220813492407","name":"여명사","industry":"세탁소","coordinates":[127.439819460834,36.3478078639467],"sales":{"202602":150}},{"id":"MA010120220813503049","name":"민경헤어샵","industry":"미용실","coordinates":[127.440572995649,36.3431460203256],"sales":{"202602":376}},{"id":"MA010120220813504397","name":"올레이션대전센타","industry":"화장품 소매업","coordinates":[127.441746167895,36.3457460817158],"sales":{"202602":1595}},{"id":"MA010120220813532221","name":"당구클럽","industry":"당구장","coordinates":[127.441969707235,36.3439068608089],"sales":{"202602":208}},{"id":"MA010120220813573438","name":"담다키친","industry":"피자","coordinates":[127.444118646176,36.3437366826564],"sales":{"202602":3819}},{"id":"MA010120220813626468","name":"이마트24대전","industry":"편의점","coordinates":[127.438205065132,36.3380270437625],"sales":{"202602":5672}},{"id":"MA010120220813676835","name":"올바이크","industry":"모터사이클 수리업","coordinates":[127.441812163888,36.3396809364886],"sales":{"202602":594}},{"id":"MA010120220813703771","name":"미래에너지","industry":"주유소","coordinates":[127.44076529038,36.3397118372979],"sales":{"202602":29887}},{"id":"MA010120220813753536","name":"알컴퍼니","industry":"소독, 구충 및 방제 서비스업","coordinates":[127.4433275155,36.3417300021791],"sales":{"202602":413}},{"id":"MA010120220813805546","name":"기찬장어","industry":"해산물 구이/찜","coordinates":[127.441449524182,36.3484506980754],"sales":{"202602":639}},{"id":"MA010120220813927430","name":"솔방울침장","industry":"침구류/커튼 소매업","coordinates":[127.444281914392,36.3450247541671],"sales":{"202602":596}},{"id":"MA010120220813941788","name":"정화농산물","industry":"곡물/곡분 소매업","coordinates":[127.438840948807,36.3461442903966],"sales":{"202602":467}},{"id":"MA010120220814002238","name":"매봉이엔지","industry":"건물 및 토목 엔지니어링 서비스업","coordinates":[127.443915760301,36.3472430015478],"sales":{}},{"id":"MA010120220814005019","name":"세븐","industry":"요리 주점","coordinates":[127.442576729878,36.3448778819336],"sales":{"202602":1272}},{"id":"MA010120220814015457","name":"대전누수탐지변기하수구막힘","industry":"산업설비, 운송장비 및 공공장소 청소업","coordinates":[127.445678017037,36.3398017585433],"sales":{"202602":109}},{"id":"MA010120220814051377","name":"아는광고","industry":"명함/간판/광고물 제작","coordinates":[127.442147581228,36.3497548182231],"sales":{"202602":1210}},{"id":"MA010120220814180287","name":"경동보일러서비스센터","industry":"그 외 기타 개인/가정용품 수리업","coordinates":[127.441882653235,36.3482147922017],"sales":{"202602":1933}},{"id":"MA010120220814303370","name":"월드공인중개사사무소","industry":"부동산 중개/대리업","coordinates":[127.444670524306,36.3389223605214],"sales":{"202602":66}},{"id":"MA010120220814326998","name":"정진태권도","industry":"태권도/무술학원","coordinates":[127.44117034506,36.3404312822872],"sales":{"202602":536}},{"id":"MA0101202209A0001694","name":"돌멩커피대전","industry":"카페","coordinates":[127.446350074828,36.344359190652],"sales":{"202602":1644}},{"id":"MA0101202210A0016337","name":"정담인테리어","industry":"인테리어 디자인업","coordinates":[127.444230619764,36.3457999541017],"sales":{"202602":591}},{"id":"MA0101202210A0046578","name":"한찜두찜김치찜","industry":"국/탕/찌개류","coordinates":[127.444122295872,36.3463410607983],"sales":{"202602":1224}},{"id":"MA0101202210A0050168","name":"대성상회","industry":"슈퍼마켓","coordinates":[127.443254554351,36.3406488637634],"sales":{"202602":9095}},{"id":"MA0101202210A0065885","name":"한마음김밥분식","industry":"김밥/만두/분식","coordinates":[127.443731843634,36.3442788237803],"sales":{"202602":659}},{"id":"MA0101202210A0086955","name":"폴스타","industry":"PC방","coordinates":[127.443965818478,36.3442869665116],"sales":{"202602":523}},{"id":"MA0101202211A0035482","name":"미성본가","industry":"백반/한정식","coordinates":[127.441613105294,36.3458547143453],"sales":{"202602":842}},{"id":"MA0101202212A0016045","name":"세븐일레븐뉴","industry":"편의점","coordinates":[127.443840355048,36.3398446444491],"sales":{"202602":7214}},{"id":"MA0101202212A0074397","name":"래쉬유","industry":"피부 관리실","coordinates":[127.442749176149,36.3458234754423],"sales":{"202602":117}},{"id":"MA0101202212A0077747","name":"경동보일러수리설치센터","industry":"그 외 기타 개인/가정용품 수리업","coordinates":[127.442956287535,36.3371534123445],"sales":{"202602":1987}},{"id":"MA0101202301A0019788","name":"신우디자인","industry":"시각 디자인업","coordinates":[127.444461067723,36.3412661929361],"sales":{"202602":298}},{"id":"MA0101202301A0032014","name":"주마등","industry":"요리 주점","coordinates":[127.439065225051,36.3424396418677],"sales":{"202602":138}},{"id":"MA0101202301A0044033","name":"도담아구찜","industry":"해산물 구이/찜","coordinates":[127.44148614885,36.3490183018505],"sales":{"202602":4725}},{"id":"MA0101202301A0066955","name":"에이원냉동","industry":"가전제품 수리업","coordinates":[127.442329417069,36.3484204091518],"sales":{"202602":768}},{"id":"MA0101202301A0069834","name":"워시팡팡셀프빨래방","industry":"셀프 빨래방","coordinates":[127.443453518443,36.3403777733522],"sales":{"202602":278}},{"id":"MA0101202302A0055441","name":"물음표","industry":"백반/한정식","coordinates":[127.443342489281,36.3404412674921],"sales":{"202602":1526}},{"id":"MA0101202302A0089687","name":"대구막창","industry":"곱창 전골/구이","coordinates":[127.445154218583,36.3456252942295],"sales":{"202602":1116}},{"id":"MA0101202302A0105275","name":"우끼는짬뽕","industry":"중국집","coordinates":[127.440939543353,36.3469115745757],"sales":{"202602":5193}},{"id":"MA0101202302A0108986","name":"가개통박스폰폰테크","industry":"핸드폰 소매업","coordinates":[127.443041540815,36.3404063365711],"sales":{"202602":114}},{"id":"MA0101202303A0010579","name":"이엠플레닛","industry":"컴퓨터/소프트웨어 소매업","coordinates":[127.441959448641,36.3381483950854],"sales":{"202602":952}},{"id":"MA0101202303A0020536","name":"유진식당","industry":"국수/칼국수","coordinates":[127.43891714246,36.3478111815415],"sales":{"202602":743}},{"id":"MA0101202303A0069193","name":"청소특공대","industry":"건축물 일반 청소업","coordinates":[127.440633057053,36.343920808486],"sales":{"202602":272}},{"id":"MA0101202305A0022777","name":"홍한울","industry":"백반/한정식","coordinates":[127.44162293215,36.3495675119862],"sales":{"202602":733}},{"id":"MA0101202305A0102391","name":"팡팡노래연습장","industry":"노래방","coordinates":[127.437741526249,36.3487437023073],"sales":{"202602":670}},{"id":"MA0101202305A0106949","name":"카페오름","industry":"카페","coordinates":[127.439872839779,36.349375708878],"sales":{"202602":444}},{"id":"MA0101202305A0162425","name":"세븐클린","industry":"건축물 일반 청소업","coordinates":[127.444324873759,36.3388605638886],"sales":{"202602":918}},{"id":"MA0101202306A0007889","name":"로이","industry":"카페","coordinates":[127.442328585163,36.3423645255522],"sales":{"202602":1353}},{"id":"MA0101202306A0029692","name":"제이엠주택관리","industry":"사업시설 유지·관리 서비스업","coordinates":[127.440565873602,36.347814126161],"sales":{"202602":354}},{"id":"MA0101202306A0078439","name":"코디웜플","industry":"카페","coordinates":[127.446100591381,36.343585112849],"sales":{"202602":1871}},{"id":"MA0101202306A0080423","name":"드메리","industry":"의류 대여업","coordinates":[127.438534832077,36.3491643450727],"sales":{"202602":1306}},{"id":"MA0101202306A0091884","name":"미소주택관리","industry":"건축물 일반 청소업","coordinates":[127.444281914392,36.3450247541671],"sales":{"202602":709}},{"id":"MA0101202306A0095389","name":"한마음정육식당대전","industry":"돼지고기 구이/찜","coordinates":[127.444640524703,36.3454019132974],"sales":{"202602":1120}},{"id":"MA0101202307A0023929","name":"다온건축인테리어","industry":"인테리어 디자인업","coordinates":[127.441913215337,36.3378511783855],"sales":{"202602":296}},{"id":"MA0101202307A0060541","name":"시니어엔젤","industry":"그 외 기타 교육기관","coordinates":[127.44117034506,36.3404312822872],"sales":{"202602":1578}},{"id":"MA0101202308A0087366","name":"죠스게임장","industry":"전자 게임장","coordinates":[127.438053644482,36.3487786054886],"sales":{"202602":998}},{"id":"MA0101202308A0088920","name":"두리건축인테리어","industry":"인테리어 디자인업","coordinates":[127.440063894211,36.3437336592083],"sales":{"202602":303}},{"id":"MA0101202308A0089690","name":"대한홍삼건강백화점대전","industry":"건강보조식품 소매업","coordinates":[127.441330452152,36.3431432254543],"sales":{"202602":869}},{"id":"MA0101202309A0007954","name":"오샌디","industry":"카페","coordinates":[127.442860468539,36.3458050395861],"sales":{"202602":264}},{"id":"MA0101202309A0018580","name":"차도리짬뽕","industry":"중국집","coordinates":[127.44103144584,36.3493804501285],"sales":{"202602":575}},{"id":"MA0101202309A0092068","name":"씨유","industry":"편의점","coordinates":[127.447167690818,36.3412380725955],"sales":{"202602":5639}},{"id":"MA0101202309A0092451","name":"리안외국인지원센터대전","industry":"핸드폰 소매업","coordinates":[127.446372774424,36.3405291167584],"sales":{"202602":794}},{"id":"MA0101202310A0040663","name":"오가네소국밥","industry":"국/탕/찌개류","coordinates":[127.438979324878,36.3390425298195],"sales":{"202602":821}},{"id":"MA0101202310A0044794","name":"란커피맥주","industry":"백반/한정식","coordinates":[127.4411204871,36.3434413880775],"sales":{"202602":1098}},{"id":"MA0101202310A0098645","name":"꼬꼬마","industry":"김밥/만두/분식","coordinates":[127.444967822341,36.346148669021],"sales":{"202602":1232}},{"id":"MA0101202311A0016996","name":"영스크린골프","industry":"골프 연습장","coordinates":[127.443965818478,36.3442869665116],"sales":{"202602":708}},{"id":"MA0101202311A0030825","name":"옥자싸롱","industry":"백반/한정식","coordinates":[127.43830890186,36.3486064465781],"sales":{"202602":3404}},{"id":"MA0101202311A0038351","name":"은성반가","industry":"백반/한정식","coordinates":[127.442262617665,36.3425179692896],"sales":{"202602":2172}},{"id":"MA0101202311A0053263","name":"광개토전공사","industry":"고용 알선업","coordinates":[127.442162298713,36.340535757264],"sales":{}},{"id":"MA0101202311A0072218","name":"종가소머리곰탕","industry":"국/탕/찌개류","coordinates":[127.443008304491,36.344371625553],"sales":{"202602":834}},{"id":"MA0101202311A0074864","name":"약속당구장","industry":"당구장","coordinates":[127.437741526249,36.3487437023073],"sales":{"202602":184}},{"id":"MA0101202311A0084253","name":"하드&SUN","industry":"슈퍼마켓","coordinates":[127.440805274458,36.3448303589257],"sales":{"202602":10565}},{"id":"MA0101202311A0095393","name":"씨엘드포레","industry":"예식장업","coordinates":[127.438534832077,36.3491643450727],"sales":{"202602":4847}},{"id":"MA0101202311A0103635","name":"뮤엠영어영어교습소","industry":"입시·교과학원","coordinates":[127.44117034506,36.3404312822872],"sales":{"202602":914}},{"id":"MA0101202406A0021938","name":"쌈마이대패","industry":"백반/한정식","coordinates":[127.446371273238,36.3441698650101],"sales":{"202602":571}},{"id":"MA0101202406A0032473","name":"마이홈케어","industry":"건축물 일반 청소업","coordinates":[127.444178350582,36.3405192694521],"sales":{"202602":768}},{"id":"MA0101202406A0034512","name":"신용군면사무소","industry":"국수/칼국수","coordinates":[127.440483580985,36.3470484321587],"sales":{"202602":1468}},{"id":"MA0101202406A0041192","name":"헤이미쉬","industry":"미용실","coordinates":[127.438534832077,36.3491643450727],"sales":{"202602":808}},{"id":"MA0101202406A0079532","name":"빛날희미용실","industry":"미용실","coordinates":[127.447301665435,36.3412916416639],"sales":{"202602":227}},{"id":"MA0101202406A0089951","name":"푸드샵","industry":"슈퍼마켓","coordinates":[127.438892131914,36.34732463976],"sales":{"202602":3280}},{"id":"MA0101202406A0091390","name":"콩나물국밥어때","industry":"국/탕/찌개류","coordinates":[127.441343518739,36.3474327638421],"sales":{"202602":1115}},{"id":"MA0101202406A0098327","name":"무지개포차","industry":"백반/한정식","coordinates":[127.444281914392,36.3450247541671],"sales":{"202602":926}},{"id":"MA0101202406A0135242","name":"시골막국수n옹심이수제비","industry":"백반/한정식","coordinates":[127.444640524703,36.3454019132974],"sales":{"202602":2865}},{"id":"MA0101202406A0143238","name":"브라더케어시스템","industry":"건축물 일반 청소업","coordinates":[127.440066885744,36.3442653407959],"sales":{"202602":489}},{"id":"MA0101202406A0146985","name":"오늘은회사가는날","industry":"요리 주점","coordinates":[127.442158274594,36.3398238443747],"sales":{"202602":485}},{"id":"MA0101202406A0148260","name":"에스에스엠","industry":"음반/비디오물 소매업","coordinates":[127.443307387916,36.3401440101695],"sales":{"202602":6899}},{"id":"MA0101202406A0193240","name":"한잔만7080","industry":"요리 주점","coordinates":[127.447764546308,36.3423713170011],"sales":{"202602":723}},{"id":"MA0101202406A0200967","name":"고기폭탄덮밥&비빔밥","industry":"돼지고기 구이/찜","coordinates":[127.44395074057,36.3435931187219],"sales":{"202602":365}},{"id":"MA0101202406A0214149","name":"호향래꼬치튀김소고기판면","industry":"중국집","coordinates":[127.444759324569,36.3388679596139],"sales":{"202602":1689}},{"id":"MA0101202406A0251190","name":"대손관대전","industry":"백반/한정식","coordinates":[127.442117473054,36.3503406920207],"sales":{"202602":2604}},{"id":"MA0101202406A0278505","name":"팔계네삼겹살무한리필","industry":"돼지고기 구이/찜","coordinates":[127.44659616553,36.3406364230697],"sales":{"202602":1067}},{"id":"MA0101202406A0286302","name":"평민닭발","industry":"닭/오리고기 구이/찜","coordinates":[127.440704988847,36.3428481462105],"sales":{"202602":445}},{"id":"MA0101202406A0315829","name":"란유통","industry":"침구류/커튼 소매업","coordinates":[127.444878450124,36.346103943098],"sales":{"202602":287}},{"id":"MA0101202406A0339015","name":"토닭토닭","industry":"백반/한정식","coordinates":[127.442292866595,36.3458972590628],"sales":{"202602":958}},{"id":"MA0101202406A0339045","name":"다인컬렉션","industry":"가방 소매업","coordinates":[127.438155399303,36.3470569912689],"sales":{"202602":452}},{"id":"MA0101202406A0369665","name":"써니7080","industry":"백반/한정식","coordinates":[127.442773819308,36.3442733654626],"sales":{"202602":1107}},{"id":"MA0101202406A0402996","name":"더깨끗","industry":"건축물 일반 청소업","coordinates":[127.442327763045,36.346158470221],"sales":{"202602":1103}},{"id":"MA0101202406A0404395","name":"한결이네집","industry":"채소/과일 소매업","coordinates":[127.439969651606,36.348762554732],"sales":{"202602":1941}},{"id":"MA0101202406A0408662","name":"제이케이당구장","industry":"당구장","coordinates":[127.442545963513,36.3453466061687],"sales":{"202602":200}},{"id":"MA0101202406A0410992","name":"벼리온푸드","industry":"백반/한정식","coordinates":[127.443553104991,36.3441893699506],"sales":{"202602":2129}},{"id":"MA0101202406A0433488","name":"양가네옛날뒷고기","industry":"돼지고기 구이/찜","coordinates":[127.442937219721,36.3455884734792],"sales":{"202602":1151}},{"id":"MA0101202406A0441864","name":"국제의류","industry":"여성 의류 소매업","coordinates":[127.441366713578,36.3475948893745],"sales":{"202602":368}},{"id":"MA0101202406A0443161","name":"아이씨유","industry":"교육컨설팅업","coordinates":[127.442748925945,36.3398757281036],"sales":{"202602":1949}},{"id":"MA0101202406A0471450","name":"보람스카이","industry":"그 외 기타 개인/가정용품 수리업","coordinates":[127.44281354636,36.3414525437205],"sales":{"202602":589}},{"id":"MA0101202406A0473600","name":"크로바에어컨설치","industry":"가전제품 수리업","coordinates":[127.439891616408,36.3388499286792],"sales":{"202602":1893}},{"id":"MA0101202406A0479727","name":"골드건축인테리어","industry":"인테리어 디자인업","coordinates":[127.440107505849,36.3396061205257],"sales":{"202602":463}},{"id":"MA0101202406A0506517","name":"큐사랑","industry":"주방/가정용품 소매업","coordinates":[127.441522359786,36.3435931035624],"sales":{"202602":950}},{"id":"MA0101202406A0553208","name":"에스유엔테크","industry":"임시/일용 인력 공급업","coordinates":[127.441271615644,36.3386375710827],"sales":{}},{"id":"MA0101202406A0553488","name":"한백누리","industry":"경영 컨설팅업","coordinates":[127.445909110676,36.341260798743],"sales":{"202602":12816}},{"id":"MA0101202406A0554703","name":"골든벨","industry":"PC방","coordinates":[127.442437118737,36.3457975959884],"sales":{"202602":2207}},{"id":"MA0101202406A0564812","name":"티제이4","industry":"여관/모텔","coordinates":[127.43839933418,36.3488404198925],"sales":{"202602":835}},{"id":"MA0101202406A0575560","name":"신라고등어","industry":"해산물 구이/찜","coordinates":[127.442117473054,36.3503406920207],"sales":{"202602":1488}},{"id":"MA0101202406A0592391","name":"코리아세븐대전","industry":"편의점","coordinates":[127.438053644482,36.3487786054886],"sales":{"202602":4541}},{"id":"MA0101202408A0061227","name":"귀천상조","industry":"장례식장","coordinates":[127.442749176149,36.3458234754423],"sales":{"202602":6322}},{"id":"MA0101202409A0002459","name":"알프레도카페","industry":"카페","coordinates":[127.443965818478,36.3442869665116],"sales":{"202602":332}},{"id":"MA0101202409A0005549","name":"옷이날개","industry":"여성 의류 소매업","coordinates":[127.439263486575,36.3479901435976],"sales":{"202602":308}},{"id":"MA0101202409A0020714","name":"온유통","industry":"슈퍼마켓","coordinates":[127.443663070663,36.3459011916202],"sales":{"202602":5934}},{"id":"MA0101202409A0055004","name":"성원유통","industry":"침구류/커튼 소매업","coordinates":[127.442695578934,36.3402904659502],"sales":{"202602":602}},{"id":"MA0101202409A0057689","name":"시애틀7080","industry":"백반/한정식","coordinates":[127.442457409296,36.3454460631702],"sales":{"202602":1319}},{"id":"MA0101202409A0066773","name":"미소사랑","industry":"건축물 일반 청소업","coordinates":[127.443597758985,36.340278108865],"sales":{"202602":515}},{"id":"MA0101202409A0086992","name":"역전할머니맥주대전","industry":"생맥주 전문","coordinates":[127.44166533652,36.3432681526189],"sales":{"202602":1305}},{"id":"MA0101202409A0152332","name":"미라클국제결혼","industry":"결혼 상담 서비스업","coordinates":[127.439819826354,36.3498535257371],"sales":{"202602":3030}},{"id":"MA0101202409A0155649","name":"플라잉스콘대전복합버스","industry":"빵/도넛","coordinates":[127.438534832077,36.3491643450727],"sales":{"202602":807}},{"id":"MA0101202409A0255639","name":"신선야채","industry":"채소/과일 소매업","coordinates":[127.442385079386,36.3365967996426],"sales":{"202602":1174}},{"id":"MA0101202409A0262761","name":"당근인력","industry":"고용 알선업","coordinates":[127.444670524306,36.3389223605214],"sales":{}},{"id":"MA0101202410A0121239","name":"우리연세치과의원","industry":"치과의원","coordinates":[127.441802008788,36.3437993400369],"sales":{"202602":4981}},{"id":"MA0101202410A0412181","name":"동해인력사무소","industry":"고용 알선업","coordinates":[127.439065225051,36.3424396418677],"sales":{}},{"id":"MA0101202410A0442663","name":"삼천리꽃식물","industry":"꽃집","coordinates":[127.443553104991,36.3441893699506],"sales":{"202602":269}},{"id":"MA0101202410A0443023","name":"한국기자클럽충청지부","industry":"서점","coordinates":[127.438024348454,36.3475260819151],"sales":{"202602":1337}},{"id":"MA0101202410A0443038","name":"경희대우성체육관","industry":"태권도/무술학원","coordinates":[127.442328585163,36.3423645255522],"sales":{"202602":242}},{"id":"MA0101202410A0443504","name":"김지남한의원","industry":"한의원","coordinates":[127.441969707235,36.3439068608089],"sales":{"202602":1766}},{"id":"MA0101202410A0443509","name":"정수네꽃화원","industry":"꽃집","coordinates":[127.442424248242,36.3415531147232],"sales":{"202602":153}},{"id":"MA0101202410A0443888","name":"다솜요양병원","industry":"요양병원","coordinates":[127.442569284858,36.3435621957866],"sales":{"202602":6386}},{"id":"MA0101202410A0444061","name":"태진청과","industry":"채소/과일 소매업","coordinates":[127.443880869721,36.3391325661666],"sales":{"202602":864}},{"id":"MA0101202410A0444258","name":"가양생필품정육","industry":"정육점","coordinates":[127.442314024246,36.3456989225719],"sales":{"202602":5468}},{"id":"MA0101202410A0444359","name":"사계절앵무새","industry":"애완동물/애완용품 소매업","coordinates":[127.443015384677,36.3397215409988],"sales":{"202602":722}},{"id":"MA0101202410A0446472","name":"대덕자동차직업전문학교","industry":"기타 기술/직업 훈련학원","coordinates":[127.439596113989,36.3496921377748],"sales":{"202602":244}},{"id":"MA0101202410A0446485","name":"현대정형외과의원","industry":"외과 의원","coordinates":[127.441802008788,36.3437993400369],"sales":{"202602":6399}},{"id":"MA0101202410A0446492","name":"가양성모의원","industry":"내과/소아과 의원","coordinates":[127.447864177627,36.3422628027972],"sales":{"202602":4353}},{"id":"MA0101202410A0447176","name":"국민컴퓨터학원","industry":"컴퓨터 학원","coordinates":[127.439497315117,36.3380583455736],"sales":{"202602":362}},{"id":"MA0101202410A0447494","name":"신동아한의원","industry":"한의원","coordinates":[127.447764546308,36.3423713170011],"sales":{"202602":1244}},{"id":"MA0101202410A0448106","name":"충남상회","industry":"곡물/곡분 소매업","coordinates":[127.441980583007,36.3497734594728],"sales":{"202602":490}},{"id":"MA0101202410A0626224","name":"대영농산","industry":"곡물/곡분 소매업","coordinates":[127.440767725861,36.3460741170754],"sales":{"202602":368}},{"id":"MA0101202410A0640578","name":"오늘꽃을더하다","industry":"꽃집","coordinates":[127.446372774424,36.3405291167584],"sales":{"202602":826}},{"id":"MA0101202410A0643943","name":"구팔팔개발인력","industry":"고용 알선업","coordinates":[127.444281914392,36.3450247541671],"sales":{}},{"id":"MA0101202410A0657332","name":"한은수음악학원","industry":"음악학원","coordinates":[127.44166533652,36.3432681526189],"sales":{"202602":218}},{"id":"MA0101202410A0823602","name":"아름음악교습소","industry":"음악학원","coordinates":[127.44117034506,36.3404312822872],"sales":{"202602":192}},{"id":"MA0101202410A0853863","name":"행복나무미술교습소","industry":"미술학원","coordinates":[127.44117034506,36.3404312822872],"sales":{"202602":248}},{"id":"MA0101202410A0950134","name":"동구인력개발","industry":"고용 알선업","coordinates":[127.438205065132,36.3380270437625],"sales":{}},{"id":"MA0101202410A1046114","name":"제일체육관태권도","industry":"태권도/무술학원","coordinates":[127.442038783255,36.3443031218004],"sales":{"202602":388}},{"id":"MA0101202411A0009935","name":"오고스튜디오","industry":"사진촬영업","coordinates":[127.438534832077,36.3491643450727],"sales":{"202602":492}},{"id":"MA0101202411A0020630","name":"가양주먹구이","industry":"백반/한정식","coordinates":[127.442342760042,36.3409316061476],"sales":{"202602":1391}},{"id":"MA0101202411A0044227","name":"다정약국","industry":"약국","coordinates":[127.441802008788,36.3437993400369],"sales":{"202602":5443}},{"id":"MA0101202411A0060194","name":"이가불쭈꾸미","industry":"해산물 구이/찜","coordinates":[127.441008556061,36.3492723938378],"sales":{"202602":2090}},{"id":"MA0101202411A0084309","name":"도담햇살","industry":"곡물/곡분 소매업","coordinates":[127.443340493143,36.3420543767128],"sales":{"202602":495}},{"id":"MA0101202411A0089719","name":"캔디","industry":"화장품 소매업","coordinates":[127.445044619281,36.3459411131543],"sales":{"202602":3194}},{"id":"MA0101202411A0099621","name":"적덕식당","industry":"백반/한정식","coordinates":[127.441229997216,36.3431075494304],"sales":{"202602":1729}},{"id":"MA0101202411A0124194","name":"미친백반","industry":"백반/한정식","coordinates":[127.438610284289,36.348713481545],"sales":{"202602":988}},{"id":"MA0101202411A0131645","name":"펼치다스테이","industry":"펜션","coordinates":[127.438407594332,36.3483267208212],"sales":{}},{"id":"MA0101202411A0145924","name":"카페,보라","industry":"카페","coordinates":[127.440237139586,36.3468060234658],"sales":{"202602":2486}},{"id":"MA0101202412A0014346","name":"디에스컨설팅","industry":"경영 컨설팅업","coordinates":[127.446988682471,36.3430501018654],"sales":{"202602":3763}},{"id":"MA0101202412A0018223","name":"메이크업유나","industry":"피부 관리실","coordinates":[127.4433275155,36.3417300021791],"sales":{"202602":182}},{"id":"MA0101202412A0031555","name":"가양골기사님국밥집","industry":"국/탕/찌개류","coordinates":[127.441486810253,36.3491354519087],"sales":{"202602":908}},{"id":"MA0101202412A0061800","name":"세븐일레븐대전","industry":"편의점","coordinates":[127.445790532695,36.3399995972424],"sales":{"202602":12012}},{"id":"MA0101202501A0035058","name":"도로시파스타연정","industry":"파스타/스테이크","coordinates":[127.444995026233,36.3391824932824],"sales":{"202602":140}},{"id":"MA0101202501A0073116","name":"우리옷수선","industry":"의류/이불 수선업","coordinates":[127.444251343396,36.3435649664124],"sales":{"202602":199}},{"id":"MA0101202502A0044123","name":"전용숯불생선구이","industry":"해산물 구이/찜","coordinates":[127.445111456031,36.345940864224],"sales":{"202602":1552}},{"id":"MA0101202502A0056947","name":"어멍","industry":"백반/한정식","coordinates":[127.442752936587,36.3425522006942],"sales":{"202602":2424}},{"id":"MA0101202502A0074284","name":"밥스캔들대전동구","industry":"백반/한정식","coordinates":[127.442328585163,36.3423645255522],"sales":{"202602":1685}},{"id":"MA0101202502A0075736","name":"약국","industry":"약국","coordinates":[127.440276770256,36.3498878899541],"sales":{"202602":4587}},{"id":"MA0101202502A0078129","name":"한국개발인력","industry":"고용 알선업","coordinates":[127.4408404045,36.3471101984962],"sales":{}},{"id":"MA0101202502A0092976","name":"슈가룸","industry":"빵/도넛","coordinates":[127.439685125374,36.3476912057595],"sales":{"202602":2410}},{"id":"MA0101202503A0030154","name":"폴리스백","industry":"경영 컨설팅업","coordinates":[127.444271000278,36.3470253997947],"sales":{"202602":10941}},{"id":"MA0101202503A0035204","name":"카페블루코너","industry":"카페","coordinates":[127.440276770256,36.3498878899541],"sales":{"202602":1439}},{"id":"MA0101202503A0046862","name":"신호인테리어","industry":"인테리어 디자인업","coordinates":[127.444728368344,36.3393006385605],"sales":{"202602":418}},{"id":"MA0101202503A0057946","name":"평안한중국어","industry":"입시·교과학원","coordinates":[127.444404532333,36.3391576552858],"sales":{"202602":322}},{"id":"MA0101202503A0071673","name":"작은공간","industry":"백반/한정식","coordinates":[127.443197000942,36.3462183317648],"sales":{"202602":1083}},{"id":"MA0101202503A0075612","name":"세븐일레븐대전","industry":"편의점","coordinates":[127.438053644482,36.3487786054886],"sales":{"202602":9884}},{"id":"MA0101202503A0080291","name":"건축물일반청소업","industry":"건축물 일반 청소업","coordinates":[127.444308841296,36.33996005631],"sales":{"202602":1123}},{"id":"MA0101202504A0018811","name":"장금이유기농우렁쌈밥","industry":"백반/한정식","coordinates":[127.440880326345,36.3482635530672],"sales":{"202602":458}},{"id":"MA0101202504A0024830","name":"궁한복","industry":"의류 대여업","coordinates":[127.438534832077,36.3491643450727],"sales":{"202602":512}},{"id":"MA0101202504A0029551","name":"돈하루감자탕","industry":"국/탕/찌개류","coordinates":[127.441029260375,36.3489929537657],"sales":{"202602":1380}},{"id":"MA0101202504A0045385","name":"이안병원","industry":"일반병원","coordinates":[127.440276770256,36.3498878899541],"sales":{"202602":60842}},{"id":"MA0101202505A0017808","name":"이컴퍼니","industry":"펜션","coordinates":[127.440873250979,36.3489845177152],"sales":{}},{"id":"MA0101202505A0045733","name":"공임나라","industry":"자동차 정비소","coordinates":[127.444183521262,36.3473141004362],"sales":{"202602":287}},{"id":"MA0101202505A0053937","name":"파스타얌대전동구","industry":"파스타/스테이크","coordinates":[127.442328585163,36.3423645255522],"sales":{"202602":495}},{"id":"MA0101202505A0064702","name":"청년감자탕순대국대전가양복합","industry":"백반/한정식","coordinates":[127.440239595818,36.3492211588479],"sales":{"202602":1468}},{"id":"MA0106202201A0899313","name":"다솜","industry":"그 외 기타 상품 전문 소매업","coordinates":[127.438404242241,36.3377920078202],"sales":{"202602":2695}},{"id":"MA0106202210A2413655","name":"현대모비스대전부품","industry":"자동차 부품 소매업","coordinates":[127.445629927071,36.3450467701911],"sales":{"202602":1242}},{"id":"MA0106202212A1793189","name":"케이디한국수리진단","industry":"광고 대행업","coordinates":[127.439406227586,36.3496027188561],"sales":{"202602":773}},{"id":"MA0106202403A0893821","name":"다솜씨스페이스대전도담점","industry":"그 외 기타 상품 전문 소매업","coordinates":[127.438404242241,36.3377920078202],"sales":{"202602":1385}},{"id":"MA0106202503A2263543","name":"헬시라비타","industry":"백반/한정식","coordinates":[127.440676029459,36.3396851312332],"sales":{"202602":3434}},{"id":"MA0106202506A0619315","name":"장금이유기농우렁쌈밥","industry":"백반/한정식","coordinates":[127.440880326345,36.3482635530672],"sales":{"202602":1083}},{"id":"MA0106202506A0770311","name":"씨유(CU)대전힐스테이트가양점","industry":"편의점","coordinates":[127.439819826354,36.3498535257371],"sales":{"202602":4731}},{"id":"MA0106202506A0814480","name":"돈하루감자탕","industry":"국/탕/찌개류","coordinates":[127.441029260375,36.3489929537657],"sales":{"202602":882}},{"id":"MA0106202506A0873653","name":"호텔션샤인","industry":"베트남식 전문","coordinates":[127.438534832077,36.3491643450727],"sales":{"202602":1267}},{"id":"MA0106202507A0459857","name":"13번길","industry":"백반/한정식","coordinates":[127.443342489281,36.3404412674921],"sales":{"202602":1082}},{"id":"MA0106202507A0519134","name":"래쉬앤가든","industry":"미용실","coordinates":[127.441888865786,36.349314200438],"sales":{"202602":188}},{"id":"MA0106202507A0755188","name":"조선화로집 가양점","industry":"소고기 구이/찜","coordinates":[127.442117473054,36.3503406920207],"sales":{"202602":2354}},{"id":"MA0106202508A1021465","name":"에스엔상사","industry":"그 외 기타 상품 전문 소매업","coordinates":[127.441326378176,36.3463694425065],"sales":{"202602":914}},{"id":"MA0106202508A1362876","name":"일사일다시일","industry":"백반/한정식","coordinates":[127.441017256489,36.3488397986354],"sales":{"202602":969}},{"id":"MA0106202508A1600154","name":"샤브야키 대전동구점","industry":"일식 회/초밥","coordinates":[127.440276770256,36.3498878899541],"sales":{"202602":2119}},{"id":"MA0106202508A1944593","name":"파스타입니다 동구점","industry":"파스타/스테이크","coordinates":[127.442552360588,36.3445084909612],"sales":{"202602":271}},{"id":"MA0106202508A1996737","name":"트루","industry":"카페","coordinates":[127.444041286094,36.3438451109823],"sales":{"202602":1094}},{"id":"MA0106202508A2444966","name":"이가석갈비","industry":"돼지고기 구이/찜","coordinates":[127.442545963513,36.3453466061687],"sales":{"202602":500}},{"id":"MA0106202509A0790083","name":"파구스","industry":"백반/한정식","coordinates":[127.441663210336,36.3468368082824],"sales":{"202602":3344}},{"id":"MA0106202509A0919076","name":"에이스주유소","industry":"주유소","coordinates":[127.446680649099,36.3437271339292],"sales":{"202602":35881}},{"id":"MA0106202509A1348321","name":"천연노래연습장","industry":"노래방","coordinates":[127.442773819308,36.3442733654626],"sales":{"202602":645}},{"id":"MA0106202509A2156450","name":"씨유","industry":"편의점","coordinates":[127.440995593508,36.3390711537519],"sales":{"202602":4018}},{"id":"MA0106202510A0873323","name":"모터가드","industry":"자동차 부품 소매업","coordinates":[127.444535482444,36.3465197591634],"sales":{"202602":4215}},{"id":"MA0106202510A1664520","name":"바우네보리밥국수","industry":"백반/한정식","coordinates":[127.447211514865,36.3430582799298],"sales":{"202602":983}},{"id":"MA0106202510A2376322","name":"빈티지어썸","industry":"기타 의류 소매업","coordinates":[127.44308794408,36.3387660270237],"sales":{"202602":322}},{"id":"MA0106202511A0391936","name":"보나팩토리","industry":"그 외 기타 상품 전문 소매업","coordinates":[127.445184739654,36.3392448689469],"sales":{"202602":720}},{"id":"MA0106202511A1336165","name":"울엄마소머리국밥","industry":"국/탕/찌개류","coordinates":[127.437697874695,36.34890607339],"sales":{"202602":1521}},{"id":"MA0106202511A1937531","name":"오탁구무인탁구장","industry":"운동용품 소매업","coordinates":[127.447864177627,36.3422628027972],"sales":{"202602":1997}},{"id":"MA0106202512A0756668","name":"미니젤리","industry":"기타 의류 소매업","coordinates":[127.441515338582,36.3384023655184],"sales":{"202602":2169}},{"id":"MA0106202512A0823620","name":"또또고기국수","industry":"돼지고기 구이/찜","coordinates":[127.43830890186,36.3486064465781],"sales":{"202602":980}},{"id":"MA0106202512A1330614","name":"압꾸정닭강정","industry":"치킨","coordinates":[127.440276770256,36.3498878899541],"sales":{"202602":700}},{"id":"MA0106202512A2044213","name":"지에스25가양","industry":"편의점","coordinates":[127.446680649099,36.3437271339292],"sales":{"202602":2559}},{"id":"MA0106202601A0909319","name":"엄니푸드","industry":"정육점","coordinates":[127.447367049138,36.3429856038869],"sales":{"202602":3904}},{"id":"MA0106202601A0969801","name":"노상치킨 가양점","industry":"치킨","coordinates":[127.442752936587,36.3425522006942],"sales":{"202602":1142}},{"id":"MA0106202601A1535358","name":"성원식당","industry":"백반/한정식","coordinates":[127.438096739886,36.348517107252],"sales":{"202602":1911}},{"id":"MA0106202601A1598657","name":"원조공주떡집 가양점","industry":"떡/한과","coordinates":[127.440276770256,36.3498878899541],"sales":{"202602":1550}},{"id":"MA0106202601A2260970","name":"진주상사","industry":"자동차 부품 소매업","coordinates":[127.441812163888,36.3396809364886],"sales":{"202602":618}},{"id":"MA0106202602A0872077","name":"영광식당","industry":"백반/한정식","coordinates":[127.437964929263,36.3488510245268],"sales":{"202602":1944}},{"id":"MA0106202602A1145445","name":"김복남맥주 대전가양점","industry":"생맥주 전문","coordinates":[127.440276770256,36.3498878899541],"sales":{"202602":656}},{"id":"MA0106202602A1261802","name":"청춘푸드","industry":"백반/한정식","coordinates":[127.443422244482,36.3446855011277],"sales":{"202602":757}}]