[{"id":"MA010120220800043802","name":"신미식당","industry":"백반/한정식","coordinates":[127.426992974002,36.3388426390184],"sales":{"202602":591}},{"id":"MA010120220800045339","name":"단지공인중개사사무소","industry":"부동산 중개/대리업","coordinates":[127.422318121133,36.3394720492474],"sales":{"202602":41}},{"id":"MA010120220800049316","name":"대전펠릿과참숯","industry":"가정용 연료 소매업","coordinates":[127.427073472342,36.3372652946742],"sales":{"202602":3872}},{"id":"MA010120220800419645","name":"한국주방산업","industry":"주방/가정용품 소매업","coordinates":[127.422735034838,36.3424174174403],"sales":{"202602":594}},{"id":"MA010120220800634762","name":"사회문화사","industry":"명함/간판/광고물 제작","coordinates":[127.426549090169,36.3371049558028],"sales":{"202602":923}},{"id":"MA010120220800689499","name":"디자인캠프","industry":"광고 대행업","coordinates":[127.429523991796,36.3352468914971],"sales":{"202602":1189}},{"id":"MA010120220800755516","name":"하보디문화커뮤니케이션","industry":"음악학원","coordinates":[127.424204354908,36.3422229642263],"sales":{"202602":385}},{"id":"MA010120220800775676","name":"신아유통","industry":"수산물 소매업","coordinates":[127.420936386503,36.343514187775],"sales":{"202602":3089}},{"id":"MA010120220800841050","name":"꿈나무유아체육","industry":"기타 기술/직업 훈련학원","coordinates":[127.427357750291,36.3362910090033],"sales":{"202602":934}},{"id":"MA010120220800998761","name":"신용고주파","industry":"명함/간판/광고물 제작","coordinates":[127.424469468328,36.3377071357919],"sales":{"202602":867}},{"id":"MA010120220801139887","name":"대박삼겹살","industry":"돼지고기 구이/찜","coordinates":[127.419559793577,36.3423114544415],"sales":{"202602":1879}},{"id":"MA010120220802004571","name":"호정씨앤피","industry":"광고물 설계/제작업","coordinates":[127.426632429345,36.3340046140825],"sales":{"202602":1313}},{"id":"MA010120220802176099","name":"김밥나라","industry":"김밥/만두/분식","coordinates":[127.417665781896,36.342245994873],"sales":{"202602":297}},{"id":"MA010120220802189108","name":"하늘종합인테리어","industry":"인테리어 디자인업","coordinates":[127.423218395096,36.3391083944353],"sales":{"202602":2213}},{"id":"MA010120220802691546","name":"모든프린팅","industry":"명함/간판/광고물 제작","coordinates":[127.426096588681,36.3337812316554],"sales":{"202602":1343}},{"id":"MA010120220802742881","name":"다온이앤씨","industry":"건축물 일반 청소업","coordinates":[127.426819308399,36.3376356845444],"sales":{"202602":472}},{"id":"MA010120220802834849","name":"정산공인중개사사무소","industry":"부동산 중개/대리업","coordinates":[127.428820176491,36.3348619133196],"sales":{"202602":47}},{"id":"MA010120220802861430","name":"준이네식당","industry":"백반/한정식","coordinates":[127.418146732886,36.342613794737],"sales":{"202602":1656}},{"id":"MA010120220802866459","name":"남원식당","industry":"백반/한정식","coordinates":[127.423828523493,36.3386466328744],"sales":{"202602":621}},{"id":"MA010120220802905740","name":"벨노래연습장","industry":"노래방","coordinates":[127.426113628143,36.3409995858294],"sales":{"202602":439}},{"id":"MA010120220802912702","name":"씨유","industry":"편의점","coordinates":[127.432420496821,36.3393818525681],"sales":{"202602":16610}},{"id":"MA010120220802915639","name":"대산","industry":"화장터/묘지/납골당","coordinates":[127.427565286683,36.3355422909962],"sales":{"202602":65}},{"id":"MA010120220802952359","name":"경상도떡집","industry":"떡/한과","coordinates":[127.430237279479,36.337353076371],"sales":{"202602":1290}},{"id":"MA010120220802962599","name":"하늘장묘개발","industry":"장례식장","coordinates":[127.424014799934,36.3380782316738],"sales":{"202602":3151}},{"id":"MA010120220803079422","name":"이음아트센터","industry":"시각 디자인업","coordinates":[127.425591447647,36.3371534286178],"sales":{"202602":304}},{"id":"MA010120220803079531","name":"공인중개사사무소","industry":"부동산 중개/대리업","coordinates":[127.418980277016,36.3422594170904],"sales":{"202602":54}},{"id":"MA010120220803141699","name":"선인약국","industry":"약국","coordinates":[127.428053342369,36.3372077186203],"sales":{"202602":4112}},{"id":"MA010120220803150270","name":"강한기획","industry":"명함/간판/광고물 제작","coordinates":[127.427343264953,36.3356782614153],"sales":{"202602":397}},{"id":"MA010120220803161174","name":"디앤에이","industry":"명함/간판/광고물 제작","coordinates":[127.426575168205,36.3337164421787],"sales":{"202602":249}},{"id":"MA010120220803280866","name":"Lim스타일","industry":"기타 의류 소매업","coordinates":[127.424462339435,36.338446124899],"sales":{"202602":12298}},{"id":"MA010120220803290392","name":"장례를아는사람","industry":"장례식장","coordinates":[127.424141865907,36.3389158738187],"sales":{"202602":6363}},{"id":"MA010120220803317305","name":"이상디자인","industry":"옥외/전시 광고 대행업","coordinates":[127.422659253227,36.3428232141108],"sales":{"202602":957}},{"id":"MA010120220803322389","name":"홍반점","industry":"중국집","coordinates":[127.422255083962,36.340175188617],"sales":{"202602":1315}},{"id":"MA010120220803380435","name":"그레이스댄스스포츠학원","industry":"레크리에이션 교육기관","coordinates":[127.426113628143,36.3409995858294],"sales":{"202602":232}},{"id":"MA010120220803446668","name":"SHB뷰티앤헬스","industry":"경영 컨설팅업","coordinates":[127.427962511051,36.3368926325277],"sales":{"202602":6849}},{"id":"MA010120220803511884","name":"행복한세상","industry":"모터사이클 수리업","coordinates":[127.42755074256,36.3369571885885],"sales":{"202602":473}},{"id":"MA010120220803605811","name":"한국창업랩스협","industry":"경영 컨설팅업","coordinates":[127.428872339927,36.3403138365258],"sales":{"202602":4434}},{"id":"MA010120220803723285","name":"에이폴스튜디오","industry":"사진촬영업","coordinates":[127.418776542915,36.3416563439649],"sales":{"202602":597}},{"id":"MA010120220803876158","name":"용경토탈그래픽스","industry":"명함/간판/광고물 제작","coordinates":[127.424214750011,36.3359237126103],"sales":{"202602":580}},{"id":"MA010120220803915244","name":"한밭공인중개사사무소","industry":"부동산 중개/대리업","coordinates":[127.423029576352,36.3392081922189],"sales":{"202602":50}},{"id":"MA010120220804036897","name":"대전금탑","industry":"모터사이클 수리업","coordinates":[127.424524806502,36.3355891766615],"sales":{"202602":804}},{"id":"MA010120220804080682","name":"현암카서비스","industry":"자동차 정비소","coordinates":[127.42214150705,36.3418337518428],"sales":{"202602":921}},{"id":"MA010120220804145878","name":"박군치킨","industry":"치킨","coordinates":[127.423478078175,36.3418109996292],"sales":{"202602":724}},{"id":"MA010120220804207276","name":"참치어화","industry":"일식 회/초밥","coordinates":[127.422512003506,36.340309456846],"sales":{"202602":2119}},{"id":"MA010120220804438224","name":"에이프테크놀로지","industry":"전기용품/조명장치 소매업","coordinates":[127.420340103905,36.3403441508915],"sales":{"202602":790}},{"id":"MA010120220804612335","name":"애드클릭","industry":"광고물 설계/제작업","coordinates":[127.429523991796,36.3352468914971],"sales":{"202602":667}},{"id":"MA010120220804629797","name":"유정훈모터스","industry":"자동차 정비소","coordinates":[127.42090657729,36.3400447693335],"sales":{"202602":670}},{"id":"MA010120220804686500","name":"일등기획인쇄","industry":"명함/간판/광고물 제작","coordinates":[127.422543804826,36.3379482652307],"sales":{"202602":995}},{"id":"MA010120220804734391","name":"대전OA솔루션","industry":"기타 개인/가정용품 대여업","coordinates":[127.424126329453,36.3360501910191],"sales":{"202602":205}},{"id":"MA010120220804808055","name":"촌닭","industry":"백반/한정식","coordinates":[127.422118502166,36.3396349660207],"sales":{"202602":3395}},{"id":"MA010120220804835790","name":"현대청소","industry":"건축물 일반 청소업","coordinates":[127.423029576352,36.3392081922189],"sales":{"202602":1070}},{"id":"MA010120220804868882","name":"프롬빈티지","industry":"기타 의류 소매업","coordinates":[127.428820176491,36.3348619133196],"sales":{"202602":1368}},{"id":"MA010120220804880197","name":"루케아스터디카페","industry":"독서실/스터디 카페","coordinates":[127.421839492948,36.3416005128093],"sales":{"202602":179}},{"id":"MA010120220804881448","name":"이루다스터디카페&북카페","industry":"독서실/스터디 카페","coordinates":[127.421444048667,36.3405655567466],"sales":{"202602":349}},{"id":"MA010120220804920739","name":"하이센스","industry":"기타 오락장","coordinates":[127.426517802923,36.339538240618],"sales":{"202602":774}},{"id":"MA010120220804949670","name":"이브홈케어","industry":"건축물 일반 청소업","coordinates":[127.416570658986,36.3415919594347],"sales":{"202602":227}},{"id":"MA010120220804990871","name":"동안이앤지","industry":"중고 상품 소매업","coordinates":[127.416202356659,36.3414580664013],"sales":{"202602":437}},{"id":"MA010120220805054826","name":"119포차","industry":"요리 주점","coordinates":[127.422109503187,36.3400315148799],"sales":{"202602":274}},{"id":"MA010120220805065894","name":"주안모터스","industry":"자동차 정비소","coordinates":[127.421709956203,36.342366968611],"sales":{"202602":1286}},{"id":"MA010120220805088725","name":"무인아이스크림할인판매점-미선호2호","industry":"슈퍼마켓","coordinates":[127.419579122777,36.3417616698749],"sales":{"202602":18231}},{"id":"MA010120220805116111","name":"세원산업","industry":"명함/간판/광고물 제작","coordinates":[127.427836739141,36.3342616500597],"sales":{"202602":451}},{"id":"MA010120220805368589","name":"와이제이미디어","industry":"가전제품 소매업","coordinates":[127.418239410927,36.3432803398028],"sales":{"202602":578}},{"id":"MA010120220805414006","name":"큐사랑","industry":"미용실","coordinates":[127.418391791408,36.3426129370369],"sales":{"202602":171}},{"id":"MA010120220805460853","name":"국세상","industry":"백반/한정식","coordinates":[127.428267424826,36.335620882839],"sales":{"202602":865}},{"id":"MA010120220805500449","name":"보아즈브랜딩","industry":"시각 디자인업","coordinates":[127.427565286683,36.3355422909962],"sales":{"202602":325}},{"id":"MA010120220805542867","name":"티앤티모터스","industry":"자동차 정비소","coordinates":[127.426545356027,36.3364200757688],"sales":{"202602":1840}},{"id":"MA010120220805553542","name":"윤미디어","industry":"명함/간판/광고물 제작","coordinates":[127.427681499283,36.3343883702864],"sales":{"202602":531}},{"id":"MA010120220805564334","name":"루디아기획","industry":"명함/간판/광고물 제작","coordinates":[127.427047408093,36.3365714827263],"sales":{"202602":616}},{"id":"MA010120220805587999","name":"카리브상사","industry":"기타 산업용 기계/장비 대여업","coordinates":[127.421737967794,36.3434302559326],"sales":{"202602":966}},{"id":"MA010120220805627043","name":"한화전의손맛","industry":"백반/한정식","coordinates":[127.414856848361,36.341895308818],"sales":{"202602":440}},{"id":"MA010120220805738963","name":"소영약국","industry":"약국","coordinates":[127.418536646932,36.3426214415578],"sales":{"202602":3962}},{"id":"MA010120220805742531","name":"영진카써비스","industry":"자동차 정비소","coordinates":[127.420280246515,36.3395693507242],"sales":{"202602":466}},{"id":"MA010120220805742641","name":"신세계커뮤니케이션즈","industry":"명함/간판/광고물 제작","coordinates":[127.427565286683,36.3355422909962],"sales":{"202602":917}},{"id":"MA010120220805743574","name":"풀칠닷컴","industry":"광고물 설계/제작업","coordinates":[127.426545356027,36.3364200757688],"sales":{"202602":1067}},{"id":"MA010120220805743627","name":"금성대반점","industry":"중국집","coordinates":[127.417723690597,36.3426603329394],"sales":{"202602":2404}},{"id":"MA010120220805743880","name":"신도인쇄사","industry":"명함/간판/광고물 제작","coordinates":[127.427681839279,36.3364881082977],"sales":{"202602":1029}},{"id":"MA010120220805744582","name":"하이든미용실","industry":"미용실","coordinates":[127.422749603339,36.3389298185763],"sales":{"202602":310}},{"id":"MA010120220805745895","name":"창조디자인","industry":"명함/간판/광고물 제작","coordinates":[127.427681839279,36.3364881082977],"sales":{"202602":1542}},{"id":"MA010120220805745942","name":"신촌식당","industry":"백반/한정식","coordinates":[127.426674965626,36.3336349801117],"sales":{"202602":3528}},{"id":"MA010120220805745954","name":"강석문화사","industry":"명함/간판/광고물 제작","coordinates":[127.427579978282,36.3341544278172],"sales":{"202602":568}},{"id":"MA010120220805746106","name":"삼성카센타","industry":"자동차 세차장","coordinates":[127.425880404024,36.3370352464737],"sales":{"202602":297}},{"id":"MA010120220805746116","name":"대성카용품점","industry":"자동차 정비소","coordinates":[127.437636253487,36.3378939517925],"sales":{"202602":2489}},{"id":"MA010120220805746258","name":"영보석","industry":"시계/귀금속 소매업","coordinates":[127.419271919113,36.3426368877088],"sales":{"202602":1408}},{"id":"MA010120220805746474","name":"탑헤어라인","industry":"미용실","coordinates":[127.422431842732,36.3399042114168],"sales":{"202602":93}},{"id":"MA010120220805747187","name":"파란디자인기획","industry":"명함/간판/광고물 제작","coordinates":[127.420541569421,36.340523677149],"sales":{"202602":433}},{"id":"MA010120220805747614","name":"이문인쇄","industry":"명함/간판/광고물 제작","coordinates":[127.424208354764,36.3388525555658],"sales":{"202602":496}},{"id":"MA010120220805747654","name":"다다문화인쇄사","industry":"명함/간판/광고물 제작","coordinates":[127.427026481677,36.3347782180113],"sales":{"202602":401}},{"id":"MA010120220805747928","name":"아이엔와이디자인","industry":"광고물 설계/제작업","coordinates":[127.428208291216,36.3370269284752],"sales":{"202602":264}},{"id":"MA010120220805748154","name":"미의공간미용실","industry":"미용실","coordinates":[127.425843853633,36.3344129555547],"sales":{"202602":262}},{"id":"MA010120220805748166","name":"정수기마트","industry":"기타 개인/가정용품 대여업","coordinates":[127.428388525832,36.3373957644608],"sales":{"202602":211}},{"id":"MA010120220805748786","name":"로얄노래연습장","industry":"노래방","coordinates":[127.422590363805,36.3403812737916],"sales":{"202602":426}},{"id":"MA010120220805748994","name":"케이헤어클럽","industry":"미용실","coordinates":[127.419392708891,36.3423120409204],"sales":{"202602":162}},{"id":"MA010120220805749302","name":"오텍","industry":"자동차 부품 소매업","coordinates":[127.42709262987,36.3387341419045],"sales":{"202602":1887}},{"id":"MA010120220805749744","name":"한글문화사","industry":"명함/간판/광고물 제작","coordinates":[127.428374561599,36.3348454878287],"sales":{"202602":872}},{"id":"MA010120220805749800","name":"고클린서비스","industry":"건축물 일반 청소업","coordinates":[127.428388525832,36.3373957644608],"sales":{"202602":241}},{"id":"MA010120220805749845","name":"자이공인중개사사무소","industry":"부동산 중개/대리업","coordinates":[127.423478078175,36.3418109996292],"sales":{"202602":89}},{"id":"MA010120220805749903","name":"장인카센타","industry":"자동차 정비소","coordinates":[127.417400947226,36.3427155311205],"sales":{"202602":1143}},{"id":"MA010120220805750635","name":"대운식당","industry":"백반/한정식","coordinates":[127.42534833531,36.3416060992167],"sales":{"202602":860}},{"id":"MA010120220805750843","name":"영바이크","industry":"자전거 소매업","coordinates":[127.428667673785,36.3375209280821],"sales":{"202602":128}},{"id":"MA010120220805751294","name":"한아름식당","industry":"김밥/만두/분식","coordinates":[127.426680703495,36.3387716602888],"sales":{"202602":660}},{"id":"MA010120220805753870","name":"에어로노래방","industry":"노래방","coordinates":[127.423942105664,36.3390517588822],"sales":{"202602":576}},{"id":"MA010120220805754489","name":"스피드프린팅","industry":"명함/간판/광고물 제작","coordinates":[127.428249824999,36.3344404057696],"sales":{"202602":1540}},{"id":"MA010120220805755484","name":"디자인피쉬","industry":"제품 디자인업","coordinates":[127.423685529502,36.3389805747444],"sales":{}},{"id":"MA010120220805756068","name":"대청사","industry":"명함/간판/광고물 제작","coordinates":[127.429523991796,36.3352468914971],"sales":{"202602":643}},{"id":"MA010120220805757516","name":"인디컴","industry":"명함/간판/광고물 제작","coordinates":[127.426517802923,36.339538240618],"sales":{"202602":1218}},{"id":"MA010120220805758190","name":"하늘디자인클럽","industry":"광고물 설계/제작업","coordinates":[127.424214750011,36.3359237126103],"sales":{"202602":377}},{"id":"MA010120220805758703","name":"샘디자인，인쇄","industry":"명함/간판/광고물 제작","coordinates":[127.427681499283,36.3343883702864],"sales":{"202602":370}},{"id":"MA010120220805758959","name":"굿뉴스커뮤니케이션","industry":"광고물 설계/제작업","coordinates":[127.42776626346,36.335631689394],"sales":{"202602":548}},{"id":"MA010120220805759254","name":"대전자동차유리","industry":"자동차 부품 소매업","coordinates":[127.421627174278,36.3414750975769],"sales":{"202602":1011}},{"id":"MA010120220805759553","name":"진산시스템에어콘","industry":"가전제품 수리업","coordinates":[127.421016120756,36.3397019368999],"sales":{"202602":305}},{"id":"MA010120220805759578","name":"미문기획인쇄","industry":"명함/간판/광고물 제작","coordinates":[127.429233168866,36.3350226424186],"sales":{"202602":1343}},{"id":"MA010120220805759673","name":"백합공인중개사","industry":"부동산 중개/대리업","coordinates":[127.423055167458,36.3398209007569],"sales":{"202602":57}},{"id":"MA010120220805759766","name":"올림픽이용원","industry":"마사지/안마","coordinates":[127.428049146565,36.3344050776378],"sales":{"202602":524}},{"id":"MA010120220805759862","name":"대견서점","industry":"서점","coordinates":[127.425331348724,36.3364334141478],"sales":{"202602":3420}},{"id":"MA010120220805760708","name":"수정","industry":"의료기기 소매업","coordinates":[127.428526610077,36.3361696708766],"sales":{"202602":2500}},{"id":"MA010120220805760927","name":"엘지공인중개사사무소","industry":"부동산 중개/대리업","coordinates":[127.423478078175,36.3418109996292],"sales":{"202602":77}},{"id":"MA010120220805761087","name":"어머니식당","industry":"백반/한정식","coordinates":[127.417353698328,36.3422110381728],"sales":{"202602":551}},{"id":"MA010120220805761792","name":"프린팅빌리지","industry":"복사업","coordinates":[127.426966883616,36.3361031591569],"sales":{"202602":584}},{"id":"MA010120220805762182","name":"정우커뮤니케이션즈","industry":"명함/간판/광고물 제작","coordinates":[127.424343763386,36.3350671376547],"sales":{"202602":531}},{"id":"MA010120220805762237","name":"가위느낌","industry":"미용실","coordinates":[127.423467979334,36.3399456032376],"sales":{"202602":29}},{"id":"MA010120220805762521","name":"디자인아람","industry":"명함/간판/광고물 제작","coordinates":[127.423768153629,36.3357270383026],"sales":{"202602":955}},{"id":"MA010120220805762742","name":"예원모텔","industry":"여관/모텔","coordinates":[127.428909285339,36.3389258944948],"sales":{"202602":1072}},{"id":"MA010120220805762849","name":"서울열쇠","industry":"철물/공구 소매업","coordinates":[127.427282820435,36.3388866618497],"sales":{"202602":285}},{"id":"MA010120220805762867","name":"합동기획사","industry":"광고물 설계/제작업","coordinates":[127.427357750291,36.3362910090033],"sales":{"202602":509}},{"id":"MA010120220805763367","name":"예스원","industry":"명함/간판/광고물 제작","coordinates":[127.421588220727,36.34044789548],"sales":{"202602":1266}},{"id":"MA010120220805763459","name":"정보유통","industry":"서점","coordinates":[127.420150304646,36.3423364150806],"sales":{"202602":5433}},{"id":"MA010120220805764196","name":"우리광고기획","industry":"명함/간판/광고물 제작","coordinates":[127.420340103905,36.3403441508915],"sales":{"202602":606}},{"id":"MA010120220805764267","name":"현암꽃플라워","industry":"꽃집","coordinates":[127.419102226284,36.3421508484941],"sales":{"202602":66}},{"id":"MA010120220805764646","name":"미복","industry":"백반/한정식","coordinates":[127.422807779851,36.339389212148],"sales":{"202602":845}},{"id":"MA010120220805764767","name":"소망광고산업","industry":"명함/간판/광고물 제작","coordinates":[127.427343264953,36.3356782614153],"sales":{"202602":593}},{"id":"MA010120220805764965","name":"세미기획","industry":"복사업","coordinates":[127.427814020026,36.3341806255625],"sales":{"202602":342}},{"id":"MA010120220805764967","name":"서울상사","industry":"가전제품 소매업","coordinates":[127.425102665163,36.3394441534435],"sales":{"202602":556}},{"id":"MA010120220805765416","name":"애드","industry":"명함/간판/광고물 제작","coordinates":[127.427596090348,36.3350645576936],"sales":{"202602":671}},{"id":"MA010120220805765559","name":"준디자인","industry":"광고물 설계/제작업","coordinates":[127.42848480551,36.3346378222234],"sales":{"202602":367}},{"id":"MA010120220805765561","name":"수정미용실","industry":"미용실","coordinates":[127.417723690597,36.3426603329394],"sales":{"202602":222}},{"id":"MA010120220805765578","name":"사바누리","industry":"그 외 기타 상품 전문 소매업","coordinates":[127.429276113502,36.3387894011718],"sales":{"202602":945}},{"id":"MA010120220805765961","name":"하나인쇄","industry":"명함/간판/광고물 제작","coordinates":[127.426977749878,36.3340123926747],"sales":{"202602":446}},{"id":"MA010120220805767302","name":"현암기사","industry":"백반/한정식","coordinates":[127.421188079269,36.3385388148433],"sales":{"202602":2204}},{"id":"MA010120220805767542","name":"조은기획인쇄","industry":"광고물 설계/제작업","coordinates":[127.427260771175,36.334849474734],"sales":{"202602":987}},{"id":"MA010120220805767700","name":"대운식당","industry":"백반/한정식","coordinates":[127.41842675424,36.3408194763493],"sales":{"202602":974}},{"id":"MA010120220805768125","name":"처갓집양념치킨","industry":"치킨","coordinates":[127.419115924464,36.3426284231457],"sales":{"202602":479}},{"id":"MA010120220805768155","name":"그린프라자","industry":"슈퍼마켓","coordinates":[127.417723690597,36.3426603329394],"sales":{"202602":31803}},{"id":"MA010120220805768161","name":"제일","industry":"세탁소","coordinates":[127.417353698328,36.3422110381728],"sales":{"202602":74}},{"id":"MA010120220805768343","name":"부산스카시","industry":"명함/간판/광고물 제작","coordinates":[127.423994281504,36.3384027275925],"sales":{"202602":916}},{"id":"MA010120220805768344","name":"그린기획","industry":"광고물 설계/제작업","coordinates":[127.42508200098,36.335641266717],"sales":{"202602":749}},{"id":"MA010120220805768521","name":"거상애견하우스","industry":"애완동물/애완용품 소매업","coordinates":[127.418156041184,36.3422713157001],"sales":{"202602":630}},{"id":"MA010120220805768860","name":"대전한일사무용가구","industry":"중고 상품 소매업","coordinates":[127.420962901009,36.3401617237226],"sales":{"202602":255}},{"id":"MA010120220805769496","name":"자이헤어겔러리","industry":"미용실","coordinates":[127.422911047488,36.3399475753623],"sales":{"202602":156}},{"id":"MA010120220805769651","name":"삼양문화사","industry":"명함/간판/광고물 제작","coordinates":[127.424903939465,36.3356689351709],"sales":{"202602":1251}},{"id":"MA010120220805769931","name":"계동치킨","industry":"치킨","coordinates":[127.421918882369,36.3397978824615],"sales":{"202602":498}},{"id":"MA010120220805770147","name":"쉬즈헤어미용실","industry":"미용실","coordinates":[127.422590363805,36.3403812737916],"sales":{"202602":263}},{"id":"MA010120220805770307","name":"인컴","industry":"광고물 설계/제작업","coordinates":[127.427567650637,36.3359748468224],"sales":{"202602":420}},{"id":"MA010120220805770509","name":"자이치킨호프","industry":"요리 주점","coordinates":[127.423478078175,36.3418109996292],"sales":{"202602":601}},{"id":"MA010120220805770617","name":"명문정보통신","industry":"핸드폰 소매업","coordinates":[127.418980277016,36.3422594170904],"sales":{"202602":405}},{"id":"MA010120220805771052","name":"태평관","industry":"중국집","coordinates":[127.428827091563,36.3361235343282],"sales":{"202602":1118}},{"id":"MA010120220805771111","name":"대전유통","industry":"생수/음료 소매업","coordinates":[127.427883951717,36.334748115957],"sales":{"202602":24}},{"id":"MA010120220805771257","name":"세손아이","industry":"명함/간판/광고물 제작","coordinates":[127.42479534822,36.3361829913165],"sales":{"202602":1096}},{"id":"MA010120220805771273","name":"금산덕원홍삼","industry":"건강보조식품 소매업","coordinates":[127.417961189099,36.3412446578059],"sales":{"202602":1436}},{"id":"MA010120220805771790","name":"삼미손칼국수식당","industry":"국수/칼국수","coordinates":[127.42137575997,36.3402954450136],"sales":{"202602":1249}},{"id":"MA010120220805771950","name":"뜰문화","industry":"명함/간판/광고물 제작","coordinates":[127.42599909654,36.3342862376955],"sales":{"202602":1055}},{"id":"MA010120220805772096","name":"흥진출판인쇄사","industry":"명함/간판/광고물 제작","coordinates":[127.426798119729,36.3337516932618],"sales":{"202602":423}},{"id":"MA010120220805772771","name":"진영인쇄사","industry":"명함/간판/광고물 제작","coordinates":[127.429457658704,36.335337247431],"sales":{"202602":604}},{"id":"MA010120220805773020","name":"이화기획","industry":"명함/간판/광고물 제작","coordinates":[127.427565286683,36.3355422909962],"sales":{"202602":413}},{"id":"MA010120220805773160","name":"새시대약국","industry":"약국","coordinates":[127.419346268745,36.3419607456687],"sales":{"202602":2696}},{"id":"MA010120220805773326","name":"이매지네이션","industry":"명함/간판/광고물 제작","coordinates":[127.427883951717,36.334748115957],"sales":{"202602":678}},{"id":"MA010120220805774719","name":"켄터키치킨","industry":"요리 주점","coordinates":[127.418690808444,36.3422874668403],"sales":{"202602":60}},{"id":"MA010120220805774728","name":"메신저커뮤니케이션","industry":"광고 대행업","coordinates":[127.435539689549,36.3374420114653],"sales":{"202602":1274}},{"id":"MA010120220805774759","name":"스위퍼","industry":"건축물 일반 청소업","coordinates":[127.426819308399,36.3376356845444],"sales":{"202602":148}},{"id":"MA010120220805774800","name":"글소리인쇄기획","industry":"명함/간판/광고물 제작","coordinates":[127.427567650637,36.3359748468224],"sales":{"202602":944}},{"id":"MA010120220805775898","name":"연탄구이에한잔","industry":"돼지고기 구이/찜","coordinates":[127.417723690597,36.3426603329394],"sales":{"202602":920}},{"id":"MA010120220805775930","name":"미목디자인","industry":"가구 소매업","coordinates":[127.426641574618,36.3418087595348],"sales":{"202602":2918}},{"id":"MA010120220805776036","name":"주안카써비스","industry":"자동차 정비소","coordinates":[127.421918971949,36.3418795964521],"sales":{"202602":6428}},{"id":"MA010120220805777098","name":"태화이용원","industry":"미용실","coordinates":[127.422917021763,36.3389923085135],"sales":{"202602":349}},{"id":"MA010120220805777676","name":"글마루인쇄기획","industry":"명함/간판/광고물 제작","coordinates":[127.426842375756,36.3336974646596],"sales":{"202602":853}},{"id":"MA010120220805777921","name":"유지상사","industry":"자동차 정비소","coordinates":[127.423859058061,36.3381148311416],"sales":{"202602":986}},{"id":"MA010120220805779110","name":"자이세탁크리닝","industry":"세탁소","coordinates":[127.423478078175,36.3418109996292],"sales":{"202602":172}},{"id":"MA010120220805779350","name":"은영이불","industry":"침구류/커튼 소매업","coordinates":[127.418372453709,36.3431627213888],"sales":{"202602":167}},{"id":"MA010120220805779463","name":"369당구클럽","industry":"당구장","coordinates":[127.418824234895,36.3422419405609],"sales":{"202602":281}},{"id":"MA010120220805779498","name":"조은디자인","industry":"명함/간판/광고물 제작","coordinates":[127.424214750011,36.3359237126103],"sales":{"202602":796}},{"id":"MA010120220805779922","name":"삼성종합장식정수기","industry":"벽지/장판/마루 소매업","coordinates":[127.432486908116,36.3372908861899],"sales":{"202602":317}},{"id":"MA010120220805780197","name":"세상모르고살았노라","industry":"백반/한정식","coordinates":[127.417353698328,36.3422110381728],"sales":{"202602":432}},{"id":"MA010120220805780872","name":"신가족건강원","industry":"건강보조식품 소매업","coordinates":[127.423351179456,36.3389457125928],"sales":{"202602":1047}},{"id":"MA010120220805780928","name":"합동인력","industry":"고용 알선업","coordinates":[127.421554010429,36.342367518805],"sales":{}},{"id":"MA010120220805781479","name":"가원기획","industry":"명함/간판/광고물 제작","coordinates":[127.428528880677,36.3365842034483],"sales":{"202602":1139}},{"id":"MA010120220805781571","name":"송이네식당","industry":"백반/한정식","coordinates":[127.42889528122,36.3384032631912],"sales":{"202602":925}},{"id":"MA010120220805781724","name":"은하정보기술","industry":"컴퓨터/소프트웨어 소매업","coordinates":[127.427565286683,36.3355422909962],"sales":{"202602":952}},{"id":"MA010120220805782052","name":"태양색지인쇄사","industry":"명함/간판/광고물 제작","coordinates":[127.421057073645,36.3431713162359],"sales":{"202602":1468}},{"id":"MA010120220805783216","name":"까망머리헤어나라","industry":"미용실","coordinates":[127.423277891076,36.3398111003735],"sales":{"202602":207}},{"id":"MA010120220805783261","name":"청룡복사","industry":"복사업","coordinates":[127.427448835486,36.3346144965759],"sales":{"202602":322}},{"id":"MA010120220805783620","name":"영인유통","industry":"슈퍼마켓","coordinates":[127.423311912288,36.3378644412749],"sales":{"202602":8237}},{"id":"MA010120220805783745","name":"준디자인기획","industry":"광고물 설계/제작업","coordinates":[127.426113628143,36.3409995858294],"sales":{"202602":438}},{"id":"MA010120220805784669","name":"은하수유통","industry":"곡물/곡분 소매업","coordinates":[127.418239410927,36.3432803398028],"sales":{"202602":2488}},{"id":"MA010120220805784730","name":"이알디자인","industry":"광고물 설계/제작업","coordinates":[127.424867638063,36.3351373705396],"sales":{"202602":413}},{"id":"MA010120220805785543","name":"태원방재","industry":"기타 엔지니어링 서비스업","coordinates":[127.423942105664,36.3390517588822],"sales":{"202602":15573}},{"id":"MA010120220805785560","name":"지그래픽","industry":"명함/간판/광고물 제작","coordinates":[127.420149874792,36.3401826082874],"sales":{"202602":986}},{"id":"MA010120220805785771","name":"참선진녹즙","industry":"건강보조식품 소매업","coordinates":[127.418835848765,36.340250302953],"sales":{"202602":1736}},{"id":"MA010120220805785772","name":"참선진녹즙","industry":"생수/음료 소매업","coordinates":[127.423942105664,36.3390517588822],"sales":{"202602":107}},{"id":"MA010120220805785861","name":"문기획공사","industry":"광고 대행업","coordinates":[127.430158133273,36.339164723262],"sales":{"202602":554}},{"id":"MA010120220805786001","name":"승옥기획인쇄","industry":"광고물 설계/제작업","coordinates":[127.428249824999,36.3344404057696],"sales":{"202602":773}},{"id":"MA010120220805786065","name":"유니손","industry":"액세서리/잡화 소매업","coordinates":[127.416873718021,36.3441141923789],"sales":{"202602":209}},{"id":"MA010120220805786496","name":"승지이용원","industry":"미용실","coordinates":[127.418436974226,36.3427299315761],"sales":{"202602":282}},{"id":"MA010120220805786603","name":"오왕갤러리","industry":"예술품 소매업","coordinates":[127.42627923658,36.3407286427672],"sales":{"202602":1330}},{"id":"MA010120220805787374","name":"새롬디자인","industry":"명함/간판/광고물 제작","coordinates":[127.424244352629,36.3352206904595],"sales":{"202602":582}},{"id":"MA010120220805787714","name":"씨유","industry":"편의점","coordinates":[127.418824234895,36.3422419405609],"sales":{"202602":4741}},{"id":"MA010120220805787872","name":"드림사무용가구","industry":"중고 상품 소매업","coordinates":[127.420526797231,36.3398478477518],"sales":{"202602":372}},{"id":"MA010120220805787926","name":"큰통치킨","industry":"치킨","coordinates":[127.421519737399,36.3401417375062],"sales":{"202602":653}},{"id":"MA010120220805787957","name":"투다리교육","industry":"요리 주점","coordinates":[127.42158613229,36.3400603975439],"sales":{"202602":626}},{"id":"MA010120220805787997","name":"맥종합광고","industry":"명함/간판/광고물 제작","coordinates":[127.426274710034,36.3378539103286],"sales":{"202602":962}},{"id":"MA010120220805788148","name":"디자인스토리","industry":"명함/간판/광고물 제작","coordinates":[127.426575168205,36.3337164421787],"sales":{"202602":760}},{"id":"MA010120220805788395","name":"명랑식당","industry":"백반/한정식","coordinates":[127.428868284749,36.3355105871526],"sales":{"202602":2022}},{"id":"MA010120220805788947","name":"삼성철물","industry":"철물/공구 소매업","coordinates":[127.417723690597,36.3426603329394],"sales":{"202602":934}},{"id":"MA010120220805789333","name":"좋은하루기획사","industry":"명함/간판/광고물 제작","coordinates":[127.42508200098,36.335641266717],"sales":{"202602":532}},{"id":"MA010120220805789350","name":"삼성자이공인중개사사무소","industry":"부동산 중개/대리업","coordinates":[127.425602420895,36.3412176894419],"sales":{"202602":56}},{"id":"MA010120220805789969","name":"카페허밍","industry":"카페","coordinates":[127.422590363805,36.3403812737916],"sales":{"202602":733}},{"id":"MA010120220805790001","name":"제이렌탈","industry":"가전제품 소매업","coordinates":[127.418146732886,36.342613794737],"sales":{"202602":683}},{"id":"MA010120220805790133","name":"산내식당","industry":"백반/한정식","coordinates":[127.428727145103,36.3361779634316],"sales":{"202602":412}},{"id":"MA010120220805790448","name":"열리지프린팅","industry":"명함/간판/광고물 제작","coordinates":[127.427903665542,36.3363160909428],"sales":{"202602":923}},{"id":"MA010120220805790454","name":"파스텔기획，실사","industry":"명함/간판/광고물 제작","coordinates":[127.427596090348,36.3350645576936],"sales":{"202602":1968}},{"id":"MA010120220805790792","name":"보글보글보은식당","industry":"백반/한정식","coordinates":[127.416473151333,36.3400152426484],"sales":{"202602":1212}},{"id":"MA010120220805791013","name":"아싸라비야매운떡볶이","industry":"김밥/만두/분식","coordinates":[127.423451848748,36.3410811409186],"sales":{"202602":1385}},{"id":"MA010120220805791063","name":"하이7","industry":"슈퍼마켓","coordinates":[127.422588465141,36.3400298222178],"sales":{"202602":26370}},{"id":"MA010120220805791368","name":"한스커뮤니케이션","industry":"명함/간판/광고물 제작","coordinates":[127.427565286683,36.3355422909962],"sales":{"202602":962}},{"id":"MA010120220805791460","name":"153기획인쇄","industry":"복사업","coordinates":[127.427314049016,36.3344077081312],"sales":{"202602":361}},{"id":"MA010120220805791566","name":"안디자인","industry":"광고물 설계/제작업","coordinates":[127.427565286683,36.3355422909962],"sales":{"202602":653}},{"id":"MA010120220805791639","name":"디자인길","industry":"광고물 설계/제작업","coordinates":[127.420843320915,36.338639158655],"sales":{"202602":410}},{"id":"MA010120220805793713","name":"백두광고대행사","industry":"광고물 설계/제작업","coordinates":[127.423828523493,36.3386466328744],"sales":{"202602":1072}},{"id":"MA010120220805794110","name":"성남중고","industry":"가전제품 소매업","coordinates":[127.433622510234,36.3392062740893],"sales":{"202602":577}},{"id":"MA010120220805794921","name":"화진유통","industry":"슈퍼마켓","coordinates":[127.433471467668,36.3380803533418],"sales":{"202602":9643}},{"id":"MA010120220805795257","name":"삼성칼국수","industry":"요리 주점","coordinates":[127.418391791408,36.3426129370369],"sales":{"202602":679}},{"id":"MA010120220805795305","name":"신제일기획","industry":"명함/간판/광고물 제작","coordinates":[127.423349521316,36.3386393188706],"sales":{"202602":1011}},{"id":"MA010120220805795524","name":"샘문화","industry":"명함/간판/광고물 제작","coordinates":[127.425932563927,36.3343405453741],"sales":{"202602":352}},{"id":"MA010120220805796047","name":"선아슈퍼","industry":"슈퍼마켓","coordinates":[127.428208291216,36.3370269284752],"sales":{"202602":10671}},{"id":"MA010120220805796058","name":"고깃집","industry":"돼지고기 구이/찜","coordinates":[127.417353698328,36.3422110381728],"sales":{"202602":1365}},{"id":"MA010120220805796101","name":"오색공작소","industry":"기념품점","coordinates":[127.428872339927,36.3403138365258],"sales":{"202602":585}},{"id":"MA010120220805796227","name":"부여회관","industry":"돼지고기 구이/찜","coordinates":[127.414892416146,36.3423007141277],"sales":{"202602":864}},{"id":"MA010120220805797114","name":"크린토피아대전삼성","industry":"세탁소","coordinates":[127.423478078175,36.3418109996292],"sales":{"202602":85}},{"id":"MA010120220805797206","name":"맘스베이비","industry":"광고 대행업","coordinates":[127.423590894722,36.3400172616458],"sales":{"202602":548}},{"id":"MA010120220805797280","name":"프로모터스","industry":"모터사이클 및 부품 소매업","coordinates":[127.419467419517,36.3396262769413],"sales":{"202602":502}},{"id":"MA010120220805797389","name":"미공간인테리어","industry":"인테리어 디자인업","coordinates":[127.425602420895,36.3412176894419],"sales":{"202602":1473}},{"id":"MA010120220805798255","name":"엠스헤어코코","industry":"미용실","coordinates":[127.422046852716,36.3408067467176],"sales":{"202602":135}},{"id":"MA010120220805798646","name":"모두모아컬렉션","industry":"기타 의류 소매업","coordinates":[127.426517802923,36.339538240618],"sales":{"202602":14511}},{"id":"MA010120220805804338","name":"서울미용실","industry":"미용실","coordinates":[127.42371796877,36.3388002246865],"sales":{"202602":347}},{"id":"MA010120220805807422","name":"아카데미","industry":"명함/간판/광고물 제작","coordinates":[127.42815620048,36.337684973092],"sales":{"202602":754}},{"id":"MA010120220805809961","name":"브이아이피투어합","industry":"여행사","coordinates":[127.421175457645,36.3403321980946],"sales":{"202602":658}},{"id":"MA010120220805810534","name":"좋은하루","industry":"기타 사무 지원 서비스업","coordinates":[127.425373206405,36.3359376185939],"sales":{}},{"id":"MA010120220805811669","name":"시원엘에스","industry":"건축물 일반 청소업","coordinates":[127.416873718021,36.3441141923789],"sales":{"202602":400}},{"id":"MA010120220805811914","name":"합동소방기술단주","industry":"기타 엔지니어링 서비스업","coordinates":[127.415818030426,36.3404050292448],"sales":{"202602":50813}},{"id":"MA010120220805812061","name":"일등자동차주","industry":"자동차 정비소","coordinates":[127.421436745542,36.3412775107734],"sales":{"202602":1172}},{"id":"MA010120220805812520","name":"자명","industry":"광고물 설계/제작업","coordinates":[127.425097545845,36.3364522694976],"sales":{"202602":398}},{"id":"MA010120220805813117","name":"마이다스건설주","industry":"인테리어 디자인업","coordinates":[127.426859167413,36.3347337569131],"sales":{"202602":647}},{"id":"MA010120220805814151","name":"선인의료재단","industry":"한방병원","coordinates":[127.427962511051,36.3368926325277],"sales":{"202602":5024}},{"id":"MA010120220805814329","name":"한국사회적기업실천연구회","industry":"경영 컨설팅업","coordinates":[127.426113628143,36.3409995858294],"sales":{"202602":4723}},{"id":"MA010120220805817066","name":"지주클럽","industry":"경영 컨설팅업","coordinates":[127.428667673785,36.3375209280821],"sales":{"202602":9752}},{"id":"MA010120220805817494","name":"웹투피","industry":"명함/간판/광고물 제작","coordinates":[127.427121783628,36.3359133588049],"sales":{"202602":570}},{"id":"MA010120220805818213","name":"비에스인터내셔널","industry":"광고 대행업","coordinates":[127.428528880677,36.3365842034483],"sales":{"202602":683}},{"id":"MA010120220805818604","name":"에프스포렉스","industry":"헬스장","coordinates":[127.43234838614,36.3384268680178],"sales":{"202602":1585}},{"id":"MA010120220805819089","name":"현대시설관리","industry":"건축물 일반 청소업","coordinates":[127.427565286683,36.3355422909962],"sales":{"202602":473}},{"id":"MA010120220805824323","name":"삼성제일공판장","industry":"슈퍼마켓","coordinates":[127.426574232917,36.3396732154694],"sales":{"202602":11521}},{"id":"MA010120220805824583","name":"동키치킨식당","industry":"치킨","coordinates":[127.419102226284,36.3421508484941],"sales":{"202602":2431}},{"id":"MA010120220805824640","name":"아이씨전자","industry":"가전제품 소매업","coordinates":[127.420340103905,36.3403441508915],"sales":{"202602":1469}},{"id":"MA010120220805824826","name":"반디","industry":"카페","coordinates":[127.435307340498,36.3377222222512],"sales":{"202602":183}},{"id":"MA010120220805824904","name":"극동여관","industry":"여관/모텔","coordinates":[127.427836739141,36.3342616500597],"sales":{"202602":676}},{"id":"MA010120220805824952","name":"디자인선","industry":"광고물 설계/제작업","coordinates":[127.430589537332,36.3365948204971],"sales":{"202602":355}},{"id":"MA010120220805825357","name":"정미미용실","industry":"미용실","coordinates":[127.418059980846,36.3430556739276],"sales":{"202602":214}},{"id":"MA010120220805825426","name":"인삼당건강원","industry":"건강보조식품 소매업","coordinates":[127.418239410927,36.3432803398028],"sales":{"202602":1607}},{"id":"MA010120220805826320","name":"노벨문화사","industry":"명함/간판/광고물 제작","coordinates":[127.429121493033,36.3349689729038],"sales":{"202602":281}},{"id":"MA010120220805826417","name":"동국유리","industry":"주방/가정용품 소매업","coordinates":[127.419392708891,36.3423120409204],"sales":{"202602":151}},{"id":"MA010120220805826659","name":"우성기획","industry":"명함/간판/광고물 제작","coordinates":[127.424903939465,36.3356689351709],"sales":{"202602":1322}},{"id":"MA010120220805827516","name":"웃고문화사","industry":"명함/간판/광고물 제작","coordinates":[127.428089956242,36.3357566949813],"sales":{"202602":945}},{"id":"MA010120220805827649","name":"아트미디어21","industry":"명함/간판/광고물 제작","coordinates":[127.427565286683,36.3355422909962],"sales":{"202602":490}},{"id":"MA010120220805827990","name":"로얄총포사","industry":"운동용품 소매업","coordinates":[127.435375624728,36.3379833142649],"sales":{"202602":1231}},{"id":"MA010120220805828297","name":"프리센스커텐","industry":"침구류/커튼 소매업","coordinates":[127.423537801591,36.3384403932003],"sales":{"202602":349}},{"id":"MA010120220805828336","name":"서문상회","industry":"담배/전자담배 소매업","coordinates":[127.427768380012,36.3380558436983],"sales":{"202602":1286}},{"id":"MA010120220805828577","name":"최영상회","industry":"건어물/젓갈 소매업","coordinates":[127.430460094209,36.3373612857992],"sales":{"202602":2950}},{"id":"MA010120220805829421","name":"한아름식당","industry":"백반/한정식","coordinates":[127.426395720698,36.3396197820084],"sales":{"202602":253}},{"id":"MA010120220805829559","name":"이레기획오에이","industry":"복사업","coordinates":[127.429269499854,36.3355542055372],"sales":{"202602":906}},{"id":"MA010120220805829992","name":"다음애드","industry":"명함/간판/광고물 제작","coordinates":[127.425064058989,36.3384890450532],"sales":{"202602":1154}},{"id":"MA010120220805830058","name":"용진인쇄소","industry":"명함/간판/광고물 제작","coordinates":[127.428705263966,36.3362501359611],"sales":{"202602":641}},{"id":"MA010120220805835520","name":"민우인쇄","industry":"명함/간판/광고물 제작","coordinates":[127.427570170138,36.3343977803756],"sales":{"202602":1198}},{"id":"MA010120220805836004","name":"신진기획인쇄사","industry":"명함/간판/광고물 제작","coordinates":[127.427560895756,36.3367769171809],"sales":{"202602":330}},{"id":"MA010120220805836020","name":"세기인쇄출판","industry":"명함/간판/광고물 제작","coordinates":[127.42776626346,36.335631689394],"sales":{"202602":487}},{"id":"MA010120220805836033","name":"시대인쇄사","industry":"명함/간판/광고물 제작","coordinates":[127.427717175142,36.3368394402678],"sales":{"202602":557}},{"id":"MA010120220805836054","name":"우석문화사","industry":"명함/간판/광고물 제작","coordinates":[127.426966883616,36.3361031591569],"sales":{"202602":2629}},{"id":"MA010120220805836057","name":"한밭문화사","industry":"명함/간판/광고물 제작","coordinates":[127.427523747599,36.3340554996306],"sales":{"202602":1202}},{"id":"MA010120220805836075","name":"소망인쇄사","industry":"명함/간판/광고물 제작","coordinates":[127.428820176491,36.3348619133196],"sales":{"202602":916}},{"id":"MA010120220805836904","name":"빛나리기획","industry":"명함/간판/광고물 제작","coordinates":[127.428820176491,36.3348619133196],"sales":{"202602":968}},{"id":"MA010120220805836918","name":"구봉문화사","industry":"명함/간판/광고물 제작","coordinates":[127.42765878029,36.3343073457605],"sales":{"202602":705}},{"id":"MA010120220805836932","name":"올림픽인쇄","industry":"명함/간판/광고물 제작","coordinates":[127.427254898963,36.3358137536886],"sales":{"202602":961}},{"id":"MA010120220805836938","name":"동아인쇄기획","industry":"명함/간판/광고물 제작","coordinates":[127.424893311664,36.3378137707317],"sales":{"202602":759}},{"id":"MA010120220805840791","name":"국제오토바이","industry":"모터사이클 수리업","coordinates":[127.428620474786,36.3390711186613],"sales":{"202602":480}},{"id":"MA010120220805840806","name":"금탑오토바이","industry":"모터사이클 및 부품 소매업","coordinates":[127.424524806502,36.3355891766615],"sales":{"202602":905}},{"id":"MA010120220805840820","name":"영광세탁소","industry":"세탁소","coordinates":[127.418993781382,36.3427009454353],"sales":{"202602":174}},{"id":"MA010120220805840841","name":"종미용실","industry":"미용실","coordinates":[127.427412887923,36.3382283388756],"sales":{"202602":144}},{"id":"MA010120220805840850","name":"공인중개사이민영사무소","industry":"부동산 중개/대리업","coordinates":[127.428249824999,36.3344404057696],"sales":{"202602":30}},{"id":"MA010120220805840863","name":"청양이용원","industry":"미용실","coordinates":[127.424124864501,36.3378345237737],"sales":{"202602":192}},{"id":"MA010120220805840865","name":"현대미용실","industry":"미용실","coordinates":[127.428827091563,36.3361235343282],"sales":{"202602":179}},{"id":"MA010120220805840922","name":"한밭인쇄사","industry":"명함/간판/광고물 제작","coordinates":[127.427448835486,36.3346144965759],"sales":{"202602":1091}},{"id":"MA010120220805840931","name":"용현문화사","industry":"명함/간판/광고물 제작","coordinates":[127.42822963042,36.3368556286924],"sales":{"202602":670}},{"id":"MA010120220805840936","name":"삼진인쇄상사","industry":"명함/간판/광고물 제작","coordinates":[127.42902110351,36.3349422980402],"sales":{"202602":498}},{"id":"MA010120220805840938","name":"동인문화사","industry":"명함/간판/광고물 제작","coordinates":[127.421741393265,36.3399336852163],"sales":{"202602":680}},{"id":"MA010120220805840950","name":"학예커뮤니케이션","industry":"명함/간판/광고물 제작","coordinates":[127.424343763386,36.3350671376547],"sales":{"202602":933}},{"id":"MA010120220805840963","name":"청룡인쇄사","industry":"명함/간판/광고물 제작","coordinates":[127.427937570997,36.3343694301627],"sales":{"202602":456}},{"id":"MA010120220805840970","name":"중부산업","industry":"건축물 일반 청소업","coordinates":[127.426803472437,36.3388162806716],"sales":{"202602":189}},{"id":"MA010120220805840972","name":"국제문화사","industry":"명함/간판/광고물 제작","coordinates":[127.428061418392,36.3346123041106],"sales":{"202602":694}},{"id":"MA010120220805840983","name":"은행석유","industry":"가정용 연료 소매업","coordinates":[127.425843853633,36.3344129555547],"sales":{"202602":4826}},{"id":"MA010120220805841007","name":"대진사","industry":"명함/간판/광고물 제작","coordinates":[127.427567650637,36.3359748468224],"sales":{"202602":379}},{"id":"MA010120220805841008","name":"산그라픽스","industry":"광고물 설계/제작업","coordinates":[127.428172303927,36.3345217893352],"sales":{"202602":1954}},{"id":"MA010120220805841015","name":"신우인쇄문화사","industry":"명함/간판/광고물 제작","coordinates":[127.427268300898,36.3362282465353],"sales":{"202602":631}},{"id":"MA010120220805841019","name":"한솔인쇄사","industry":"명함/간판/광고물 제작","coordinates":[127.427717175142,36.3368394402678],"sales":{"202602":1191}},{"id":"MA010120220805841030","name":"우성인쇄사","industry":"명함/간판/광고물 제작","coordinates":[127.421096128453,36.3400801485997],"sales":{"202602":560}},{"id":"MA010120220805841063","name":"청림기획","industry":"명함/간판/광고물 제작","coordinates":[127.427121783628,36.3359133588049],"sales":{"202602":818}},{"id":"MA010120220805846406","name":"주민D&C","industry":"복사업","coordinates":[127.430589537332,36.3365948204971],"sales":{"202602":568}},{"id":"MA010120220805849007","name":"태광카공구","industry":"자동차 정비소","coordinates":[127.425588429651,36.3427407245532],"sales":{"202602":2277}},{"id":"MA010120220805850800","name":"진주상사","industry":"자전거 소매업","coordinates":[127.420776791437,36.3407661664661],"sales":{"202602":277}},{"id":"MA010120220805852103","name":"하쎈전기쿡탑","industry":"가전제품 소매업","coordinates":[127.429027360624,36.3381144130678],"sales":{"202602":935}},{"id":"MA010120220805854417","name":"삼우유통","industry":"그 외 기타 상품 전문 소매업","coordinates":[127.426641574618,36.3418087595348],"sales":{"202602":1557}},{"id":"MA010120220805857231","name":"민영미장원","industry":"미용실","coordinates":[127.42595027539,36.3396393939699],"sales":{"202602":104}},{"id":"MA010120220805857232","name":"광신세탁소","industry":"세탁소","coordinates":[127.423572827059,36.3387376569187],"sales":{"202602":225}},{"id":"MA010120220805857249","name":"가람설비","industry":"그 외 기타 개인/가정용품 수리업","coordinates":[127.416873718021,36.3441141923789],"sales":{"202602":178}},{"id":"MA010120220805857255","name":"오성그릇도소매","industry":"주방/가정용품 소매업","coordinates":[127.417859477276,36.3430563751703],"sales":{"202602":1207}},{"id":"MA010120220805857260","name":"장미미용","industry":"미용실","coordinates":[127.417440261101,36.3417331130829],"sales":{"202602":118}},{"id":"MA010120220805857284","name":"수복식당","industry":"백반/한정식","coordinates":[127.418474248504,36.343450740903],"sales":{"202602":970}},{"id":"MA010120220805857287","name":"신성공냉이앤지","industry":"중고 상품 소매업","coordinates":[127.426720312753,36.3399069994717],"sales":{"202602":216}},{"id":"MA010120220805857296","name":"논산떡전문","industry":"떡/한과","coordinates":[127.417614898505,36.3431473475897],"sales":{"202602":900}},{"id":"MA010120220805857340","name":"한미셀프세차장","industry":"자동차 정비소","coordinates":[127.420687293656,36.3406943875381],"sales":{"202602":765}},{"id":"MA010120220805857341","name":"약국","industry":"약국","coordinates":[127.418980277016,36.3422594170904],"sales":{"202602":8460}},{"id":"MA010120220805857352","name":"장춘당건재한약방","industry":"건강보조식품 소매업","coordinates":[127.419682370696,36.3423200357875],"sales":{"202602":3413}},{"id":"MA010120220805857554","name":"경북상사","industry":"철물/공구 소매업","coordinates":[127.422185041914,36.3395806604665],"sales":{"202602":694}},{"id":"MA010120220805857564","name":"위성정보통신","industry":"핸드폰 소매업","coordinates":[127.421231490811,36.340395082867],"sales":{"202602":416}},{"id":"MA010120220805857566","name":"선호탕","industry":"목욕탕/사우나","coordinates":[127.421495566328,36.3397903644407],"sales":{"202602":3269}},{"id":"MA010120220805857577","name":"대전양봉원","industry":"반찬/식료품 소매업","coordinates":[127.427108196516,36.3395451438619],"sales":{"202602":1802}},{"id":"MA010120220805858942","name":"형제상회","industry":"반찬/식료품 소매업","coordinates":[127.430460094209,36.3373612857992],"sales":{"202602":505}},{"id":"MA010120220805858944","name":"극동이용원","industry":"미용실","coordinates":[127.427836739141,36.3342616500597],"sales":{"202602":262}},{"id":"MA010120220805858950","name":"성천기획인쇄","industry":"명함/간판/광고물 제작","coordinates":[127.423768153629,36.3357270383026],"sales":{"202602":766}},{"id":"MA010120220805858960","name":"복래상회","industry":"채소/과일 소매업","coordinates":[127.430460094209,36.3373612857992],"sales":{"202602":692}},{"id":"MA010120220805859006","name":"백조슈퍼","industry":"슈퍼마켓","coordinates":[127.425710738851,36.3345125591189],"sales":{"202602":11190}},{"id":"MA010120220805859517","name":"삼성철물","industry":"철물/공구 소매업","coordinates":[127.428049146565,36.3344050776378],"sales":{"202602":369}},{"id":"MA010120220805862809","name":"선일기업주","industry":"상용 인력 공급 및 인사관리 서비스업","coordinates":[127.426545356027,36.3364200757688],"sales":{"202602":4646}},{"id":"MA010120220805863686","name":"서울우유협동조합","industry":"기타 사무 지원 서비스업","coordinates":[127.419584150215,36.3426988741162],"sales":{}},{"id":"MA010120220805867793","name":"갓피플","industry":"명함/간판/광고물 제작","coordinates":[127.427911451974,36.3357032636969],"sales":{"202602":682}},{"id":"MA010120220806023601","name":"참디자인","industry":"광고물 설계/제작업","coordinates":[127.427523747599,36.3340554996306],"sales":{"202602":457}},{"id":"MA010120220806053824","name":"반석정보통신","industry":"핸드폰 소매업","coordinates":[127.421918882369,36.3397978824615],"sales":{"202602":317}},{"id":"MA010120220806170340","name":"공주식당","industry":"백반/한정식","coordinates":[127.421231490811,36.340395082867],"sales":{"202602":614}},{"id":"MA010120220806170481","name":"효성대일","industry":"모터사이클 및 부품 소매업","coordinates":[127.421272162692,36.3438103922129],"sales":{"202602":376}},{"id":"MA010120220806170630","name":"한밭도장기기","industry":"그 외 기타 상품 전문 소매업","coordinates":[127.420150304646,36.3423364150806],"sales":{"202602":1758}},{"id":"MA010120220806171301","name":"한밭중고전자","industry":"중고 상품 소매업","coordinates":[127.428495137621,36.3385578983069],"sales":{"202602":258}},{"id":"MA010120220806173125","name":"미미헤어센스","industry":"미용실","coordinates":[127.422606506856,36.3392457360128],"sales":{"202602":150}},{"id":"MA010120220806174141","name":"새한에스피","industry":"명함/간판/광고물 제작","coordinates":[127.42433161127,36.3389872942832],"sales":{"202602":665}},{"id":"MA010120220806174177","name":"청구디자인","industry":"명함/간판/광고물 제작","coordinates":[127.426632429345,36.3340046140825],"sales":{"202602":601}},{"id":"MA010120220806174278","name":"녹원광고기획","industry":"명함/간판/광고물 제작","coordinates":[127.427108196516,36.3395451438619],"sales":{"202602":676}},{"id":"MA010120220806175054","name":"청림기획","industry":"광고물 설계/제작업","coordinates":[127.428257717341,36.3358822585386],"sales":{"202602":844}},{"id":"MA010120220806175366","name":"하늘북","industry":"광고 대행업","coordinates":[127.42848480551,36.3346378222234],"sales":{"202602":1345}},{"id":"MA010120220806175565","name":"토탈건축사사무소","industry":"건축 설계 및 관련 서비스업","coordinates":[127.418146732886,36.342613794737],"sales":{}},{"id":"MA010120220806177428","name":"백제당","industry":"예술품 소매업","coordinates":[127.429523991796,36.3352468914971],"sales":{"202602":1352}},{"id":"MA010120220806179696","name":"세손광고기획","industry":"명함/간판/광고물 제작","coordinates":[127.42479534822,36.3361829913165],"sales":{"202602":624}},{"id":"MA010120220806180828","name":"한밭자이부동산중개인사무소","industry":"부동산 중개/대리업","coordinates":[127.425214081005,36.3414984360003],"sales":{"202602":93}},{"id":"MA010120220806182831","name":"동촌기획","industry":"가전제품 소매업","coordinates":[127.428446323945,36.3357464062221],"sales":{"202602":698}},{"id":"MA010120220806184349","name":"이센스","industry":"명함/간판/광고물 제작","coordinates":[127.427254898963,36.3358137536886],"sales":{"202602":977}},{"id":"MA010120220806189299","name":"디자인플러스","industry":"명함/간판/광고물 제작","coordinates":[127.42308302704,36.3387934623886],"sales":{"202602":1461}},{"id":"MA010120220806189569","name":"거산기획문화사","industry":"명함/간판/광고물 제작","coordinates":[127.424214750011,36.3359237126103],"sales":{"202602":1485}},{"id":"MA010120220806190454","name":"대한기업","industry":"건축물 일반 청소업","coordinates":[127.417244183443,36.3425628788138],"sales":{"202602":537}},{"id":"MA010120220806191887","name":"금광공인중개사사무소","industry":"부동산 중개/대리업","coordinates":[127.426517802923,36.339538240618],"sales":{"202602":237}},{"id":"MA010120220806193530","name":"청백기획인쇄","industry":"명함/간판/광고물 제작","coordinates":[127.427883951717,36.334748115957],"sales":{"202602":398}},{"id":"MA010120220806197639","name":"워쉬보이크리닝","industry":"소독, 구충 및 방제 서비스업","coordinates":[127.424111333004,36.3394476755419],"sales":{"202602":186}},{"id":"MA010120220806200187","name":"대흥인쇄사","industry":"명함/간판/광고물 제작","coordinates":[127.424903939465,36.3356689351709],"sales":{"202602":890}},{"id":"MA010120220806201240","name":"황부자칼국수","industry":"국수/칼국수","coordinates":[127.425925888133,36.3412976427769],"sales":{"202602":845}},{"id":"MA010120220806206847","name":"게이트맨중구","industry":"철물/공구 소매업","coordinates":[127.422474708307,36.3437160295463],"sales":{"202602":914}},{"id":"MA010120220806207404","name":"안전광고기획","industry":"명함/간판/광고물 제작","coordinates":[127.427505312684,36.3347584826931],"sales":{"202602":650}},{"id":"MA010120220806210033","name":"지오그래픽앤포토","industry":"광고물 설계/제작업","coordinates":[127.426096588681,36.3337812316554],"sales":{"202602":186}},{"id":"MA010120220806213139","name":"디자인위드디위드인테리어","industry":"인테리어 디자인업","coordinates":[127.423815041594,36.3382141165313],"sales":{"202602":273}},{"id":"MA010120220806217893","name":"신흥복사","industry":"복사업","coordinates":[127.428049146565,36.3344050776378],"sales":{"202602":403}},{"id":"MA010120220806218148","name":"살림창고","industry":"주방/가정용품 소매업","coordinates":[127.425925888133,36.3412976427769],"sales":{"202602":751}},{"id":"MA010120220806221796","name":"다인","industry":"중고 상품 소매업","coordinates":[127.430060900317,36.3376871460306],"sales":{"202602":437}},{"id":"MA010120220806227124","name":"장성","industry":"중국집","coordinates":[127.427768380012,36.3380558436983],"sales":{"202602":3056}},{"id":"MA010120220806227948","name":"디자인디앤에이","industry":"명함/간판/광고물 제작","coordinates":[127.428249824999,36.3344404057696],"sales":{"202602":673}},{"id":"MA010120220806229422","name":"씨에스","industry":"명함/간판/광고물 제작","coordinates":[127.425178745191,36.3370467565001],"sales":{"202602":378}},{"id":"MA010120220806230600","name":"건축사사무소차경","industry":"건축 설계 및 관련 서비스업","coordinates":[127.430589537332,36.3365948204971],"sales":{}},{"id":"MA010120220806231039","name":"나로기획인쇄","industry":"명함/간판/광고물 제작","coordinates":[127.42848480551,36.3346378222234],"sales":{"202602":771}},{"id":"MA010120220806245134","name":"홍익관광여행사합","industry":"여행사","coordinates":[127.430589537332,36.3365948204971],"sales":{"202602":1224}},{"id":"MA010120220806248342","name":"드림타워","industry":"편의점","coordinates":[127.422266954011,36.3423740135473],"sales":{"202602":3127}},{"id":"MA010120220806350098","name":"디자인인코","industry":"명함/간판/광고물 제작","coordinates":[127.425443318129,36.3365411566808],"sales":{"202602":407}},{"id":"MA010120220806362868","name":"학하삼성셀프주유소","industry":"주유소","coordinates":[127.427744277838,36.3397591509239],"sales":{"202602":37148}},{"id":"MA010120220806402069","name":"씨유한밭","industry":"편의점","coordinates":[127.423478078175,36.3418109996292],"sales":{"202602":2574}},{"id":"MA010120220806431272","name":"파워디자인","industry":"광고물 설계/제작업","coordinates":[127.428820176491,36.3348619133196],"sales":{"202602":1415}},{"id":"MA010120220806467848","name":"형님클라쓰","industry":"기타 의류 소매업","coordinates":[127.429121493033,36.3349689729038],"sales":{"202602":5134}},{"id":"MA010120220806473051","name":"티에이치컨설팅","industry":"도시 계획 및 조경 설계 서비스업","coordinates":[127.416446500036,36.3412859926126],"sales":{}},{"id":"MA010120220806522929","name":"노코노리수","industry":"서점","coordinates":[127.426517802923,36.339538240618],"sales":{"202602":10837}},{"id":"MA010120220806566020","name":"동네수선","industry":"의류/이불 수선업","coordinates":[127.422109503187,36.3400315148799],"sales":{"202602":208}},{"id":"MA010120220806603753","name":"솔CG","industry":"제품 디자인업","coordinates":[127.417059769421,36.3434917326444],"sales":{}},{"id":"MA010120220806632558","name":"지산TIC","industry":"화장품 소매업","coordinates":[127.424979847227,36.3393905197411],"sales":{"202602":711}},{"id":"MA010120220806644100","name":"청정에프엘에스","industry":"슈퍼마켓","coordinates":[127.427254066253,36.3417795361231],"sales":{"202602":5092}},{"id":"MA010120220806743089","name":"케이에스소방","industry":"그 외 기타 상품 전문 소매업","coordinates":[127.421781115047,36.3431687630052],"sales":{"202602":2535}},{"id":"MA010120220806955581","name":"미트트리빅마트점","industry":"정육점","coordinates":[127.422665656615,36.3398853612208],"sales":{"202602":5536}},{"id":"MA010120220806971982","name":"삼성자이파리바게뜨","industry":"빵/도넛","coordinates":[127.421869215759,36.3409155149174],"sales":{"202602":174}},{"id":"MA010120220807020733","name":"제래토종국밥","industry":"국/탕/찌개류","coordinates":[127.418423280167,36.3422523568279],"sales":{"202602":1390}},{"id":"MA010120220807046815","name":"월드원","industry":"경영 컨설팅업","coordinates":[127.419109391121,36.339330145189],"sales":{"202602":3129}},{"id":"MA010120220807067431","name":"게랑나랑","industry":"수산물 소매업","coordinates":[127.420340103905,36.3403441508915],"sales":{"202602":3255}},{"id":"MA010120220807094263","name":"푸르네테크","industry":"장난감 소매업","coordinates":[127.424893311664,36.3378137707317],"sales":{"202602":26059}},{"id":"MA010120220807107532","name":"한밭댄스학원","industry":"레크리에이션 교육기관","coordinates":[127.42508200098,36.335641266717],"sales":{"202602":282}},{"id":"MA010120220807124240","name":"인테리어포인트","industry":"인테리어 디자인업","coordinates":[127.426083349437,36.339530778593],"sales":{"202602":532}},{"id":"MA010120220807172025","name":"송화식당","industry":"백반/한정식","coordinates":[127.426963099933,36.3394915918213],"sales":{"202602":635}},{"id":"MA010120220807281239","name":"샬롬기획인쇄","industry":"광고물 설계/제작업","coordinates":[127.427343264953,36.3356782614153],"sales":{"202602":1497}},{"id":"MA010120220807332502","name":"원인테리어필름","industry":"인테리어 디자인업","coordinates":[127.415534854643,36.3437133266631],"sales":{"202602":485}},{"id":"MA010120220807366182","name":"오천사애드컴","industry":"명함/간판/광고물 제작","coordinates":[127.42822963042,36.3368556286924],"sales":{"202602":826}},{"id":"MA010120220807787500","name":"다원애드","industry":"광고 대행업","coordinates":[127.415230931515,36.341019869733],"sales":{"202602":901}},{"id":"MA010120220807792118","name":"농장사람들식당","industry":"소고기 구이/찜","coordinates":[127.425827554685,36.3396037842981],"sales":{"202602":2192}},{"id":"MA010120220807793599","name":"뉴한빛공인중개사사무소","industry":"부동산 중개/대리업","coordinates":[127.422845189919,36.3401280434183],"sales":{"202602":73}},{"id":"MA010120220807800853","name":"보문고등학교매점","industry":"슈퍼마켓","coordinates":[127.424120223248,36.336978423554],"sales":{"202602":19234}},{"id":"MA010120220807891471","name":"문화사가을","industry":"명함/간판/광고물 제작","coordinates":[127.428172303927,36.3345217893352],"sales":{"202602":1453}},{"id":"MA010120220807994381","name":"명성에너지","industry":"가정용 연료 소매업","coordinates":[127.422761667157,36.3391009992032],"sales":{"202602":5732}},{"id":"MA010120220808024007","name":"림춘","industry":"중국집","coordinates":[127.436452071746,36.3372674597332],"sales":{"202602":2355}},{"id":"MA010120220808048743","name":"엔터월드","industry":"부동산 중개/대리업","coordinates":[127.42637630937,36.3340145398214],"sales":{"202602":27}},{"id":"MA010120220808052359","name":"태극통신","industry":"핸드폰 소매업","coordinates":[127.418690808444,36.3422874668403],"sales":{"202602":635}},{"id":"MA010120220808056796","name":"동인기획","industry":"명함/간판/광고물 제작","coordinates":[127.421741393265,36.3399336852163],"sales":{"202602":586}},{"id":"MA010120220808068554","name":"디원테크DWONTech","industry":"자동차 부품 소매업","coordinates":[127.426901309624,36.3342920302499],"sales":{"202602":2336}},{"id":"MA010120220808105187","name":"스탠다드","industry":"소독, 구충 및 방제 서비스업","coordinates":[127.427565286683,36.3355422909962],"sales":{"202602":242}},{"id":"MA010120220808257197","name":"대전누수탐지싱크대막힘변기설비공사","industry":"건축물 일반 청소업","coordinates":[127.423205160224,36.338720935937],"sales":{"202602":500}},{"id":"MA010120220808266201","name":"연산순대국밥","industry":"백반/한정식","coordinates":[127.419865119927,36.3390120811725],"sales":{"202602":1546}},{"id":"MA010120220808285053","name":"한국케미","industry":"환경 관련 엔지니어링 서비스업","coordinates":[127.426608860059,36.3378527180191],"sales":{}},{"id":"MA010120220808290605","name":"넥스웨이브","industry":"시각 디자인업","coordinates":[127.423768153629,36.3357270383026],"sales":{"202602":304}},{"id":"MA010120220808361245","name":"나비스타","industry":"자동차 부품 소매업","coordinates":[127.419109391121,36.339330145189],"sales":{"202602":722}},{"id":"MA010120220808537445","name":"브레드&오븐","industry":"빵/도넛","coordinates":[127.418536646932,36.3426214415578],"sales":{"202602":2769}},{"id":"MA010120220808576279","name":"레네의작업실","industry":"화장품 소매업","coordinates":[127.426228376274,36.3334383148765],"sales":{"202602":996}},{"id":"MA010120220808652568","name":"에스알그루터기","industry":"유사 의료업","coordinates":[127.427523747599,36.3340554996306],"sales":{"202602":323}},{"id":"MA010120220808768777","name":"이삭기획","industry":"명함/간판/광고물 제작","coordinates":[127.424437930754,36.3421590526586],"sales":{"202602":706}},{"id":"MA010120220809134357","name":"달달콩","industry":"카페","coordinates":[127.422312480132,36.3404903970891],"sales":{"202602":724}},{"id":"MA010120220809232486","name":"감골오리","industry":"닭/오리고기 구이/찜","coordinates":[127.428909285339,36.3389258944948],"sales":{"202602":881}},{"id":"MA010120220809265311","name":"3메타","industry":"자동차 정비소","coordinates":[127.424214750011,36.3359237126103],"sales":{"202602":1394}},{"id":"MA010120220809268021","name":"계룡소비자유통","industry":"슈퍼마켓","coordinates":[127.434523028063,36.3388966038768],"sales":{"202602":16039}},{"id":"MA010120220809576084","name":"지성이네","industry":"돼지고기 구이/찜","coordinates":[127.42137575997,36.3402954450136],"sales":{"202602":1330}},{"id":"MA010120220809621016","name":"청기와","industry":"백반/한정식","coordinates":[127.422885603608,36.3393619015386],"sales":{"202602":1402}},{"id":"MA010120220809666737","name":"늘사랑약국","industry":"약국","coordinates":[127.420152386144,36.3427239129403],"sales":{"202602":6852}},{"id":"MA010120220809680944","name":"솔레스토랑","industry":"백반/한정식","coordinates":[127.43234838614,36.3384268680178],"sales":{"202602":1124}},{"id":"MA010120220809720281","name":"문구요","industry":"문구/회화용품 소매업","coordinates":[127.428228594549,36.3366663855666],"sales":{"202602":3810}},{"id":"MA010120220809724068","name":"꼼꼼샵","industry":"자동차 정비소","coordinates":[127.424214750011,36.3359237126103],"sales":{"202602":1230}},{"id":"MA010120220809780247","name":"위드웰커뮤니케이션","industry":"광고물 설계/제작업","coordinates":[127.425658311123,36.3412535373808],"sales":{"202602":925}},{"id":"MA010120220809816232","name":"불맛에빠졌어요","industry":"돼지고기 구이/찜","coordinates":[127.422552712606,36.3395973845592],"sales":{"202602":570}},{"id":"MA010120220810058420","name":"다육이랑꽃이랑","industry":"꽃집","coordinates":[127.428102981785,36.3401724069993],"sales":{"202602":685}},{"id":"MA010120220810094911","name":"커피프렌드식당","industry":"카페","coordinates":[127.425072948825,36.3421748191461],"sales":{"202602":384}},{"id":"MA010120220810122345","name":"솔라씨","industry":"카페","coordinates":[127.43234838614,36.3384268680178],"sales":{"202602":824}},{"id":"MA010120220810163222","name":"동네","industry":"생맥주 전문","coordinates":[127.422512003506,36.340309456846],"sales":{"202602":967}},{"id":"MA010120220810249537","name":"감성스터디카페대전","industry":"독서실/스터디 카페","coordinates":[127.422590363805,36.3403812737916],"sales":{"202602":207}},{"id":"MA010120220810303401","name":"무릉열쇠","industry":"의류/이불 수선업","coordinates":[127.417844986963,36.3403438889767],"sales":{"202602":190}},{"id":"MA010120220810349376","name":"젤라피부관리","industry":"피부 관리실","coordinates":[127.422431842732,36.3399042114168],"sales":{"202602":528}},{"id":"MA010120220810354671","name":"바른인쇄·광고기획","industry":"명함/간판/광고물 제작","coordinates":[127.427975177495,36.3371719515392],"sales":{"202602":476}},{"id":"MA010120220810408894","name":"신촌리칼국수","industry":"국수/칼국수","coordinates":[127.425658311123,36.3412535373808],"sales":{"202602":1479}},{"id":"MA010120220810570978","name":"삼성식당","industry":"백반/한정식","coordinates":[127.430460094209,36.3373612857992],"sales":{"202602":428}},{"id":"MA010120220810659895","name":"브래인드","industry":"명함/간판/광고물 제작","coordinates":[127.428347167122,36.335945020267],"sales":{"202602":667}},{"id":"MA010120220811073372","name":"아림갤러리","industry":"예술품 소매업","coordinates":[127.425114272101,36.3415798968167],"sales":{"202602":235}},{"id":"MA010120220811157261","name":"대림바스대전충북","industry":"가전제품 수리업","coordinates":[127.42308302704,36.3387934623886],"sales":{"202602":472}},{"id":"MA010120220811497363","name":"서울안전상회","industry":"슈퍼마켓","coordinates":[127.433383708752,36.3383239888671],"sales":{"202602":4453}},{"id":"MA010120220811604297","name":"이현기획","industry":"광고물 설계/제작업","coordinates":[127.429714079523,36.3353813845314],"sales":{"202602":1153}},{"id":"MA010120220811724403","name":"자이옷수선","industry":"의류/이불 수선업","coordinates":[127.422753645502,36.3396777797156],"sales":{"202602":115}},{"id":"MA010120220811750824","name":"스타미용실","industry":"미용실","coordinates":[127.423282836894,36.3386665903301],"sales":{"202602":141}},{"id":"MA010120220811783878","name":"행복한집","industry":"백반/한정식","coordinates":[127.417821775644,36.3422544613355],"sales":{"202602":1481}},{"id":"MA010120220811803880","name":"일등상사","industry":"생수/음료 소매업","coordinates":[127.415023647604,36.3439403968116],"sales":{"202602":64}},{"id":"MA010120220811884459","name":"연두실사출력","industry":"명함/간판/광고물 제작","coordinates":[127.427343264953,36.3356782614153],"sales":{"202602":809}},{"id":"MA010120220811904374","name":"현암중고타이어","industry":"타이어 소매업","coordinates":[127.419865119927,36.3390120811725],"sales":{"202602":2957}},{"id":"MA010120220811929348","name":"조성춘행정사사무소","industry":"행정사","coordinates":[127.434199712285,36.3388437084733],"sales":{"202602":990}},{"id":"MA010120220811950998","name":"대전오토바이매매단지","industry":"모터사이클 및 부품 소매업","coordinates":[127.430589537332,36.3365948204971],"sales":{"202602":139}},{"id":"MA010120220811999782","name":"장원갤러리","industry":"예술품 소매업","coordinates":[127.426517802923,36.339538240618],"sales":{"202602":711}},{"id":"MA010120220812032005","name":"디자인魚어","industry":"광고물 설계/제작업","coordinates":[127.429323063484,36.3351665076347],"sales":{"202602":1122}},{"id":"MA010120220812048705","name":"카페다온","industry":"카페","coordinates":[127.422911047488,36.3399475753623],"sales":{"202602":1061}},{"id":"MA010120220812057039","name":"나이스인력","industry":"고용 알선업","coordinates":[127.419467419517,36.3396262769413],"sales":{}},{"id":"MA010120220812108586","name":"아트토이","industry":"제품 디자인업","coordinates":[127.417059769421,36.3434917326444],"sales":{}},{"id":"MA010120220812113535","name":"소리골","industry":"김밥/만두/분식","coordinates":[127.418727216424,36.3428460677024],"sales":{"202602":715}},{"id":"MA010120220812132719","name":"코스모스","industry":"기타 의류 소매업","coordinates":[127.425827664069,36.3334848020367],"sales":{"202602":2545}},{"id":"MA010120220812144935","name":"엉터리슈퍼","industry":"슈퍼마켓","coordinates":[127.418742697588,36.343657070753],"sales":{"202602":4200}},{"id":"MA010120220812213318","name":"조은이디앤피","industry":"명함/간판/광고물 제작","coordinates":[127.427254898963,36.3358137536886],"sales":{"202602":590}},{"id":"MA010120220812218688","name":"빛광고","industry":"광고 대행업","coordinates":[127.415341745324,36.3409113436315],"sales":{"202602":1767}},{"id":"MA010120220812218866","name":"용호연쇄점","industry":"슈퍼마켓","coordinates":[127.428490465507,36.3397384543713],"sales":{"202602":12140}},{"id":"MA010120220812244977","name":"토탈프린팅대성","industry":"명함/간판/광고물 제작","coordinates":[127.427655321451,36.3377498487247],"sales":{"202602":812}},{"id":"MA010120220812293220","name":"에스엠커뮤니케이션즈","industry":"광고 대행업","coordinates":[127.428528880677,36.3365842034483],"sales":{"202602":927}},{"id":"MA010120220812317150","name":"신대양팜","industry":"슈퍼마켓","coordinates":[127.415818030426,36.3404050292448],"sales":{"202602":9749}},{"id":"MA010120220812365769","name":"온누리기술단","industry":"도시 계획 및 조경 설계 서비스업","coordinates":[127.421584901661,36.3418987989159],"sales":{}},{"id":"MA010120220812423745","name":"예광기업사","industry":"명함/간판/광고물 제작","coordinates":[127.428336867811,36.3360982570189],"sales":{"202602":633}},{"id":"MA010120220812432915","name":"까르페디엠","industry":"카페","coordinates":[127.425271735088,36.3418587007627],"sales":{"202602":751}},{"id":"MA010120220812458393","name":"백화","industry":"화장품 소매업","coordinates":[127.428249824999,36.3344404057696],"sales":{"202602":1597}},{"id":"MA010120220812465974","name":"지리산흑염소건강원","industry":"건강보조식품 소매업","coordinates":[127.419414551955,36.3422308585223],"sales":{"202602":397}},{"id":"MA010120220812466398","name":"현암뚝방구이","industry":"백반/한정식","coordinates":[127.41685109728,36.339869736911],"sales":{"202602":392}},{"id":"MA010120220812552527","name":"국고커뮤니케이션","industry":"명함/간판/광고물 제작","coordinates":[127.427911451974,36.3357032636969],"sales":{"202602":855}},{"id":"MA010120220812559056","name":"행운칼국수","industry":"국수/칼국수","coordinates":[127.422719012266,36.339452608425],"sales":{"202602":1092}},{"id":"MA010120220812579506","name":"정헤어샵","industry":"미용실","coordinates":[127.418742697588,36.343657070753],"sales":{"202602":153}},{"id":"MA010120220812583902","name":"블루밍통신대전","industry":"핸드폰 소매업","coordinates":[127.427565286683,36.3355422909962],"sales":{"202602":801}},{"id":"MA010120220812600403","name":"테크노노래연습장","industry":"노래방","coordinates":[127.422753645502,36.3396777797156],"sales":{"202602":645}},{"id":"MA010120220812602998","name":"로얄당구장","industry":"당구장","coordinates":[127.426396752246,36.3398090250858],"sales":{"202602":243}},{"id":"MA010120220812624640","name":"토마토PC방","industry":"PC방","coordinates":[127.418824234895,36.3422419405609],"sales":{"202602":1365}},{"id":"MA010120220812628234","name":"환상노래연습장","industry":"노래방","coordinates":[127.418423280167,36.3422523568279],"sales":{"202602":1084}},{"id":"MA010120220812703713","name":"백제의뜰","industry":"그 외 기타 교육기관","coordinates":[127.426948909817,36.3348505892076],"sales":{"202602":1113}},{"id":"MA010120220812708174","name":"칠성","industry":"화장품 소매업","coordinates":[127.427911451974,36.3357032636969],"sales":{"202602":904}},{"id":"MA010120220812746298","name":"G텔레콤","industry":"핸드폰 소매업","coordinates":[127.423277891076,36.3398111003735],"sales":{"202602":184}},{"id":"MA010120220812959360","name":"한영타올","industry":"침구류/커튼 소매업","coordinates":[127.425114272101,36.3415798968167],"sales":{"202602":633}},{"id":"MA010120220813008797","name":"삼광기업","industry":"자동차 세차장","coordinates":[127.430820857948,36.336125375661],"sales":{"202602":666}},{"id":"MA010120220813012018","name":"우리온누리약국","industry":"약국","coordinates":[127.42889528122,36.3384032631912],"sales":{"202602":4512}},{"id":"MA010120220813025283","name":"샤인","industry":"사진촬영업","coordinates":[127.425097545845,36.3364522694976],"sales":{"202602":409}},{"id":"MA010120220813036454","name":"청정이춘봉","industry":"치킨","coordinates":[127.427254066253,36.3417795361231],"sales":{"202602":783}},{"id":"MA010120220813091262","name":"국제프린트인쇄","industry":"명함/간판/광고물 제작","coordinates":[127.427800810854,36.3358388361222],"sales":{"202602":463}},{"id":"MA010120220813139859","name":"백석장묘","industry":"장례식장","coordinates":[127.423433653603,36.3377198219367],"sales":{"202602":5602}},{"id":"MA010120220813141898","name":"우리헤어","industry":"미용실","coordinates":[127.418304806085,36.3409280442731],"sales":{"202602":220}},{"id":"MA010120220813165898","name":"대건안전","industry":"주방/가정용품 소매업","coordinates":[127.424498516267,36.3430600121371],"sales":{"202602":1182}},{"id":"MA010120220813294234","name":"조은약국","industry":"약국","coordinates":[127.422845189919,36.3401280434183],"sales":{"202602":7066}},{"id":"MA010120220813320239","name":"보석상자","industry":"중고 상품 소매업","coordinates":[127.41797130156,36.3431370898507],"sales":{"202602":543}},{"id":"MA010120220813353514","name":"고래식당","industry":"백반/한정식","coordinates":[127.429170048764,36.3356987507886],"sales":{"202602":861}},{"id":"MA010120220813368539","name":"행복한피부관리","industry":"피부 관리실","coordinates":[127.423478078175,36.3418109996292],"sales":{"202602":671}},{"id":"MA010120220813387452","name":"참좋은진로직업현장학습체험센터","industry":"직원 훈련기관","coordinates":[127.428374561599,36.3348454878287],"sales":{}},{"id":"MA010120220813391839","name":"더좋은마트","industry":"슈퍼마켓","coordinates":[127.417665781896,36.342245994873],"sales":{"202602":9692}},{"id":"MA010120220813478665","name":"우리밥식당","industry":"백반/한정식","coordinates":[127.422423143126,36.3424185203014],"sales":{"202602":1901}},{"id":"MA010120220813486406","name":"디앤씨컴퍼니","industry":"포장/충전업","coordinates":[127.426541067189,36.3335903992533],"sales":{"202602":1450}},{"id":"MA010120220813503612","name":"푸른나무","industry":"명함/간판/광고물 제작","coordinates":[127.427565286683,36.3355422909962],"sales":{"202602":992}},{"id":"MA010120220813512430","name":"신.팔팔개발","industry":"고용 알선업","coordinates":[127.415165587348,36.3433991988896],"sales":{}},{"id":"MA010120220813512438","name":"대경종합인쇄","industry":"명함/간판/광고물 제작","coordinates":[127.42138223841,36.3394302939888],"sales":{"202602":581}},{"id":"MA010120220813513628","name":"파트너인테리어","industry":"인테리어 디자인업","coordinates":[127.415833264959,36.3432707130063],"sales":{"202602":595}},{"id":"MA010120220813535410","name":"한일프린텍","industry":"명함/간판/광고물 제작","coordinates":[127.42433161127,36.3389872942832],"sales":{"202602":752}},{"id":"MA010120220813548948","name":"디에스애드","industry":"명함/간판/광고물 제작","coordinates":[127.417889748042,36.3445522193551],"sales":{"202602":270}},{"id":"MA010120220813621394","name":"꽃돈삼겹살","industry":"돼지고기 구이/찜","coordinates":[127.418423280167,36.3422523568279],"sales":{"202602":982}},{"id":"MA010120220813626404","name":"라부테크","industry":"인테리어 디자인업","coordinates":[127.426113628143,36.3409995858294],"sales":{"202602":442}},{"id":"MA010120220813678346","name":"미소네밥상","industry":"백반/한정식","coordinates":[127.429313804615,36.3355089876188],"sales":{"202602":1092}},{"id":"MA010120220813702380","name":"링크팩토리","industry":"모터사이클 수리업","coordinates":[127.430589537332,36.3365948204971],"sales":{"202602":604}},{"id":"MA010120220813766346","name":"채현정보통신","industry":"핸드폰 소매업","coordinates":[127.422312480132,36.3404903970891],"sales":{"202602":583}},{"id":"MA010120220813790617","name":"에이팩대전충청","industry":"철물/공구 소매업","coordinates":[127.421980063009,36.3428796847727],"sales":{"202602":1186}},{"id":"MA010120220813797159","name":"타이어테크","industry":"자동차 정비소","coordinates":[127.421108091831,36.3402333062221],"sales":{"202602":978}},{"id":"MA010120220813858358","name":"소망식당","industry":"백반/한정식","coordinates":[127.418214723447,36.3428298387905],"sales":{"202602":347}},{"id":"MA010120220813884489","name":"미가분식","industry":"김밥/만두/분식","coordinates":[127.428827091563,36.3361235343282],"sales":{"202602":499}},{"id":"MA010120220813943999","name":"귀뚜라미보일러서비스","industry":"가전제품 수리업","coordinates":[127.418053960151,36.341929226352],"sales":{"202602":363}},{"id":"MA010120220813948782","name":"바다카피","industry":"복사업","coordinates":[127.426250575351,36.3395572175256],"sales":{"202602":527}},{"id":"MA010120220813979362","name":"동한볼링센터","industry":"운동용품 소매업","coordinates":[127.425925888133,36.3412976427769],"sales":{"202602":1761}},{"id":"MA010120220813980808","name":"다가인력","industry":"고용 알선업","coordinates":[127.437636253487,36.3378939517925],"sales":{}},{"id":"MA010120220814065088","name":"크린시티","industry":"건축물 일반 청소업","coordinates":[127.425381619262,36.3395332783772],"sales":{"202602":258}},{"id":"MA010120220814077682","name":"세현기획","industry":"명함/간판/광고물 제작","coordinates":[127.414856848361,36.341895308818],"sales":{"202602":705}},{"id":"MA010120220814113892","name":"신한밭공인중개사사무소","industry":"부동산 중개/대리업","coordinates":[127.424014799934,36.3380782316738],"sales":{"202602":56}},{"id":"MA010120220814113930","name":"디케이바이크","industry":"모터사이클 수리업","coordinates":[127.419467419517,36.3396262769413],"sales":{"202602":469}},{"id":"MA010120220814134403","name":"대광엔지니어링","industry":"가전제품 수리업","coordinates":[127.419806737421,36.3426620454152],"sales":{"202602":647}},{"id":"MA010120220814173230","name":"티지투대전","industry":"남성 의류 소매업","coordinates":[127.422659253227,36.3428232141108],"sales":{"202602":562}},{"id":"MA010120220814203824","name":"충북건재","industry":"철물/공구 소매업","coordinates":[127.422673045934,36.3391914301878],"sales":{"202602":1162}},{"id":"MA010120220814306948","name":"경희대석사태권도","industry":"태권도/무술학원","coordinates":[127.421869215759,36.3409155149174],"sales":{"202602":433}},{"id":"MA010120220814324505","name":"델리원푸드","industry":"백반/한정식","coordinates":[127.428061418392,36.3346123041106],"sales":{"202602":773}},{"id":"MA010120220814359290","name":"상록마트","industry":"슈퍼마켓","coordinates":[127.416749649822,36.3438262491945],"sales":{"202602":15070}},{"id":"MA010120220814395962","name":"제이엠엔터테인먼트","industry":"임시/일용 인력 공급업","coordinates":[127.429121493033,36.3349689729038],"sales":{}},{"id":"MA0101202209A0018654","name":"하우스위프","industry":"건축물 일반 청소업","coordinates":[127.428061418392,36.3346123041106],"sales":{"202602":509}},{"id":"MA0101202209A0043760","name":"디팀","industry":"기타 엔지니어링 서비스업","coordinates":[127.427418424917,36.335164322528],"sales":{"202602":15010}},{"id":"MA0101202209A0055205","name":"넘버원파트너스","industry":"경영 컨설팅업","coordinates":[127.428061418392,36.3346123041106],"sales":{"202602":4161}},{"id":"MA0101202209A0057585","name":"커피나무","industry":"카페","coordinates":[127.419439004495,36.3426363013943],"sales":{"202602":1174}},{"id":"MA0101202210A0046729","name":"지에스칼텍스현암주유소","industry":"주유소","coordinates":[127.419967011412,36.339318122781],"sales":{"202602":13254}},{"id":"MA0101202210A0078560","name":"맛수동","industry":"김밥/만두/분식","coordinates":[127.417536539946,36.3430755274032],"sales":{"202602":1183}},{"id":"MA0101202210A0092706","name":"스노이","industry":"빵/도넛","coordinates":[127.42995110214,36.337975917147],"sales":{"202602":1131}},{"id":"MA0101202211A0025623","name":"주니베이크하우스","industry":"피자","coordinates":[127.422064899962,36.3400226606595],"sales":{"202602":2829}},{"id":"MA0101202211A0046591","name":"바이크커스텀2","industry":"모터사이클 및 부품 소매업","coordinates":[127.420983368334,36.3439646095906],"sales":{"202602":743}},{"id":"MA0101202211A0049158","name":"디에이치솔루션","industry":"경영 컨설팅업","coordinates":[127.428061418392,36.3346123041106],"sales":{"202602":7289}},{"id":"MA0101202211A0098854","name":"엠플러스수제화","industry":"가죽/가방/신발 수선업","coordinates":[127.421918882369,36.3397978824615],"sales":{"202602":132}},{"id":"MA0101202211C0023679","name":"구아바","industry":"꽃집","coordinates":[127.421313490345,36.341142769113],"sales":{"202602":494}},{"id":"MA0101202212A0030118","name":"능산리2발전소","industry":"경영 컨설팅업","coordinates":[127.428061418392,36.3346123041106],"sales":{"202602":14546}},{"id":"MA0101202212A0049530","name":"예샘디자인","industry":"인테리어 디자인업","coordinates":[127.425946153914,36.3368367535552],"sales":{"202602":940}},{"id":"MA0101202212A0053366","name":"플러스전기학원","industry":"기타 기술/직업 훈련학원","coordinates":[127.421313490345,36.341142769113],"sales":{"202602":784}},{"id":"MA0101202212A0062297","name":"능산리3발전소","industry":"경영 컨설팅업","coordinates":[127.428061418392,36.3346123041106],"sales":{"202602":7495}},{"id":"MA0101202212A0090868","name":"온-데이","industry":"카페","coordinates":[127.422046852716,36.3408067467176],"sales":{"202602":1244}},{"id":"MA0101202302A0002665","name":"밸류플러스","industry":"경영 컨설팅업","coordinates":[127.428061418392,36.3346123041106],"sales":{"202602":12169}},{"id":"MA0101202302A0007710","name":"키움부동산중개사무소","industry":"부동산 중개/대리업","coordinates":[127.429116665292,36.3381501394529],"sales":{"202602":33}},{"id":"MA0101202302A0024421","name":"동락광고대행","industry":"광고물 설계/제작업","coordinates":[127.426517802923,36.339538240618],"sales":{"202602":243}},{"id":"MA0101202302A0029116","name":"민정미용실","industry":"미용실","coordinates":[127.419346268745,36.3419607456687],"sales":{"202602":219}},{"id":"MA0101202302A0032422","name":"한밭논술교습소","industry":"입시·교과학원","coordinates":[127.423478078175,36.3418109996292],"sales":{"202602":1160}},{"id":"MA0101202302A0080495","name":"정헤어샵","industry":"미용실","coordinates":[127.418742697588,36.343657070753],"sales":{"202602":74}},{"id":"MA0101202305A0029445","name":"대전CITZA","industry":"자동차 세차장","coordinates":[127.427134656221,36.3403110480286],"sales":{"202602":612}},{"id":"MA0101202305A0065289","name":"미소화장품","industry":"피부 관리실","coordinates":[127.422876462388,36.3397314157104],"sales":{"202602":290}},{"id":"MA0101202305A0151963","name":"한시오분","industry":"카페","coordinates":[127.421674901487,36.3399970021044],"sales":{"202602":453}},{"id":"MA0101202306A0010517","name":"오씨칼국수","industry":"국수/칼국수","coordinates":[127.425083157263,36.3420035596373],"sales":{"202602":2730}},{"id":"MA0101202306A0023504","name":"씨제이디테일","industry":"자동차 세차장","coordinates":[127.421662014094,36.3396726245089],"sales":{"202602":1872}},{"id":"MA0101202306A0072694","name":"천씨씨커피대전","industry":"카페","coordinates":[127.425735498092,36.3411090744601],"sales":{"202602":852}},{"id":"MA0101202307A0003694","name":"대전서포터즈업","industry":"기타 교육지원 서비스업","coordinates":[127.427911451974,36.3357032636969],"sales":{"202602":42}},{"id":"MA0101202307A0053710","name":"네일드블랑","industry":"네일숍","coordinates":[127.422876462388,36.3397314157104],"sales":{"202602":128}},{"id":"MA0101202307A0062801","name":"칸","industry":"전시/컨벤션/행사 대행 서비스업","coordinates":[127.424124864501,36.3378345237737],"sales":{"202602":154}},{"id":"MA0101202307A0065843","name":"정이든숯불","industry":"백반/한정식","coordinates":[127.418146732886,36.342613794737],"sales":{"202602":1103}},{"id":"MA0101202307A0084991","name":"제녹스바이크","industry":"자전거 소매업","coordinates":[127.420637698915,36.3397573399407],"sales":{"202602":501}},{"id":"MA0101202307A0097299","name":"예원노래연습장","industry":"노래방","coordinates":[127.428909285339,36.3389258944948],"sales":{"202602":376}},{"id":"MA0101202308A0098685","name":"쿠키당구장","industry":"당구장","coordinates":[127.414892416146,36.3423007141277],"sales":{"202602":367}},{"id":"MA0101202308A0101559","name":"삼원창호","industry":"가전제품 소매업","coordinates":[127.425345230561,36.33693802304],"sales":{"202602":1208}},{"id":"MA0101202309A0009832","name":"엘림기프트","industry":"그 외 기타 종합 소매업","coordinates":[127.427633438898,36.3378220210485],"sales":{"202602":2895}},{"id":"MA0101202310A0017534","name":"맥스스팀","industry":"자동차 세차장","coordinates":[127.421871637414,36.3434297841326],"sales":{"202602":415}},{"id":"MA0101202310A0063284","name":"짬뽕이라서좋아","industry":"중국집","coordinates":[127.420152386144,36.3427239129403],"sales":{"202602":2226}},{"id":"MA0101202310A0064709","name":"윤슬피부관리실","industry":"피부 관리실","coordinates":[127.423478078175,36.3418109996292],"sales":{"202602":747}},{"id":"MA0101202310A0074630","name":"김태중재개발주택문제","industry":"경영 컨설팅업","coordinates":[127.423590894722,36.3400172616458],"sales":{"202602":5602}},{"id":"MA0101202311A0027232","name":"스타여행사","industry":"여행사","coordinates":[127.417814458908,36.3408847008298],"sales":{"202602":1082}},{"id":"MA0101202311A0048359","name":"삼성이룸학원","industry":"입시·교과학원","coordinates":[127.422845189919,36.3401280434183],"sales":{"202602":185}},{"id":"MA0101202311A0050967","name":"철도운행안전인력뱅크","industry":"고용 알선업","coordinates":[127.426517802923,36.339538240618],"sales":{}},{"id":"MA0101202311A0056751","name":"예쁨헤어","industry":"미용실","coordinates":[127.417536539946,36.3430755274032],"sales":{"202602":190}},{"id":"MA0101202406A0039125","name":"와이닷","industry":"기타 교육지원 서비스업","coordinates":[127.417157426351,36.3430047573856],"sales":{"202602":36}},{"id":"MA0101202406A0070037","name":"단골분식","industry":"김밥/만두/분식","coordinates":[127.422494683436,36.3391650256121],"sales":{"202602":650}},{"id":"MA0101202406A0091436","name":"아이엠컴퍼니","industry":"핸드폰 소매업","coordinates":[127.425214081005,36.3414984360003],"sales":{"202602":444}},{"id":"MA0101202406A0093432","name":"케이세이프티이엔지","industry":"건물 및 토목 엔지니어링 서비스업","coordinates":[127.415491303223,36.3439027247976],"sales":{}},{"id":"MA0101202406A0094814","name":"원룸청소.투룸청소.쓰레기집청소.반려동물냄새.상가입주청소","industry":"건축물 일반 청소업","coordinates":[127.425904641615,36.3394412980888],"sales":{"202602":829}},{"id":"MA0101202406A0167421","name":"대라수대전역119공인중개사사무소","industry":"부동산 중개/대리업","coordinates":[127.430460094209,36.3373612857992],"sales":{"202602":69}},{"id":"MA0101202406A0251954","name":"와일드웨스트식당","industry":"백반/한정식","coordinates":[127.418579129324,36.3422337875599],"sales":{"202602":1769}},{"id":"MA0101202406A0284271","name":"김밥천국","industry":"김밥/만두/분식","coordinates":[127.418536646932,36.3426214415578],"sales":{"202602":737}},{"id":"MA0101202406A0314629","name":"크로스핏에이플러스","industry":"헬스장","coordinates":[127.425925888133,36.3412976427769],"sales":{"202602":2157}},{"id":"MA0101202406A0367925","name":"호호김밥","industry":"김밥/만두/분식","coordinates":[127.423478078175,36.3418109996292],"sales":{"202602":993}},{"id":"MA0101202406A0375664","name":"위닉스서한규","industry":"가전제품 수리업","coordinates":[127.426909177588,36.3398162074628],"sales":{"202602":445}},{"id":"MA0101202406A0387523","name":"좋은날","industry":"슈퍼마켓","coordinates":[127.418059980846,36.3430556739276],"sales":{"202602":14229}},{"id":"MA0101202406A0416646","name":"이룸부동산중개","industry":"부동산 중개/대리업","coordinates":[127.419115924464,36.3426284231457],"sales":{"202602":80}},{"id":"MA0101202406A0416676","name":"클린톡","industry":"가전제품 수리업","coordinates":[127.417630127633,36.3439132929234],"sales":{"202602":348}},{"id":"MA0101202406A0429137","name":"지에스25한밭","industry":"편의점","coordinates":[127.422723395108,36.3402636505519],"sales":{"202602":9598}},{"id":"MA0101202406A0429804","name":"오케이기획사","industry":"전시/컨벤션/행사 대행 서비스업","coordinates":[127.428374561599,36.3348454878287],"sales":{"202602":102}},{"id":"MA0101202406A0461372","name":"황소해장터","industry":"백반/한정식","coordinates":[127.427458978038,36.3364708820913],"sales":{"202602":899}},{"id":"MA0101202406A0469121","name":"코닐리우탁구센터동구","industry":"탁구장","coordinates":[127.425925888133,36.3412976427769],"sales":{"202602":412}},{"id":"MA0101202406A0522198","name":"청해마트","industry":"슈퍼마켓","coordinates":[127.4309844363,36.3375125958652],"sales":{"202602":15605}},{"id":"MA0101202406A0551436","name":"페스타","industry":"전시/컨벤션/행사 대행 서비스업","coordinates":[127.426184824018,36.3397557105313],"sales":{"202602":62}},{"id":"MA0101202406A0576782","name":"에이엔티","industry":"임시/일용 인력 공급업","coordinates":[127.427260771175,36.334849474734],"sales":{}},{"id":"MA0101202406A0583926","name":"바이셀폰","industry":"핸드폰 소매업","coordinates":[127.426517802923,36.339538240618],"sales":{"202602":382}},{"id":"MA0101202408A0003953","name":"유튜버뮤직학원","industry":"음악학원","coordinates":[127.426113628143,36.3409995858294],"sales":{"202602":492}},{"id":"MA0101202408A0035544","name":"삼성인력","industry":"고용 알선업","coordinates":[127.42926393659,36.3386001981412],"sales":{}},{"id":"MA0101202409A0063544","name":"씨유대전삼성","industry":"편의점","coordinates":[127.422475423862,36.3397238223303],"sales":{"202602":4926}},{"id":"MA0101202409A0065549","name":"에이치엠모아북","industry":"복사업","coordinates":[127.426791799339,36.3346348681675],"sales":{"202602":352}},{"id":"MA0101202409A0077604","name":"달빛누리","industry":"광고 대행업","coordinates":[127.425748260342,36.339360749531],"sales":{"202602":1492}},{"id":"MA0101202409A0125122","name":"하나쌈밥","industry":"백반/한정식","coordinates":[127.427538906968,36.338867722496],"sales":{"202602":936}},{"id":"MA0101202409A0126999","name":"이음교육","industry":"문구/회화용품 소매업","coordinates":[127.415535844085,36.3418028323148],"sales":{"202602":1056}},{"id":"MA0101202409A0131055","name":"현암커피","industry":"카페","coordinates":[127.420843320915,36.338639158655],"sales":{"202602":1285}},{"id":"MA0101202409A0205470","name":"세븐일레븐대전대라수점","industry":"편의점","coordinates":[127.4309844363,36.3375125958652],"sales":{"202602":8624}},{"id":"MA0101202409A0268097","name":"삼성꽃집","industry":"꽃집","coordinates":[127.421609980052,36.3382849981022],"sales":{"202602":169}},{"id":"MA0101202410A0210613","name":"윤선생우리집앞영어교실한밭자이영어교습소","industry":"외국어학원","coordinates":[127.423478078175,36.3418109996292],"sales":{"202602":482}},{"id":"MA0101202410A0389202","name":"다복축산","industry":"채소/과일 소매업","coordinates":[127.425596577589,36.3421909789988],"sales":{"202602":1740}},{"id":"MA0101202410A0390754","name":"라온캣독고양이강아지대전","industry":"애완동물/애완용품 소매업","coordinates":[127.419926230509,36.340021182791],"sales":{"202602":746}},{"id":"MA0101202410A0441315","name":"도시락퍼포먼스어린이집","industry":"백반/한정식","coordinates":[127.423478078175,36.3418109996292],"sales":{"202602":685}},{"id":"MA0101202410A0442855","name":"단골정육점","industry":"정육점","coordinates":[127.417324512564,36.3430041740223],"sales":{"202602":6505}},{"id":"MA0101202410A0443089","name":"행복한꽃집","industry":"꽃집","coordinates":[127.418146732886,36.342613794737],"sales":{"202602":328}},{"id":"MA0101202410A0443217","name":"샘음악학원","industry":"음악학원","coordinates":[127.418239410927,36.3432803398028],"sales":{"202602":810}},{"id":"MA0101202410A0443360","name":"홈런스마트클래스삼성이지스학원","industry":"외국어학원","coordinates":[127.422312480132,36.3404903970891],"sales":{"202602":444}},{"id":"MA0101202410A0443368","name":"자이피아노교습소","industry":"음악학원","coordinates":[127.423478078175,36.3418109996292],"sales":{"202602":438}},{"id":"MA0101202410A0443394","name":"참사람태권도","industry":"태권도/무술학원","coordinates":[127.422312480132,36.3404903970891],"sales":{"202602":377}},{"id":"MA0101202410A0443468","name":"오드리영어학원","industry":"입시·교과학원","coordinates":[127.423478078175,36.3418109996292],"sales":{"202602":582}},{"id":"MA0101202410A0443580","name":"케이에스글로벌","industry":"가정용 연료 소매업","coordinates":[127.421471686812,36.3394930608357],"sales":{"202602":9314}},{"id":"MA0101202410A0443784","name":"대건","industry":"반찬/식료품 소매업","coordinates":[127.418068627919,36.3405053183812],"sales":{"202602":1378}},{"id":"MA0101202410A0443808","name":"동서음악학원","industry":"음악학원","coordinates":[127.422312480132,36.3404903970891],"sales":{"202602":600}},{"id":"MA0101202410A0443910","name":"자이육류","industry":"정육점","coordinates":[127.423478078175,36.3418109996292],"sales":{"202602":9147}},{"id":"MA0101202410A0443921","name":"엘림발달연구소","industry":"유사 의료업","coordinates":[127.427633438898,36.3378220210485],"sales":{"202602":523}},{"id":"MA0101202410A0443923","name":"그린에스디","industry":"소독, 구충 및 방제 서비스업","coordinates":[127.422423143126,36.3424185203014],"sales":{"202602":289}},{"id":"MA0101202410A0443996","name":"옥천상회","industry":"건어물/젓갈 소매업","coordinates":[127.421156306538,36.3429817198743],"sales":{"202602":2738}},{"id":"MA0101202410A0444358","name":"대전전공사","industry":"고용 알선업","coordinates":[127.418947981481,36.3445485141562],"sales":{}},{"id":"MA0101202410A0444480","name":"방승권안마원","industry":"마사지/안마","coordinates":[127.422312480132,36.3404903970891],"sales":{"202602":542}},{"id":"MA0101202410A0444581","name":"더편한치과","industry":"치과의원","coordinates":[127.421757099155,36.3407807343867],"sales":{"202602":4981}},{"id":"MA0101202410A0445642","name":"중촌경희한의원","industry":"한의원","coordinates":[127.420499436716,36.3409744129468],"sales":{"202602":885}},{"id":"MA0101202410A0446529","name":"한빛가정의학과의원","industry":"기타 의원","coordinates":[127.422845189919,36.3401280434183],"sales":{"202602":5820}},{"id":"MA0101202410A0447163","name":"엔젤음악학원","industry":"음악학원","coordinates":[127.428827091563,36.3361235343282],"sales":{"202602":647}},{"id":"MA0101202410A0447471","name":"홍한의원","industry":"한의원","coordinates":[127.424572341716,36.3361387249688],"sales":{"202602":1095}},{"id":"MA0101202410A0447487","name":"동제한의원","industry":"한의원","coordinates":[127.426598475895,36.3400335989385],"sales":{"202602":1736}},{"id":"MA0101202410A0447489","name":"제중한의원","industry":"한의원","coordinates":[127.427883951717,36.334748115957],"sales":{"202602":2371}},{"id":"MA0101202410A0447514","name":"참한의원","industry":"한의원","coordinates":[127.421757099155,36.3407807343867],"sales":{"202602":1053}},{"id":"MA0101202410A0447517","name":"고려의원","industry":"내과/소아과 의원","coordinates":[127.419224175214,36.3420422797736],"sales":{"202602":5406}},{"id":"MA0101202410A0448273","name":"문경출판사","industry":"서점","coordinates":[127.427268300898,36.3362282465353],"sales":{"202602":9031}},{"id":"MA0101202410A0496916","name":"동부SKY학원","industry":"전문자격/고시학원","coordinates":[127.421839492948,36.3416005128093],"sales":{"202602":490}},{"id":"MA0101202410A0620038","name":"태산기업","industry":"장례식장","coordinates":[127.427565286683,36.3355422909962],"sales":{"202602":6864}},{"id":"MA0101202410A0632091","name":"원두막농산","industry":"채소/과일 소매업","coordinates":[127.421511220953,36.3406284021019],"sales":{"202602":1960}},{"id":"MA0101202410A0654997","name":"벧엘식물원","industry":"꽃집","coordinates":[127.427560895756,36.3367769171809],"sales":{"202602":328}},{"id":"MA0101202410A0768804","name":"뮤직톡음악학원","industry":"음악학원","coordinates":[127.422723395108,36.3402636505519],"sales":{"202602":1178}},{"id":"MA0101202410A0790202","name":"꿀쟁이","industry":"반찬/식료품 소매업","coordinates":[127.429027360624,36.3381144130678],"sales":{"202602":579}},{"id":"MA0101202410A0865500","name":"가온수학교습소","industry":"입시·교과학원","coordinates":[127.423478078175,36.3418109996292],"sales":{"202602":267}},{"id":"MA0101202410A0895113","name":"한밭자이이쌤수학교습소","industry":"입시·교과학원","coordinates":[127.422723395108,36.3402636505519],"sales":{"202602":597}},{"id":"MA0101202410A0933907","name":"충청인력직업소개소","industry":"고용 알선업","coordinates":[127.42835162097,36.3387927183169],"sales":{}},{"id":"MA0101202410A0993205","name":"태산기업","industry":"장례식장","coordinates":[127.427565286683,36.3355422909962],"sales":{"202602":11565}},{"id":"MA0101202411A0128350","name":"현암스테이","industry":"펜션","coordinates":[127.419233865149,36.3417718932943],"sales":{}},{"id":"MA0101202411A0155679","name":"이비시스템기술학원","industry":"기타 기술/직업 훈련학원","coordinates":[127.422573305491,36.343409281582],"sales":{"202602":1295}},{"id":"MA0101202411A0175090","name":"홍익인간","industry":"경영 컨설팅업","coordinates":[127.429027360624,36.3381144130678],"sales":{"202602":11939}},{"id":"MA0101202412A0079409","name":"윤이네야채가게","industry":"채소/과일 소매업","coordinates":[127.417536539946,36.3430755274032],"sales":{"202602":3300}},{"id":"MA0101202501A0009694","name":"생각의알고리즘수학교습소","industry":"입시·교과학원","coordinates":[127.423478078175,36.3418109996292],"sales":{"202602":236}},{"id":"MA0101202501A0022445","name":"대전깔그미클린","industry":"건축물 일반 청소업","coordinates":[127.427226472695,36.3408063660185],"sales":{"202602":608}},{"id":"MA0101202501A0054769","name":"광명","industry":"카페","coordinates":[127.425025552901,36.3416523063615],"sales":{"202602":888}},{"id":"MA0101202501A0056995","name":"유일인테리어필름","industry":"인테리어 디자인업","coordinates":[127.425235397159,36.3392724579616],"sales":{"202602":1010}},{"id":"MA0101202501A0074066","name":"빈티지스팟","industry":"중고 상품 소매업","coordinates":[127.425025552901,36.3416523063615],"sales":{"202602":202}},{"id":"MA0101202502A0029518","name":"한빛공인중개사사무소","industry":"부동산 중개/대리업","coordinates":[127.422845189919,36.3401280434183],"sales":{"202602":91}},{"id":"MA0101202502A0033382","name":"작은집","industry":"펜션","coordinates":[127.417377305747,36.3403725584941],"sales":{}},{"id":"MA0101202502A0034205","name":"친구더하기","industry":"광고 대행업","coordinates":[127.430292375976,36.3372447369835],"sales":{"202602":1330}},{"id":"MA0101202502A0046657","name":"웰그린","industry":"그 외 기타 종합 소매업","coordinates":[127.426794180331,36.3371130925653],"sales":{"202602":3055}},{"id":"MA0101202502A0049972","name":"삼보지공사","industry":"명함/간판/광고물 제작","coordinates":[127.426254888464,36.3383045686702],"sales":{"202602":1281}},{"id":"MA0101202503A0009424","name":"삼천프린트.거성시스템","industry":"명함/간판/광고물 제작","coordinates":[127.428526610077,36.3361696708766],"sales":{"202602":460}},{"id":"MA0101202504A0006271","name":"친구포차","industry":"백반/한정식","coordinates":[127.423590894722,36.3400172616458],"sales":{"202602":415}},{"id":"MA0101202504A0024940","name":"클린톡","industry":"건축물 일반 청소업","coordinates":[127.417630127633,36.3439132929234],"sales":{"202602":514}},{"id":"MA0101202504A0065667","name":"대전배관용접연습장학원","industry":"기타 기술/직업 훈련학원","coordinates":[127.426671512373,36.3370864953001],"sales":{"202602":995}},{"id":"MA0101202504A0087702","name":"오토폴리시","industry":"자동차 세차장","coordinates":[127.421662014094,36.3396726245089],"sales":{"202602":474}},{"id":"MA0101202504A0105778","name":"에이치제이","industry":"서점","coordinates":[127.427578289054,36.3379213476505],"sales":{"202602":7434}},{"id":"MA0101202505A0018743","name":"누수탐지","industry":"그 외 기타 개인/가정용품 수리업","coordinates":[127.414658401931,36.3422835028273],"sales":{"202602":357}},{"id":"MA0101202505A0077475","name":"행복나무복지용구","industry":"의료기기 소매업","coordinates":[127.426787719317,36.3338869067876],"sales":{"202602":1638}},{"id":"MA0103202408C0001201","name":"골동품무등산방","industry":"서점","coordinates":[127.427108196516,36.3395451438619],"sales":{"202602":8682}},{"id":"MA0106202201A0046265","name":"알파중부본부","industry":"문구/회화용품 소매업","coordinates":[127.42773220085,36.3416246260737],"sales":{"202602":6216}},{"id":"MA0106202208A2014504","name":"티지투대전","industry":"기타 의류 소매업","coordinates":[127.422659253227,36.3428232141108],"sales":{"202602":2538}},{"id":"MA0106202506A0348973","name":"친구포차","industry":"백반/한정식","coordinates":[127.423590894722,36.3400172616458],"sales":{"202602":687}},{"id":"MA0106202506A1591966","name":"대전배관용접연습장학원","industry":"입시·교과학원","coordinates":[127.426671512373,36.3370864953001],"sales":{"202602":515}},{"id":"MA0106202506A1683868","name":"로얄 당구장","industry":"당구장","coordinates":[127.426396752246,36.3398090250858],"sales":{"202602":109}},{"id":"MA0106202506A2050469","name":"오토플리시","industry":"자동차 세차장","coordinates":[127.421662014094,36.3396726245089],"sales":{"202602":746}},{"id":"MA0106202507A2079699","name":"(주)삼성빅마트","industry":"슈퍼마켓","coordinates":[127.422665656615,36.3398853612208],"sales":{"202602":20731}},{"id":"MA0106202507A2263282","name":"복주머니복권방","industry":"그 외 기타 상품 전문 소매업","coordinates":[127.426135169306,36.3408643327917],"sales":{"202602":3236}},{"id":"MA0106202507A2301281","name":"삼일스튜디오","industry":"사진촬영업","coordinates":[127.419346268745,36.3419607456687],"sales":{"202602":461}},{"id":"MA0106202508A1615399","name":"마성호프","industry":"생맥주 전문","coordinates":[127.42158812359,36.3404298723207],"sales":{"202602":649}},{"id":"MA0106202508A2172748","name":"장군식당","industry":"백반/한정식","coordinates":[127.430460094209,36.3373612857992],"sales":{"202602":659}},{"id":"MA0106202509A0780672","name":"오케이명품수선","industry":"그 외 기타 개인/가정용품 수리업","coordinates":[127.427343264953,36.3356782614153],"sales":{"202602":156}},{"id":"MA0106202509A2282263","name":"달달콩","industry":"백반/한정식","coordinates":[127.422312480132,36.3404903970891],"sales":{"202602":914}},{"id":"MA0106202509A2447981","name":"온유농장","industry":"가축 사료 소매업","coordinates":[127.422064899962,36.3400226606595],"sales":{"202602":2173}},{"id":"MA0106202510A0874097","name":"상상애드컴","industry":"광고 대행업","coordinates":[127.428503346742,36.3359895191847],"sales":{"202602":746}},{"id":"MA0106202510A0962707","name":"삼성정육점","industry":"정육점","coordinates":[127.422911047488,36.3399475753623],"sales":{"202602":2844}},{"id":"MA0106202510A2300091","name":"판다던전","industry":"요리 주점","coordinates":[127.425658311123,36.3412535373808],"sales":{"202602":592}},{"id":"MA0106202511A0068894","name":"푸드스캔","industry":"그 외 기타 개인/가정용품 수리업","coordinates":[127.426524043249,36.3406827105624],"sales":{"202602":601}},{"id":"MA0106202511A0407369","name":"달인물회","industry":"횟집","coordinates":[127.417331516556,36.3422291391357],"sales":{"202602":1428}},{"id":"MA0106202511A0735081","name":"GS25대전","industry":"편의점","coordinates":[127.419609417607,36.3391030967693],"sales":{"202602":1912}},{"id":"MA0106202512A0730094","name":"다원푸드","industry":"정육점","coordinates":[127.418146732886,36.342613794737],"sales":{"202602":7493}},{"id":"MA0106202601A0876510","name":"대전서적","industry":"서점","coordinates":[127.429334031444,36.3391947218889],"sales":{"202602":3687}},{"id":"MA0106202601A1416148","name":"주식회사 이음교육","industry":"그 외 기타 상품 전문 소매업","coordinates":[127.415535844085,36.3418028323148],"sales":{"202602":2320}},{"id":"MA0106202602A2061938","name":"조이유통","industry":"그 외 기타 상품 전문 소매업","coordinates":[127.425904641615,36.3394412980888],"sales":{"202602":2447}}]