[{"id":"MA010120220800160332","name":"신우리동네멸치국수","industry":"국수/칼국수","coordinates":[127.448752909411,36.3379608680707],"sales":{"202602":289}},{"id":"MA010120220800456922","name":"여섯시디자인","industry":"시각 디자인업","coordinates":[127.450911970912,36.3337803025555],"sales":{"202602":313}},{"id":"MA010120220800459010","name":"조선짬뽕","industry":"중국집","coordinates":[127.451596550416,36.3423929447943],"sales":{"202602":749}},{"id":"MA010120220800519844","name":"돈하우스","industry":"경양식","coordinates":[127.445615803752,36.3347464003994],"sales":{"202602":8244}},{"id":"MA010120220800538225","name":"바글바글아이스크림","industry":"슈퍼마켓","coordinates":[127.447906030004,36.3359544254778],"sales":{"202602":4553}},{"id":"MA010120220800825602","name":"업소명없음","industry":"외국어학원","coordinates":[127.449762402981,36.3333700935404],"sales":{"202602":463}},{"id":"MA010120220800829009","name":"펌킨","industry":"카페","coordinates":[127.449652935715,36.3395165168021],"sales":{"202602":182}},{"id":"MA010120220800925149","name":"쥬네일","industry":"네일숍","coordinates":[127.448944122551,36.338284572741],"sales":{"202602":172}},{"id":"MA010120220800994920","name":"더꾸닭꾸","industry":"치킨","coordinates":[127.449796800992,36.3354787135574],"sales":{"202602":713}},{"id":"MA010120220801027279","name":"뉴타운부동산컨설팅","industry":"부동산 중개/대리업","coordinates":[127.448916643441,36.3354369640614],"sales":{"202602":57}},{"id":"MA010120220802275803","name":"그리드나인","industry":"시각 디자인업","coordinates":[127.448398568412,36.3402692043466],"sales":{"202602":319}},{"id":"MA010120220802407958","name":"루비헤어","industry":"미용실","coordinates":[127.449225973541,36.3427533371307],"sales":{"202602":335}},{"id":"MA010120220802683349","name":"덮밥ZIP&파스타비","industry":"경양식","coordinates":[127.44604596764,36.3340058321497],"sales":{"202602":5993}},{"id":"MA010120220802738039","name":"이은필라테스","industry":"요가/필라테스 학원","coordinates":[127.44863005084,36.3398447837317],"sales":{"202602":267}},{"id":"MA010120220802742564","name":"친친양꼬치","industry":"중국집","coordinates":[127.448131228549,36.3383236705881],"sales":{"202602":1623}},{"id":"MA010120220802864064","name":"앨앤에스컴퍼니","industry":"전시/컨벤션/행사 대행 서비스업","coordinates":[127.448981525578,36.3331567474978],"sales":{"202602":121}},{"id":"MA010120220802908757","name":"씨씨티비CCTV카메라공사업체한진CCTV","industry":"가전제품 소매업","coordinates":[127.448593300107,36.3412056945978],"sales":{"202602":838}},{"id":"MA010120220802979160","name":"헥사그램","industry":"경영 컨설팅업","coordinates":[127.451232231227,36.3371675110081],"sales":{"202602":5754}},{"id":"MA010120220802988968","name":"세븐일레븐대전","industry":"편의점","coordinates":[127.444247637286,36.3350669050726],"sales":{"202602":1868}},{"id":"MA010120220803009086","name":"올리브","industry":"경양식","coordinates":[127.449777534128,36.3418140417637],"sales":{"202602":8223}},{"id":"MA010120220803035385","name":"에이디에이","industry":"건축물 일반 청소업","coordinates":[127.45244333916,36.3385777759764],"sales":{"202602":949}},{"id":"MA010120220803055084","name":"씨유대전","industry":"편의점","coordinates":[127.44806303669,36.3341965458014],"sales":{"202602":5977}},{"id":"MA010120220803055245","name":"뉴런렙스타","industry":"애완동물/애완용품 소매업","coordinates":[127.44914211526,36.3397887899281],"sales":{"202602":623}},{"id":"MA010120220803058361","name":"좋은푸드","industry":"국수/칼국수","coordinates":[127.445669131796,36.334331660998],"sales":{"202602":300}},{"id":"MA010120220803071261","name":"바비언더샵","industry":"미용실","coordinates":[127.446795674831,36.3365623687451],"sales":{"202602":440}},{"id":"MA010120220803195128","name":"풍경","industry":"백반/한정식","coordinates":[127.452757926435,36.339045195194],"sales":{"202602":7877}},{"id":"MA010120220803203954","name":"백제전자","industry":"가전제품 수리업","coordinates":[127.448361139959,36.3356823665397],"sales":{"202602":269}},{"id":"MA010120220803213647","name":"코드","industry":"전시/컨벤션/행사 대행 서비스업","coordinates":[127.450195249202,36.3389106883808],"sales":{"202602":80}},{"id":"MA010120220803255677","name":"휩스휘트니스클럽","industry":"헬스장","coordinates":[127.449061920739,36.3394015863677],"sales":{"202602":331}},{"id":"MA010120220803297519","name":"빵한모금","industry":"빵/도넛","coordinates":[127.449124457563,36.3386533766825],"sales":{"202602":636}},{"id":"MA010120220803300890","name":"리치공인중개사사무소","industry":"부동산 중개/대리업","coordinates":[127.44762469087,36.3373973590903],"sales":{"202602":54}},{"id":"MA010120220803308216","name":"별빛공인중개사사무소","industry":"부동산 중개/대리업","coordinates":[127.449458972415,36.338715201306],"sales":{"202602":64}},{"id":"MA010120220803378534","name":"피자마루대전","industry":"피자","coordinates":[127.449225973541,36.3427533371307],"sales":{"202602":460}},{"id":"MA010120220803389471","name":"대전축산업협동조합자양동지점하나로마트","industry":"슈퍼마켓","coordinates":[127.449211585969,36.3402481276474],"sales":{"202602":16091}},{"id":"MA010120220803415350","name":"청년다방대전","industry":"김밥/만두/분식","coordinates":[127.448587694953,36.3382859111284],"sales":{"202602":286}},{"id":"MA010120220803443619","name":"돈돌이생막창","industry":"곱창 전골/구이","coordinates":[127.450957869533,36.343675023154],"sales":{"202602":582}},{"id":"MA010120220803446391","name":"텐더","industry":"치킨","coordinates":[127.448925227218,36.3369328819101],"sales":{"202602":267}},{"id":"MA010120220803449827","name":"가로수인테리어","industry":"인테리어 디자인업","coordinates":[127.450463817398,36.3391259582102],"sales":{"202602":1029}},{"id":"MA010120220803508769","name":"민영수산","industry":"수산물 소매업","coordinates":[127.449211585969,36.3402481276474],"sales":{"202602":3172}},{"id":"MA010120220803512538","name":"모도립도예공방","industry":"기타 기술/직업 훈련학원","coordinates":[127.447076084749,36.336903766519],"sales":{"202602":332}},{"id":"MA010120220803538910","name":"숯양두마리치킨","industry":"치킨","coordinates":[127.44604596764,36.3340058321497],"sales":{"202602":230}},{"id":"MA010120220803560861","name":"조각구름협동조합","industry":"카페","coordinates":[127.449921905805,36.333991304016],"sales":{"202602":1004}},{"id":"MA010120220803588352","name":"로충칭마라탕","industry":"마라탕/훠궈","coordinates":[127.448280452635,36.3371515840424],"sales":{"202602":913}},{"id":"MA010120220803673301","name":"래쉬가든","industry":"피부 관리실","coordinates":[127.448591646319,36.3409173251149],"sales":{"202602":176}},{"id":"MA010120220803712214","name":"삐까뻔쩍세차장","industry":"자동차 세차장","coordinates":[127.448801857143,36.3387266825365],"sales":{"202602":334}},{"id":"MA010120220803714221","name":"에이스종합관리","industry":"건축물 일반 청소업","coordinates":[127.449569628031,36.3405261452682],"sales":{"202602":165}},{"id":"MA010120220803816975","name":"스터디카페써드","industry":"독서실/스터디 카페","coordinates":[127.449061920739,36.3394015863677],"sales":{"202602":242}},{"id":"MA010120220803819590","name":"매직캠프게임스테이션","industry":"전자 게임장","coordinates":[127.44776020654,36.3377212743029],"sales":{"202602":949}},{"id":"MA010120220803824047","name":"필름잔비","industry":"사진촬영업","coordinates":[127.451502624987,36.3357696691506],"sales":{"202602":373}},{"id":"MA010120220803827094","name":"마라인상","industry":"마라탕/훠궈","coordinates":[127.448317688767,36.3378183135576],"sales":{"202602":1078}},{"id":"MA010120220803828405","name":"지에스25","industry":"편의점","coordinates":[127.450889913891,36.3415485096015],"sales":{"202602":4916}},{"id":"MA010120220803828549","name":"짱돈","industry":"돼지고기 구이/찜","coordinates":[127.448252496522,36.3361603967211],"sales":{"202602":644}},{"id":"MA010120220803855429","name":"대전스마트폰","industry":"중고 상품 소매업","coordinates":[127.450546002399,36.3359895611907],"sales":{"202602":157}},{"id":"MA010120220804118300","name":"로그인컨설팅","industry":"경영 컨설팅업","coordinates":[127.449690651768,36.3383268247956],"sales":{"202602":11244}},{"id":"MA010120220804416160","name":"그린간호학원","industry":"기타 기술/직업 훈련학원","coordinates":[127.447298899634,36.3369119445504],"sales":{"202602":158}},{"id":"MA010120220804735794","name":"유가마라탕중국식품","industry":"마라탕/훠궈","coordinates":[127.446713745912,36.3358687703844],"sales":{"202602":758}},{"id":"MA010120220804914272","name":"이토우야","industry":"일식 카레/돈가스/덮밥","coordinates":[127.447933259267,36.3368194511967],"sales":{"202602":1308}},{"id":"MA010120220804962002","name":"쌍둥이네활어회","industry":"횟집","coordinates":[127.448652278089,36.3359516264224],"sales":{"202602":1974}},{"id":"MA010120220804972455","name":"브라운염색","industry":"미용실","coordinates":[127.448752603501,36.3417908595932],"sales":{"202602":234}},{"id":"MA010120220804995688","name":"미앤유","industry":"피부 관리실","coordinates":[127.450865685612,36.339277642413],"sales":{"202602":292}},{"id":"MA010120220805031594","name":"이영순수선공방","industry":"의류/이불 수선업","coordinates":[127.449992749763,36.3424350415186],"sales":{"202602":29}},{"id":"MA010120220805131571","name":"동아탁구","industry":"요가/필라테스 학원","coordinates":[127.450387992243,36.3414332496457],"sales":{"202602":655}},{"id":"MA010120220805163844","name":"마샬","industry":"미용실","coordinates":[127.449642158266,36.3415171638011],"sales":{"202602":219}},{"id":"MA010120220805178120","name":"이마트24","industry":"편의점","coordinates":[127.450364608711,36.33930656696],"sales":{"202602":3817}},{"id":"MA010120220805179194","name":"제이엠비","industry":"핸드폰 소매업","coordinates":[127.44604596764,36.3340058321497],"sales":{"202602":77}},{"id":"MA010120220805208136","name":"자양공인중개사사무소","industry":"부동산 중개/대리업","coordinates":[127.447124925657,36.3357050213175],"sales":{"202602":30}},{"id":"MA010120220805226525","name":"알촌","industry":"백반/한정식","coordinates":[127.448733992738,36.3385467024915],"sales":{"202602":5436}},{"id":"MA010120220805263181","name":"카페스토리","industry":"카페","coordinates":[127.446680716876,36.3339854380304],"sales":{"202602":254}},{"id":"MA010120220805278775","name":"다옴헤어컷다옴HAIRCUT","industry":"미용실","coordinates":[127.449721632029,36.3398406810258],"sales":{"202602":402}},{"id":"MA010120220805337918","name":"크린토피아코인워시대전","industry":"셀프 빨래방","coordinates":[127.448339639156,36.3416482217444],"sales":{"202602":215}},{"id":"MA010120220805367841","name":"봄약국","industry":"약국","coordinates":[127.447062526243,36.3364802651073],"sales":{"202602":6298}},{"id":"MA010120220805439945","name":"동화공인중개사사무소","industry":"부동산 중개/대리업","coordinates":[127.451596550416,36.3423929447943],"sales":{"202602":85}},{"id":"MA010120220805463342","name":"밥풀","industry":"김밥/만두/분식","coordinates":[127.44530255874,36.3345042506412],"sales":{"202602":864}},{"id":"MA010120220805475427","name":"비에치우송대","industry":"치킨","coordinates":[127.446332277003,36.3353835611416],"sales":{"202602":139}},{"id":"MA010120220805500130","name":"아미띠에","industry":"카페","coordinates":[127.449777534128,36.3418140417637],"sales":{"202602":435}},{"id":"MA010120220805625728","name":"예다랑","industry":"김밥/만두/분식","coordinates":[127.450518627512,36.3389725519799],"sales":{"202602":163}},{"id":"MA010120220805641277","name":"헝그리푸드","industry":"경양식","coordinates":[127.449226761332,36.340950986387],"sales":{"202602":9513}},{"id":"MA010120220805698110","name":"보문산","industry":"예술품 소매업","coordinates":[127.442925524016,36.3317194396812],"sales":{"202602":1041}},{"id":"MA010120220805743470","name":"동아공인중개사사무소","industry":"부동산 중개/대리업","coordinates":[127.450387992243,36.3414332496457],"sales":{"202602":46}},{"id":"MA010120220805743682","name":"아름미용실","industry":"미용실","coordinates":[127.450744096764,36.3394403124168],"sales":{"202602":128}},{"id":"MA010120220805744344","name":"동아세탁소","industry":"세탁소","coordinates":[127.451596550416,36.3423929447943],"sales":{"202602":268}},{"id":"MA010120220805744730","name":"엘리트문구，슈퍼","industry":"문구/회화용품 소매업","coordinates":[127.447535894281,36.3374517621149],"sales":{"202602":7697}},{"id":"MA010120220805745122","name":"엘에이호프","industry":"요리 주점","coordinates":[127.445043723165,36.3340366036534],"sales":{"202602":437}},{"id":"MA010120220805745384","name":"토마토헤어샵","industry":"미용실","coordinates":[127.448063882188,36.3382338056504],"sales":{"202602":239}},{"id":"MA010120220805745386","name":"프로포즈미용실","industry":"미용실","coordinates":[127.44817734445,36.3405403864208],"sales":{"202602":267}},{"id":"MA010120220805745508","name":"동명카센타","industry":"자동차 정비소","coordinates":[127.449622833266,36.3420309056255],"sales":{"202602":1898}},{"id":"MA010120220805746531","name":"동부철물","industry":"주방/가정용품 소매업","coordinates":[127.447000674169,36.3334525484338],"sales":{"202602":680}},{"id":"MA010120220805747346","name":"마야PC방","industry":"PC방","coordinates":[127.449061920739,36.3394015863677],"sales":{"202602":1158}},{"id":"MA010120220805747485","name":"성심관","industry":"중국집","coordinates":[127.449099733916,36.3401674423532],"sales":{"202602":690}},{"id":"MA010120220805747500","name":"리즈헤어","industry":"미용실","coordinates":[127.449343791436,36.341932826021],"sales":{"202602":594}},{"id":"MA010120220805748044","name":"김해숙미용실","industry":"미용실","coordinates":[127.450952499806,36.3350147593191],"sales":{"202602":208}},{"id":"MA010120220805749594","name":"현대디지텍컴퓨터","industry":"컴퓨터/노트북/프린터 수리업","coordinates":[127.447689663253,36.3351261552585],"sales":{"202602":1043}},{"id":"MA010120220805749828","name":"양푼이보리밥","industry":"백반/한정식","coordinates":[127.447906030004,36.3359544254778],"sales":{"202602":1614}},{"id":"MA010120220805750663","name":"머리잡기미용실","industry":"미용실","coordinates":[127.448266334846,36.3385754927469],"sales":{"202602":152}},{"id":"MA010120220805750983","name":"드림할인마트","industry":"슈퍼마켓","coordinates":[127.45021200165,36.3418214175449],"sales":{"202602":2262}},{"id":"MA010120220805751488","name":"더블에이카피센터","industry":"복사업","coordinates":[127.447850189824,36.3378741368144],"sales":{"202602":198}},{"id":"MA010120220805751846","name":"대운슈퍼","industry":"슈퍼마켓","coordinates":[127.450390692479,36.3360982875446],"sales":{"202602":7453}},{"id":"MA010120220805752712","name":"서령종합공사","industry":"철물/공구 소매업","coordinates":[127.449698474164,36.3396875685563],"sales":{"202602":554}},{"id":"MA010120220805753867","name":"진도산업","industry":"자동차 부품 소매업","coordinates":[127.449818102466,36.3430575088919],"sales":{"202602":284}},{"id":"MA010120220805753935","name":"동심문구","industry":"문구/회화용품 소매업","coordinates":[127.448822088534,36.3364286114613],"sales":{"202602":1160}},{"id":"MA010120220805757981","name":"이브미용실","industry":"미용실","coordinates":[127.450117497568,36.3408845526375],"sales":{"202602":313}},{"id":"MA010120220805758145","name":"청풍맛집","industry":"백반/한정식","coordinates":[127.449975215688,36.3355140889502],"sales":{"202602":2839}},{"id":"MA010120220805758297","name":"우송예술기획복사","industry":"복사업","coordinates":[127.447177512996,36.337110657232],"sales":{"202602":331}},{"id":"MA010120220805759095","name":"정안경원","industry":"안경렌즈 소매업","coordinates":[127.448542257041,36.3420169427436],"sales":{"202602":928}},{"id":"MA010120220805759365","name":"한빛세탁소","industry":"세탁소","coordinates":[127.450744096764,36.3394403124168],"sales":{"202602":133}},{"id":"MA010120220805760238","name":"뒤집어진뚝배기","industry":"국/탕/찌개류","coordinates":[127.445358863441,36.3346121818593],"sales":{"202602":2125}},{"id":"MA010120220805761116","name":"우송복사제본","industry":"복사업","coordinates":[127.447062526243,36.3364802651073],"sales":{"202602":180}},{"id":"MA010120220805761794","name":"따봉컴퓨터세탁","industry":"세탁소","coordinates":[127.451363360645,36.3425199900788],"sales":{"202602":159}},{"id":"MA010120220805762531","name":"투다리","industry":"요리 주점","coordinates":[127.44604596764,36.3340058321497],"sales":{"202602":315}},{"id":"MA010120220805764502","name":"이지현토탈헤어샵","industry":"미용실","coordinates":[127.449583820021,36.3429953083429],"sales":{"202602":265}},{"id":"MA010120220805764971","name":"대청마루","industry":"백반/한정식","coordinates":[127.45060025255,36.3415405903779],"sales":{"202602":6000}},{"id":"MA010120220805765149","name":"감동국수","industry":"국수/칼국수","coordinates":[127.446962695146,36.3365527324837],"sales":{"202602":833}},{"id":"MA010120220805765178","name":"우송엔비서점","industry":"서점","coordinates":[127.444302661561,36.3349495477679],"sales":{"202602":1034}},{"id":"MA010120220805765242","name":"주은설비사랑열쇠.도장.전기","industry":"철물/공구 소매업","coordinates":[127.44873311751,36.3422775666585],"sales":{"202602":272}},{"id":"MA010120220805765343","name":"가을식당","industry":"요리 주점","coordinates":[127.448587694953,36.3382859111284],"sales":{"202602":340}},{"id":"MA010120220805766127","name":"크레타PC방","industry":"PC방","coordinates":[127.446590277492,36.3337514704539],"sales":{"202602":2508}},{"id":"MA010120220805766280","name":"청풍명월떡방앗간","industry":"떡/한과","coordinates":[127.44982099833,36.3396871074515],"sales":{"202602":913}},{"id":"MA010120220805767349","name":"1004마트","industry":"슈퍼마켓","coordinates":[127.449472015415,36.3429236350067],"sales":{"202602":8210}},{"id":"MA010120220805767838","name":"복사천국","industry":"복사업","coordinates":[127.447388778004,36.3370467843348],"sales":{"202602":445}},{"id":"MA010120220805768142","name":"돈돈이촌","industry":"돼지고기 구이/찜","coordinates":[127.44876355501,36.3359331851457],"sales":{"202602":1688}},{"id":"MA010120220805768487","name":"굿후렌드","industry":"피자","coordinates":[127.451880017851,36.3393999758066],"sales":{"202602":508}},{"id":"MA010120220805768533","name":"푸른태평양약국","industry":"약국","coordinates":[127.449225973541,36.3427533371307],"sales":{"202602":3175}},{"id":"MA010120220805769021","name":"Z:inInteriorFilm","industry":"기타 건설/건축자재 소매업","coordinates":[127.452536078074,36.3372797337758],"sales":{"202602":213}},{"id":"MA010120220805769829","name":"돈다발대패삼겹","industry":"돼지고기 구이/찜","coordinates":[127.448665818699,36.3421967136925],"sales":{"202602":629}},{"id":"MA010120220805770255","name":"24시종합중고매장","industry":"중고 상품 소매업","coordinates":[127.446905151352,36.3362285247478],"sales":{"202602":530}},{"id":"MA010120220805770264","name":"우송세탁소","industry":"세탁소","coordinates":[127.447246207256,36.335488285544],"sales":{"202602":198}},{"id":"MA010120220805770772","name":"엘린헤어샵","industry":"미용실","coordinates":[127.449818102466,36.3430575088919],"sales":{"202602":88}},{"id":"MA010120220805770910","name":"GS25우송","industry":"편의점","coordinates":[127.445234449724,36.3342792105975],"sales":{"202602":5651}},{"id":"MA010120220805771440","name":"우송서점문구","industry":"서점","coordinates":[127.444601592367,36.3346330248187],"sales":{"202602":1574}},{"id":"MA010120220805771508","name":"케익하우스발렌티나","industry":"빵/도넛","coordinates":[127.449583820021,36.3429953083429],"sales":{"202602":1057}},{"id":"MA010120220805771682","name":"해뜨는공인중개사사무소","industry":"부동산 중개/대리업","coordinates":[127.449251908338,36.3375714883096],"sales":{"202602":34}},{"id":"MA010120220805772759","name":"헤어끌리오","industry":"미용실","coordinates":[127.450314689829,36.342244582346],"sales":{"202602":242}},{"id":"MA010120220805773444","name":"주먹쫄면","industry":"김밥/만두/분식","coordinates":[127.444346803696,36.3348772896512],"sales":{"202602":409}},{"id":"MA010120220805774545","name":"만남의광장","industry":"백반/한정식","coordinates":[127.44530255874,36.3345042506412],"sales":{"202602":2922}},{"id":"MA010120220805774924","name":"이삭토스트","industry":"토스트/샌드위치/샐러드","coordinates":[127.445257494579,36.3344143010212],"sales":{"202602":776}},{"id":"MA010120220805775283","name":"돈주면돼지","industry":"돼지고기 구이/찜","coordinates":[127.449752769248,36.3413815714898],"sales":{"202602":293}},{"id":"MA010120220805777307","name":"신주쿠헤어","industry":"미용실","coordinates":[127.447298899634,36.3369119445504],"sales":{"202602":330}},{"id":"MA010120220805777551","name":"행복건강원","industry":"건강보조식품 소매업","coordinates":[127.451016584864,36.338402933984],"sales":{"202602":1889}},{"id":"MA010120220805777679","name":"영아미용실","industry":"미용실","coordinates":[127.451596550416,36.3423929447943],"sales":{"202602":269}},{"id":"MA010120220805778267","name":"민낯에스테틱","industry":"피부 관리실","coordinates":[127.449969888451,36.3384609499306],"sales":{"202602":288}},{"id":"MA010120220805778408","name":"자양카센터","industry":"자동차 정비소","coordinates":[127.449058438589,36.3407353372167],"sales":{"202602":3531}},{"id":"MA010120220805778436","name":"씨유우송","industry":"편의점","coordinates":[127.4499802493,36.3383257347632],"sales":{"202602":5409}},{"id":"MA010120220805778888","name":"피부클릭","industry":"피부 관리실","coordinates":[127.449288718185,36.3420411739473],"sales":{"202602":272}},{"id":"MA010120220805778990","name":"커스텀카클럽","industry":"자동차 정비소","coordinates":[127.451347537534,36.3339859287172],"sales":{"202602":1373}},{"id":"MA010120220805779887","name":"뉴골드공인중개사사무소","industry":"부동산 중개/대리업","coordinates":[127.447383573121,36.3361366173218],"sales":{"202602":31}},{"id":"MA010120220805780368","name":"자양왕돈까스&김가네한식","industry":"경양식","coordinates":[127.448754639657,36.336320723772],"sales":{"202602":9327}},{"id":"MA010120220805781447","name":"대박육회","industry":"소고기 구이/찜","coordinates":[127.44662312481,36.3336522184383],"sales":{"202602":2951}},{"id":"MA010120220805781876","name":"M크로버헤어","industry":"미용실","coordinates":[127.449575998674,36.3416345653157],"sales":{"202602":561}},{"id":"MA010120220805782195","name":"갱스헤어뉴스","industry":"미용실","coordinates":[127.45185492938,36.3369849234264],"sales":{"202602":324}},{"id":"MA010120220805782204","name":"우송안경원","industry":"안경렌즈 소매업","coordinates":[127.447275901998,36.3367858661608],"sales":{"202602":1653}},{"id":"MA010120220805783691","name":"언덕배기","industry":"백반/한정식","coordinates":[127.448829748179,36.3416463820591],"sales":{"202602":3692}},{"id":"MA010120220805783706","name":"세븐일레븐","industry":"편의점","coordinates":[127.447144832479,36.3352904063766],"sales":{"202602":2728}},{"id":"MA010120220805784063","name":"지에스25뉴우송","industry":"편의점","coordinates":[127.449227083776,36.3390675311638],"sales":{"202602":5916}},{"id":"MA010120220805784387","name":"지에스25우송","industry":"편의점","coordinates":[127.450118920477,36.3353243011005],"sales":{"202602":15329}},{"id":"MA010120220805785839","name":"더참마트","industry":"슈퍼마켓","coordinates":[127.44676274627,36.3346970597642],"sales":{"202602":6725}},{"id":"MA010120220805785907","name":"대주파크빌공인중개사사무소","industry":"부동산 중개/대리업","coordinates":[127.44873311751,36.3422775666585],"sales":{"202602":127}},{"id":"MA010120220805785927","name":"지에스25자양","industry":"편의점","coordinates":[127.448907191082,36.3376719128185],"sales":{"202602":6061}},{"id":"MA010120220805786646","name":"산골이발","industry":"미용실","coordinates":[127.452440837437,36.3381452217853],"sales":{"202602":276}},{"id":"MA010120220805786869","name":"삼겹천지","industry":"돼지고기 구이/찜","coordinates":[127.446590277492,36.3337514704539],"sales":{"202602":819}},{"id":"MA010120220805788583","name":"에스통신","industry":"핸드폰 소매업","coordinates":[127.450314689829,36.342244582346],"sales":{"202602":78}},{"id":"MA010120220805788876","name":"상상낙지대전","industry":"해산물 구이/찜","coordinates":[127.450150199111,36.3426957889365],"sales":{"202602":2460}},{"id":"MA010120220805789140","name":"필승카서비스","industry":"자동차 정비소","coordinates":[127.447903005404,36.3412623541906],"sales":{"202602":519}},{"id":"MA010120220805789215","name":"그린토마토","industry":"경양식","coordinates":[127.444819379676,36.333758074501],"sales":{"202602":7580}},{"id":"MA010120220805789450","name":"에이치씨푸드","industry":"백반/한정식","coordinates":[127.448984295322,36.341402484564],"sales":{"202602":2861}},{"id":"MA010120220805789548","name":"그림그라픽스","industry":"명함/간판/광고물 제작","coordinates":[127.447316281048,36.3360557634663],"sales":{"202602":738}},{"id":"MA010120220805790009","name":"모모헤어","industry":"미용실","coordinates":[127.447574724524,36.3364513127977],"sales":{"202602":77}},{"id":"MA010120220805790284","name":"찬스공인중개사사무소","industry":"부동산 중개/대리업","coordinates":[127.447945790583,36.3370627213916],"sales":{"202602":54}},{"id":"MA010120220805790676","name":"다송치킨호프","industry":"치킨","coordinates":[127.446590277492,36.3337514704539],"sales":{"202602":1628}},{"id":"MA010120220805790785","name":"해솔헤어샵","industry":"미용실","coordinates":[127.450383980239,36.338801836368],"sales":{"202602":182}},{"id":"MA010120220805790984","name":"동아화장품","industry":"화장품 소매업","coordinates":[127.450235057452,36.341956506763],"sales":{"202602":466}},{"id":"MA010120220805791500","name":"또또와식당","industry":"백반/한정식","coordinates":[127.44608981114,36.3358350538626],"sales":{"202602":7659}},{"id":"MA010120220805791738","name":"유한CNC","industry":"화장품 소매업","coordinates":[127.449721632029,36.3398406810258],"sales":{"202602":1149}},{"id":"MA010120220805791763","name":"자양동커피집209","industry":"카페","coordinates":[127.450150199111,36.3426957889365],"sales":{"202602":419}},{"id":"MA010120220805792553","name":"정원스터디","industry":"독서실/스터디 카페","coordinates":[127.447933259267,36.3368194511967],"sales":{"202602":135}},{"id":"MA010120220805793322","name":"노라조PC","industry":"PC방","coordinates":[127.449575998674,36.3416345653157],"sales":{"202602":1063}},{"id":"MA010120220805793454","name":"올리브영대전","industry":"화장품 소매업","coordinates":[127.446961665458,36.3363725013777],"sales":{"202602":335}},{"id":"MA010120220805793553","name":"후루루손칼국수","industry":"국수/칼국수","coordinates":[127.450077246366,36.3416326786111],"sales":{"202602":600}},{"id":"MA010120220805793693","name":"동네미장원","industry":"미용실","coordinates":[127.448033278733,36.3328899533431],"sales":{"202602":315}},{"id":"MA010120220805794898","name":"명문공인중개사사무소","industry":"부동산 중개/대리업","coordinates":[127.448903447492,36.338960606321],"sales":{"202602":64}},{"id":"MA010120220805795033","name":"폴카닷","industry":"광고물 설계/제작업","coordinates":[127.448361139959,36.3356823665397],"sales":{"202602":1977}},{"id":"MA010120220805795084","name":"와라와라식당","industry":"요리 주점","coordinates":[127.445479378643,36.334260274411],"sales":{"202602":642}},{"id":"MA010120220805795276","name":"다올짐","industry":"헬스장","coordinates":[127.448581282772,36.3410525401224],"sales":{"202602":315}},{"id":"MA010120220805795664","name":"금빈","industry":"핸드폰 소매업","coordinates":[127.448587381121,36.3421159024987],"sales":{"202602":123}},{"id":"MA010120220805795760","name":"고박사막창구이","industry":"곱창 전골/구이","coordinates":[127.448250290999,36.337719437164],"sales":{"202602":1280}},{"id":"MA010120220805796207","name":"유소헤어코디","industry":"미용실","coordinates":[127.45125165909,36.3424663414903],"sales":{"202602":259}},{"id":"MA010120220805796509","name":"윤가네등갈비","industry":"돼지고기 구이/찜","coordinates":[127.447573799097,36.3343425669459],"sales":{"202602":457}},{"id":"MA010120220805797044","name":"핸드웰특수장갑","industry":"액세서리/잡화 소매업","coordinates":[127.449992749763,36.3424350415186],"sales":{"202602":209}},{"id":"MA010120220805797199","name":"리코브리또","industry":"피자","coordinates":[127.448179279554,36.3369897520527],"sales":{"202602":1062}},{"id":"MA010120220805797364","name":"으능정이꼬마김밥","industry":"김밥/만두/분식","coordinates":[127.445415116995,36.3347111014881],"sales":{"202602":167}},{"id":"MA010120220805797736","name":"좋은PC만들기","industry":"컴퓨터/노트북/프린터 수리업","coordinates":[127.448179279554,36.3369897520527],"sales":{"202602":124}},{"id":"MA010120220805798423","name":"유성닭발","industry":"닭/오리고기 구이/찜","coordinates":[127.448845075654,36.3423762753371],"sales":{"202602":544}},{"id":"MA010120220805811561","name":"세계로여행주","industry":"여행사","coordinates":[127.446871170927,36.3361295225763],"sales":{"202602":988}},{"id":"MA010120220805813185","name":"유일전기안전주","industry":"사업시설 유지·관리 서비스업","coordinates":[127.449227083776,36.3390675311638],"sales":{"202602":497}},{"id":"MA010120220805824297","name":"달빛미용실","industry":"미용실","coordinates":[127.450466554205,36.3434696062297],"sales":{"202602":255}},{"id":"MA010120220805824870","name":"대운랜드","industry":"복권 발행/판매업","coordinates":[127.448405955603,36.341557855539],"sales":{"202602":158}},{"id":"MA010120220805827175","name":"행운식당","industry":"백반/한정식","coordinates":[127.448903447492,36.338960606321],"sales":{"202602":833}},{"id":"MA010120220805827411","name":"대주노래연습장","industry":"노래방","coordinates":[127.449156241625,36.3422489419092],"sales":{"202602":353}},{"id":"MA010120220805827592","name":"인터넷차유리","industry":"자동차 부품 소매업","coordinates":[127.448829748179,36.3416463820591],"sales":{"202602":2602}},{"id":"MA010120220805827838","name":"학생사","industry":"복사업","coordinates":[127.445411833654,36.3341343616298],"sales":{"202602":358}},{"id":"MA010120220805828637","name":"싱싱횟집식당","industry":"횟집","coordinates":[127.448942843431,36.341943344647],"sales":{"202602":882}},{"id":"MA010120220805828735","name":"원산이용원","industry":"미용실","coordinates":[127.447246207256,36.335488285544],"sales":{"202602":150}},{"id":"MA010120220805828785","name":"하나통상","industry":"서점","coordinates":[127.448164501962,36.3402430471122],"sales":{"202602":1166}},{"id":"MA010120220805829050","name":"아트현","industry":"광고물 설계/제작업","coordinates":[127.447574724524,36.3364513127977],"sales":{"202602":948}},{"id":"MA010120220805829395","name":"미가칼국수","industry":"국수/칼국수","coordinates":[127.447708742753,36.3365138930619],"sales":{"202602":1790}},{"id":"MA010120220805829697","name":"우리유통","industry":"기타 의류 소매업","coordinates":[127.44767032656,36.3356398973944],"sales":{"202602":1459}},{"id":"MA010120220805829857","name":"신신미용실","industry":"미용실","coordinates":[127.447000674169,36.3334525484338],"sales":{"202602":182}},{"id":"MA010120220805839707","name":"액상할인점","industry":"담배/전자담배 소매업","coordinates":[127.447560854109,36.3359737420971],"sales":{"202602":2329}},{"id":"MA010120220805843352","name":"고려환경산업","industry":"기타 건설/건축자재 소매업","coordinates":[127.442522229232,36.3352445293544],"sales":{"202602":255}},{"id":"MA010120220805846425","name":"놀부생고기","industry":"돼지고기 구이/찜","coordinates":[127.450251719468,36.3390456517873],"sales":{"202602":562}},{"id":"MA010120220805847303","name":"성모약국","industry":"약국","coordinates":[127.449061920739,36.3394015863677],"sales":{"202602":5572}},{"id":"MA010120220805847354","name":"오렌즈안경나라","industry":"안경렌즈 소매업","coordinates":[127.447316281048,36.3360557634663],"sales":{"202602":1970}},{"id":"MA010120220805848039","name":"이래도식당","industry":"중국집","coordinates":[127.451852379008,36.3365433575355],"sales":{"202602":1376}},{"id":"MA010120220805848042","name":"백조기계세탁","industry":"세탁소","coordinates":[127.449219179255,36.3357512384994],"sales":{"202602":169}},{"id":"MA010120220805848047","name":"띠울장여관","industry":"여관/모텔","coordinates":[127.449295043108,36.3412030584198],"sales":{"202602":874}},{"id":"MA010120220805848048","name":"띠울목욕탕","industry":"목욕탕/사우나","coordinates":[127.449295043108,36.3412030584198],"sales":{"202602":3269}},{"id":"MA010120220805848095","name":"영산강민물장어","industry":"해산물 구이/찜","coordinates":[127.449430675992,36.3415449945272],"sales":{"202602":2796}},{"id":"MA010120220805848110","name":"대동건강원","industry":"건강보조식품 소매업","coordinates":[127.449893276701,36.3425705921023],"sales":{"202602":1007}},{"id":"MA010120220805848127","name":"지코바치킨","industry":"치킨","coordinates":[127.448317688767,36.3378183135576],"sales":{"202602":746}},{"id":"MA010120220805848155","name":"고구려명장식당","industry":"백반/한정식","coordinates":[127.449193862608,36.3410412274498],"sales":{"202602":4185}},{"id":"MA010120220805848156","name":"맥스２５","industry":"사진촬영업","coordinates":[127.445045363461,36.3343249736088],"sales":{"202602":328}},{"id":"MA010120220805855585","name":"덕유상회","industry":"기타 운송장비 대여업","coordinates":[127.448154137754,36.3403782621024],"sales":{"202602":324}},{"id":"MA010120220805856712","name":"흥룡이용원","industry":"미용실","coordinates":[127.449073990459,36.3395637523803],"sales":{"202602":391}},{"id":"MA010120220805859144","name":"대주공인중개사","industry":"부동산 중개/대리업","coordinates":[127.449225973541,36.3427533371307],"sales":{"202602":40}},{"id":"MA010120220805859363","name":"대학문화사","industry":"복사업","coordinates":[127.451558114532,36.333804898302],"sales":{"202602":560}},{"id":"MA010120220805863587","name":"학교법인우송학원","industry":"기타 교육지원 서비스업","coordinates":[127.445643931095,36.3357736350388],"sales":{"202602":22}},{"id":"MA010120220805947373","name":"다시오고싶은집","industry":"돼지고기 구이/찜","coordinates":[127.448979415454,36.3424929232995],"sales":{"202602":419}},{"id":"MA010120220805962921","name":"공릉동멸치국수","industry":"국수/칼국수","coordinates":[127.449027315439,36.3391944463081],"sales":{"202602":713}},{"id":"MA010120220805968371","name":"국가대표농수산물","industry":"채소/과일 소매업","coordinates":[127.45028582354,36.3411002002881],"sales":{"202602":1479}},{"id":"MA010120220806118354","name":"넘버원헤어살롱","industry":"미용실","coordinates":[127.447945790583,36.3370627213916],"sales":{"202602":213}},{"id":"MA010120220806176320","name":"란헤어라인","industry":"미용실","coordinates":[127.449805097756,36.3427331353042],"sales":{"202602":293}},{"id":"MA010120220806177813","name":"황태나라고기촌","industry":"돼지고기 구이/찜","coordinates":[127.449920416074,36.3395425453405],"sales":{"202602":702}},{"id":"MA010120220806186577","name":"복줌부동산공인중개사사무소","industry":"부동산 중개/대리업","coordinates":[127.446979616837,36.3356154473637],"sales":{"202602":103}},{"id":"MA010120220806194366","name":"24시K마트","industry":"슈퍼마켓","coordinates":[127.448081152139,36.3373596015954],"sales":{"202602":17479}},{"id":"MA010120220806202161","name":"장미침장","industry":"침구류/커튼 소매업","coordinates":[127.451536843959,36.3436277782766],"sales":{"202602":465}},{"id":"MA010120220806204560","name":"대전찌개방","industry":"백반/한정식","coordinates":[127.449327919744,36.33529123056],"sales":{"202602":3953}},{"id":"MA010120220806210340","name":"토마토옷수선","industry":"의류/이불 수선업","coordinates":[127.450518627512,36.3389725519799],"sales":{"202602":21}},{"id":"MA010120220806221881","name":"경동나비엔동구중앙","industry":"철물/공구 소매업","coordinates":[127.448642739961,36.3401150883551],"sales":{"202602":881}},{"id":"MA010120220806225619","name":"기억디자인","industry":"광고물 설계/제작업","coordinates":[127.449246698759,36.3424829070894],"sales":{"202602":1445}},{"id":"MA010120220806237793","name":"365화장품물류통신","industry":"컴퓨터/노트북/프린터 수리업","coordinates":[127.447980340416,36.3372608503118],"sales":{"202602":410}},{"id":"MA010120220806282075","name":"양자클럽","industry":"중국집","coordinates":[127.449641646401,36.3356144736071],"sales":{"202602":793}},{"id":"MA010120220806365520","name":"프랜즈","industry":"중고 상품 소매업","coordinates":[127.449096888382,36.3396718072439],"sales":{"202602":144}},{"id":"MA010120220806368645","name":"리페로","industry":"자동차 정비소","coordinates":[127.448552597487,36.3399351918822],"sales":{"202602":559}},{"id":"MA010120220806372297","name":"크앙분식","industry":"김밥/만두/분식","coordinates":[127.446332277003,36.3353835611416],"sales":{"202602":539}},{"id":"MA010120220806389859","name":"이백장돈가스","industry":"일식 카레/돈가스/덮밥","coordinates":[127.451620767641,36.3369407497889],"sales":{"202602":647}},{"id":"MA010120220806451489","name":"국본가수육국밥","industry":"국/탕/찌개류","coordinates":[127.446245023777,36.3357083099405],"sales":{"202602":439}},{"id":"MA010120220806453375","name":"자연콘이엔씨","industry":"건물 및 토목 엔지니어링 서비스업","coordinates":[127.450133459146,36.3417225842826],"sales":{}},{"id":"MA010120220806485608","name":"유블리","industry":"기타 의류 소매업","coordinates":[127.449288718185,36.3420411739473],"sales":{"202602":716}},{"id":"MA010120220806632694","name":"공강","industry":"요리 주점","coordinates":[127.44749088171,36.3354242874346],"sales":{"202602":217}},{"id":"MA010120220806688546","name":"행복키움공인중개사사무소","industry":"부동산 중개/대리업","coordinates":[127.449227704781,36.3391756697456],"sales":{"202602":22}},{"id":"MA010120220806690411","name":"마스터공인중개사사무소","industry":"부동산 중개/대리업","coordinates":[127.448361139959,36.3356823665397],"sales":{"202602":73}},{"id":"MA010120220806728430","name":"에이치알케이","industry":"가전제품 수리업","coordinates":[127.446500323452,36.3355541566906],"sales":{"202602":1033}},{"id":"MA010120220806728500","name":"샬롬화장비누","industry":"기타 기술/직업 훈련학원","coordinates":[127.451363360645,36.3425199900788],"sales":{"202602":696}},{"id":"MA010120220806733759","name":"비니커피","industry":"카페","coordinates":[127.448339639156,36.3416482217444],"sales":{"202602":710}},{"id":"MA010120220806757285","name":"더피그","industry":"돼지고기 구이/찜","coordinates":[127.451104377561,36.3343112697392],"sales":{"202602":432}},{"id":"MA010120220806764664","name":"큰맘할매순대국","industry":"국/탕/찌개류","coordinates":[127.448204550384,36.337512338563],"sales":{"202602":698}},{"id":"MA010120220806891379","name":"역전할머니맥주대전","industry":"생맥주 전문","coordinates":[127.446259126995,36.3342753889811],"sales":{"202602":935}},{"id":"MA010120220806912731","name":"주영푸드","industry":"백반/한정식","coordinates":[127.449056663865,36.3423664687217],"sales":{"202602":3736}},{"id":"MA010120220806985411","name":"캠토","industry":"피자","coordinates":[127.45185492938,36.3369849234264],"sales":{"202602":346}},{"id":"MA010120220806988208","name":"피막치골춘자","industry":"치킨","coordinates":[127.450077962956,36.3398213161148],"sales":{"202602":798}},{"id":"MA010120220806989569","name":"우리집공인중개사사무소","industry":"부동산 중개/대리업","coordinates":[127.448415350732,36.3373673598841],"sales":{"202602":153}},{"id":"MA010120220806992552","name":"대박포차","industry":"요리 주점","coordinates":[127.446147235176,36.334185689203],"sales":{"202602":430}},{"id":"MA010120220807070253","name":"매일네일","industry":"네일숍","coordinates":[127.449154599164,36.3400230482986],"sales":{"202602":93}},{"id":"MA010120220807119670","name":"이브노래연습장","industry":"노래방","coordinates":[127.448979415454,36.3424929232995],"sales":{"202602":1355}},{"id":"MA010120220807150758","name":"마포닭발","industry":"닭/오리고기 구이/찜","coordinates":[127.451714198694,36.3338313437351],"sales":{"202602":463}},{"id":"MA010120220807184888","name":"베스트공인중개사사무소","industry":"부동산 중개/대리업","coordinates":[127.447906030004,36.3359544254778],"sales":{"202602":36}},{"id":"MA010120220807367703","name":"GS25","industry":"편의점","coordinates":[127.450019885295,36.3394069946928],"sales":{"202602":23946}},{"id":"MA010120220807388044","name":"샘이깊은물","industry":"요리 주점","coordinates":[127.445257494579,36.3344143010212],"sales":{"202602":294}},{"id":"MA010120220807489336","name":"아로마라이프","industry":"기타 의류 소매업","coordinates":[127.448339639156,36.3416482217444],"sales":{"202602":400}},{"id":"MA010120220807653130","name":"디에스휘트니스","industry":"헬스장","coordinates":[127.445826190747,36.3345293337615],"sales":{"202602":308}},{"id":"MA010120220807718254","name":"아이디노래연습장","industry":"노래방","coordinates":[127.445045363461,36.3343249736088],"sales":{"202602":447}},{"id":"MA010120220807771151","name":"1004마라탕","industry":"마라탕/훠궈","coordinates":[127.448131228549,36.3383236705881],"sales":{"202602":811}},{"id":"MA010120220807827460","name":"다옴인테리어","industry":"인테리어 디자인업","coordinates":[127.450755028189,36.343270260301],"sales":{"202602":452}},{"id":"MA010120220807883234","name":"씨유자양","industry":"편의점","coordinates":[127.447574724524,36.3364513127977],"sales":{"202602":5144}},{"id":"MA010120220807952029","name":"스터디포럼","industry":"입시·교과학원","coordinates":[127.45125165909,36.3424663414903],"sales":{"202602":334}},{"id":"MA010120220808039447","name":"놀러와플","industry":"빵/도넛","coordinates":[127.446979616837,36.3356154473637],"sales":{"202602":965}},{"id":"MA010120220808050675","name":"공감모바일","industry":"핸드폰 소매업","coordinates":[127.44769213914,36.3375052474023],"sales":{"202602":59}},{"id":"MA010120220808054717","name":"낮밤","industry":"백반/한정식","coordinates":[127.445547796253,36.334539383671],"sales":{"202602":2309}},{"id":"MA010120220808077192","name":"극동이용원","industry":"미용실","coordinates":[127.448752603501,36.3417908595932],"sales":{"202602":286}},{"id":"MA010120220808089864","name":"캔버스카페","industry":"카페","coordinates":[127.445556419475,36.3340977756964],"sales":{"202602":316}},{"id":"MA010120220808094676","name":"신전떡볶이","industry":"김밥/만두/분식","coordinates":[127.448903447492,36.338960606321],"sales":{"202602":590}},{"id":"MA010120220808138779","name":"대한스포츠","industry":"기타 의류 소매업","coordinates":[127.448902568379,36.3388074099838],"sales":{"202602":515}},{"id":"MA010120220808192848","name":"도담도담공부방","industry":"입시·교과학원","coordinates":[127.449038522726,36.3372658908929],"sales":{"202602":376}},{"id":"MA010120220808245651","name":"알당구장","industry":"당구장","coordinates":[127.447076084749,36.336903766519],"sales":{"202602":272}},{"id":"MA010120220808258775","name":"투런처이허나스","industry":"베트남식 전문","coordinates":[127.444789757489,36.3344250544084],"sales":{"202602":735}},{"id":"MA010120220808365051","name":"노말보이즈클럽","industry":"중국집","coordinates":[127.44530255874,36.3345042506412],"sales":{"202602":2080}},{"id":"MA010120220808426112","name":"동아철물점","industry":"철물/공구 소매업","coordinates":[127.450235057452,36.341956506763],"sales":{"202602":1290}},{"id":"MA010120220808427059","name":"장만월","industry":"백반/한정식","coordinates":[127.451596550416,36.3423929447943],"sales":{"202602":3833}},{"id":"MA010120220808449873","name":"달빛포차","industry":"백반/한정식","coordinates":[127.448619712442,36.3419265346168],"sales":{"202602":2143}},{"id":"MA010120220808456597","name":"솔카페","industry":"카페","coordinates":[127.453592797512,36.3370324107262],"sales":{"202602":2351}},{"id":"MA010120220808476682","name":"위즈모바일","industry":"핸드폰 소매업","coordinates":[127.447383573121,36.3361366173218],"sales":{"202602":324}},{"id":"MA010120220808526804","name":"네일다","industry":"네일숍","coordinates":[127.448345853115,36.3388455467791],"sales":{"202602":78}},{"id":"MA010120220808558039","name":"순살의민족&치킨투게더","industry":"치킨","coordinates":[127.446623921519,36.3357429416051],"sales":{"202602":502}},{"id":"MA010120220808570572","name":"잡화","industry":"그 외 기타 종합 소매업","coordinates":[127.447812914867,36.3410914687389],"sales":{"202602":2975}},{"id":"MA010120220808571872","name":"조은컴퍼니","industry":"사업시설 유지·관리 서비스업","coordinates":[127.44931955604,36.3396529468048],"sales":{"202602":337}},{"id":"MA010120220808600484","name":"GS25우송대","industry":"편의점","coordinates":[127.446602186781,36.3338866022321],"sales":{"202602":3198}},{"id":"MA010120220808614291","name":"맛나돈장군","industry":"돼지고기 구이/찜","coordinates":[127.449641646401,36.3356144736071],"sales":{"202602":1267}},{"id":"MA010120220808617952","name":"베스트프랜드피시방","industry":"컴퓨터/노트북/프린터 수리업","coordinates":[127.44860893813,36.3381055964973],"sales":{"202602":735}},{"id":"MA010120220808640146","name":"캠퍼스공인중개사사무소","industry":"부동산 중개/대리업","coordinates":[127.446795674831,36.3365623687451],"sales":{"202602":56}},{"id":"MA010120220808670571","name":"무인","industry":"남성 의류 소매업","coordinates":[127.448547149453,36.3370424424369],"sales":{"202602":562}},{"id":"MA010120220808715327","name":"빈스렌터카","industry":"자동차 대여업","coordinates":[127.449674544678,36.3335867061633],"sales":{"202602":1115}},{"id":"MA010120220808731128","name":"아키타","industry":"일식 회/초밥","coordinates":[127.448179279554,36.3369897520527],"sales":{"202602":3870}},{"id":"MA010120220808778320","name":"화니쮸니헤어","industry":"미용실","coordinates":[127.450133459146,36.3417225842826],"sales":{"202602":315}},{"id":"MA010120220808784181","name":"토마토세븐7스튜디오","industry":"사진촬영업","coordinates":[127.447298899634,36.3369119445504],"sales":{"202602":288}},{"id":"MA010120220809093209","name":"쉐어푸드","industry":"그 외 기타 교육기관","coordinates":[127.448473573257,36.3378087169512],"sales":{"202602":962}},{"id":"MA010120220809133557","name":"조은인테리어","industry":"인테리어 디자인업","coordinates":[127.448908504489,36.3359596760321],"sales":{"202602":1047}},{"id":"MA010120220809299205","name":"커피상회","industry":"카페","coordinates":[127.449061920739,36.3394015863677],"sales":{"202602":986}},{"id":"MA010120220809325617","name":"포토이즘박스","industry":"사진촬영업","coordinates":[127.447275901998,36.3367858661608],"sales":{"202602":190}},{"id":"MA010120220809337580","name":"파리바게뜨대전","industry":"빵/도넛","coordinates":[127.44563479449,36.3341695775048],"sales":{"202602":1003}},{"id":"MA010120220809402779","name":"아이엠일리터","industry":"카페","coordinates":[127.445674059723,36.3351967707056],"sales":{"202602":467}},{"id":"MA010120220809604130","name":"더찬스공인중개사사무소","industry":"부동산 중개/대리업","coordinates":[127.447945790583,36.3370627213916],"sales":{"202602":49}},{"id":"MA010120220809612735","name":"유한축산","industry":"정육점","coordinates":[127.451596550416,36.3423929447943],"sales":{"202602":6642}},{"id":"MA010120220809624962","name":"피자2001자양.","industry":"피자","coordinates":[127.449096888382,36.3396718072439],"sales":{"202602":296}},{"id":"MA010120220809626533","name":"우송동문PC","industry":"PC방","coordinates":[127.447076084749,36.336903766519],"sales":{"202602":824}},{"id":"MA010120220809702806","name":"육형제","industry":"경양식","coordinates":[127.446245023777,36.3357083099405],"sales":{"202602":3539}},{"id":"MA010120220809736043","name":"스타통신","industry":"핸드폰 소매업","coordinates":[127.448538484689,36.3413590999251],"sales":{"202602":391}},{"id":"MA010120220809772135","name":"중고주방,에어컨,냉난방기,가전,띠울종합전자","industry":"중고 상품 소매업","coordinates":[127.448593300107,36.3412056945978],"sales":{"202602":93}},{"id":"MA010120220809776361","name":"솔카오토테크","industry":"자동차 정비소","coordinates":[127.446686376222,36.3349767094806],"sales":{"202602":292}},{"id":"MA010120220809779912","name":"일미리금계찜닭","industry":"닭/오리고기 구이/찜","coordinates":[127.447000674169,36.3334525484338],"sales":{"202602":369}},{"id":"MA010120220809784981","name":"파리바게뜨대전","industry":"빵/도넛","coordinates":[127.448979415454,36.3424929232995],"sales":{"202602":1953}},{"id":"MA010120220809805386","name":"문희네식당","industry":"백반/한정식","coordinates":[127.447689663253,36.3351261552585],"sales":{"202602":3956}},{"id":"MA010120220809871034","name":"다인샵","industry":"중고 상품 소매업","coordinates":[127.449841257758,36.3412730975667],"sales":{"202602":186}},{"id":"MA010120220809909114","name":"입시·교과학원","industry":"입시·교과학원","coordinates":[127.451889807382,36.3430226578226],"sales":{"202602":743}},{"id":"MA010120220809957652","name":"넥스트클럽사회적협동조합","industry":"사회교육시설","coordinates":[127.446863121231,36.3366702575529],"sales":{}},{"id":"MA010120220809994322","name":"매직PC방","industry":"PC방","coordinates":[127.447933259267,36.3368194511967],"sales":{"202602":669}},{"id":"MA010120220810005325","name":"프린트카페","industry":"복사업","coordinates":[127.446962695146,36.3365527324837],"sales":{"202602":385}},{"id":"MA010120220810030169","name":"족발야시장","industry":"족발/보쌈","coordinates":[127.446332277003,36.3353835611416],"sales":{"202602":795}},{"id":"MA010120220810052551","name":"쌍둥이떡방앗간","industry":"떡/한과","coordinates":[127.449445594793,36.3422027953534],"sales":{"202602":1277}},{"id":"MA010120220810057338","name":"학교법인나무와숲학원","industry":"기타 교육지원 서비스업","coordinates":[127.452971613568,36.3336283262346],"sales":{"202602":25}},{"id":"MA010120220810064959","name":"씨유대전","industry":"편의점","coordinates":[127.450480216671,36.3419736063636],"sales":{"202602":5570}},{"id":"MA010120220810105844","name":"닉","industry":"PC방","coordinates":[127.446332277003,36.3353835611416],"sales":{"202602":1147}},{"id":"MA010120220810172992","name":"탕화쿵푸마라탕","industry":"마라탕/훠궈","coordinates":[127.446332277003,36.3353835611416],"sales":{"202602":496}},{"id":"MA010120220810194839","name":"스터디카페엘알마","industry":"독서실/스터디 카페","coordinates":[127.445045363461,36.3343249736088],"sales":{"202602":362}},{"id":"MA010120220810251495","name":"복짬뽕","industry":"중국집","coordinates":[127.448984295322,36.341402484564],"sales":{"202602":1693}},{"id":"MA010120220810302975","name":"맘스터치","industry":"버거","coordinates":[127.447275901998,36.3367858661608],"sales":{"202602":2647}},{"id":"MA010120220810311343","name":"대전자양전자담배마켓","industry":"담배/전자담배 소매업","coordinates":[127.446770310861,36.336021758674],"sales":{"202602":243}},{"id":"MA010120220810353294","name":"더참마트","industry":"슈퍼마켓","coordinates":[127.44676274627,36.3346970597642],"sales":{"202602":4445}},{"id":"MA010120220810359278","name":"커볶235","industry":"백반/한정식","coordinates":[127.444886615942,36.3338299182631],"sales":{"202602":3226}},{"id":"MA010120220810363256","name":"꽃길공인중개사사무소","industry":"부동산 중개/대리업","coordinates":[127.448601906469,36.3407640870102],"sales":{"202602":90}},{"id":"MA010120220810385784","name":"유노스타일","industry":"미용실","coordinates":[127.446167455207,36.3338251436482],"sales":{"202602":148}},{"id":"MA010120220810396197","name":"카페:그루잠","industry":"카페","coordinates":[127.448581282772,36.3410525401224],"sales":{"202602":1670}},{"id":"MA010120220810446265","name":"차이하나","industry":"베트남식 전문","coordinates":[127.452450360067,36.3378658216864],"sales":{"202602":1942}},{"id":"MA010120220810973331","name":"우송공인중개사사무소","industry":"부동산 중개/대리업","coordinates":[127.449662675622,36.3392731631096],"sales":{"202602":74}},{"id":"MA010120220811083310","name":"공차","industry":"카페","coordinates":[127.447830281878,36.3363422145],"sales":{"202602":421}},{"id":"MA010120220811553073","name":"네일지수","industry":"네일숍","coordinates":[127.448581282772,36.3410525401224],"sales":{"202602":83}},{"id":"MA010120220811683666","name":"동궁찜닭","industry":"닭/오리고기 구이/찜","coordinates":[127.447687291619,36.3366581613761],"sales":{"202602":484}},{"id":"MA010120220811684891","name":"푸라닭대전","industry":"치킨","coordinates":[127.449450229956,36.3352547236668],"sales":{"202602":518}},{"id":"MA010120220811690975","name":"공방퀸스올","industry":"주방/가정용품 소매업","coordinates":[127.447635004871,36.3353065949787],"sales":{"202602":293}},{"id":"MA010120220811694744","name":"베스트노래연습장","industry":"노래방","coordinates":[127.449575998674,36.3416345653157],"sales":{"202602":142}},{"id":"MA010120220811744618","name":"1989역전꼬마김밥","industry":"김밥/만두/분식","coordinates":[127.448538484689,36.3413590999251],"sales":{"202602":361}},{"id":"MA010120220811761185","name":"인생열쇠","industry":"철물/공구 소매업","coordinates":[127.450287291022,36.3432900470937],"sales":{"202602":908}},{"id":"MA010120220811765885","name":"원화루","industry":"중국집","coordinates":[127.448884873512,36.3415470458799],"sales":{"202602":2490}},{"id":"MA010120220811859390","name":"신통치킨","industry":"치킨","coordinates":[127.450387992243,36.3414332496457],"sales":{"202602":807}},{"id":"MA010120220811876290","name":"헬스케어몰","industry":"기타 개인/가정용품 대여업","coordinates":[127.448623460327,36.3406378417287],"sales":{"202602":208}},{"id":"MA010120220811969113","name":"아쿠아워시대전","industry":"세탁소","coordinates":[127.449142684421,36.3398879169507],"sales":{"202602":87}},{"id":"MA010120220812064774","name":"낭만포차","industry":"요리 주점","coordinates":[127.445234449724,36.3342792105975],"sales":{"202602":495}},{"id":"MA010120220812082766","name":"크로스핏에이플러스","industry":"헬스장","coordinates":[127.449641646401,36.3356144736071],"sales":{"202602":605}},{"id":"MA010120220812139102","name":"카페양순","industry":"카페","coordinates":[127.450466671537,36.3396215932718],"sales":{"202602":356}},{"id":"MA010120220812139171","name":"커피봇","industry":"카페","coordinates":[127.44860893813,36.3381055964973],"sales":{"202602":194}},{"id":"MA010120220812162828","name":"바버클래스","industry":"미용실","coordinates":[127.446766039637,36.335273799462],"sales":{"202602":177}},{"id":"MA010120220812204703","name":"의지","industry":"사진촬영업","coordinates":[127.451435755591,36.3338323957847],"sales":{"202602":326}},{"id":"MA010120220812230525","name":"덕산식당","industry":"백반/한정식","coordinates":[127.451554458784,36.3370311177945],"sales":{"202602":767}},{"id":"MA010120220812233388","name":"샐러디대전","industry":"피자","coordinates":[127.447148025724,36.3358491228749],"sales":{"202602":255}},{"id":"MA010120220812236421","name":"황소인테리어","industry":"인테리어 디자인업","coordinates":[127.452507146196,36.3380548533052],"sales":{"202602":801}},{"id":"MA010120220812277786","name":"새로미미용실","industry":"미용실","coordinates":[127.448285172724,36.3340875718062],"sales":{"202602":219}},{"id":"MA010120220812283818","name":"블루밍","industry":"카페","coordinates":[127.446863121231,36.3366702575529],"sales":{"202602":817}},{"id":"MA010120220812310073","name":"PHI현대최면센터","industry":"교육컨설팅업","coordinates":[127.44860118681,36.3367538637251],"sales":{"202602":663}},{"id":"MA010120220812348797","name":"뉴골드합동공인중개사사무소","industry":"부동산 중개/대리업","coordinates":[127.447383573121,36.3361366173218],"sales":{"202602":89}},{"id":"MA010120220812356921","name":"일등모바일","industry":"핸드폰 소매업","coordinates":[127.447383573121,36.3361366173218],"sales":{"202602":277}},{"id":"MA010120220812451505","name":"아라다이스","industry":"네일숍","coordinates":[127.447057428251,36.3355881210802],"sales":{"202602":129}},{"id":"MA010120220812467465","name":"복권로또판매점","industry":"복권 발행/판매업","coordinates":[127.448405955603,36.341557855539],"sales":{"202602":188}},{"id":"MA010120220812529230","name":"만리향","industry":"국수/칼국수","coordinates":[127.44604596764,36.3340058321497],"sales":{"202602":720}},{"id":"MA010120220812572341","name":"장군집","industry":"돼지고기 구이/찜","coordinates":[127.446590277492,36.3337514704539],"sales":{"202602":4695}},{"id":"MA010120220812619888","name":"디저트39우송대동역점","industry":"카페","coordinates":[127.448252496522,36.3361603967211],"sales":{"202602":789}},{"id":"MA010120220812665797","name":"치얼스","industry":"생맥주 전문","coordinates":[127.448902568379,36.3388074099838],"sales":{"202602":421}},{"id":"MA010120220812705767","name":"매직코인노래연습장","industry":"노래방","coordinates":[127.44776020654,36.3377212743029],"sales":{"202602":480}},{"id":"MA010120220812767034","name":"이마트24","industry":"편의점","coordinates":[127.447996071523,36.3380628367083],"sales":{"202602":4222}},{"id":"MA010120220812778392","name":"미장원by창인","industry":"미용실","coordinates":[127.449327919744,36.33529123056],"sales":{"202602":124}},{"id":"MA010120220812833699","name":"영스킨케어","industry":"피부 관리실","coordinates":[127.449058438589,36.3407353372167],"sales":{"202602":52}},{"id":"MA010120220812905659","name":"달시아이스크림세계과자","industry":"슈퍼마켓","coordinates":[127.451960636505,36.3360022434142],"sales":{"202602":7359}},{"id":"MA010120220812909818","name":"음식하우스","industry":"백반/한정식","coordinates":[127.449052316133,36.3357879125629],"sales":{"202602":4790}},{"id":"MA010120220812915291","name":"가온공인중개사사무소","industry":"부동산 중개/대리업","coordinates":[127.446650235932,36.3344992217693],"sales":{"202602":27}},{"id":"MA010120220813013850","name":"쿠로네일","industry":"네일숍","coordinates":[127.449052316133,36.3357879125629],"sales":{"202602":198}},{"id":"MA010120220813025847","name":"굽네치킨대전","industry":"치킨","coordinates":[127.445045363461,36.3343249736088],"sales":{"202602":713}},{"id":"MA010120220813093508","name":"달빛네일","industry":"네일숍","coordinates":[127.450438288935,36.3346922754543],"sales":{"202602":145}},{"id":"MA010120220813154780","name":"푸드잇","industry":"국수/칼국수","coordinates":[127.4493483039,36.3407793063837],"sales":{"202602":1204}},{"id":"MA010120220813183620","name":"커피니","industry":"카페","coordinates":[127.447383573121,36.3361366173218],"sales":{"202602":754}},{"id":"MA010120220813197831","name":"푸줏간","industry":"돼지고기 구이/찜","coordinates":[127.451596550416,36.3423929447943],"sales":{"202602":651}},{"id":"MA010120220813219717","name":"돈까스테이블","industry":"경양식","coordinates":[127.448091464513,36.3372153749924],"sales":{"202602":2634}},{"id":"MA010120220813231992","name":"라트리헤어스파힐대전","industry":"미용실","coordinates":[127.449472015415,36.3429236350067],"sales":{"202602":236}},{"id":"MA010120220813234795","name":"더프렌즈","industry":"장난감 소매업","coordinates":[127.445826190747,36.3345293337615],"sales":{"202602":26059}},{"id":"MA010120220813289097","name":"불닭발땡초동대문엽기떡볶이대전","industry":"김밥/만두/분식","coordinates":[127.447980340416,36.3372608503118],"sales":{"202602":494}},{"id":"MA010120220813338629","name":"엄마맛집","industry":"백반/한정식","coordinates":[127.449992749763,36.3424350415186],"sales":{"202602":4490}},{"id":"MA010120220813423698","name":"소담종합장식","industry":"벽지/장판/마루 소매업","coordinates":[127.449225973541,36.3427533371307],"sales":{"202602":317}},{"id":"MA010120220813438509","name":"프렌즈","industry":"카페","coordinates":[127.445826190747,36.3345293337615],"sales":{"202602":758}},{"id":"MA010120220813443026","name":"마인바버","industry":"미용실","coordinates":[127.449969888451,36.3384609499306],"sales":{"202602":116}},{"id":"MA010120220813468277","name":"마루공인중개사사무소","industry":"부동산 중개/대리업","coordinates":[127.447864573139,36.3364952857112],"sales":{"202602":58}},{"id":"MA010120220813484577","name":"에스푸드시스템","industry":"경영 컨설팅업","coordinates":[127.44860893813,36.3381055964973],"sales":{"202602":6640}},{"id":"MA010120220813493113","name":"조각정원","industry":"그 외 기타 간이 음식점","coordinates":[127.44271111526,36.3351627240668],"sales":{"202602":534}},{"id":"MA010120220813501323","name":"금성국제여행사","industry":"기타 여행 보조/예약 서비스업","coordinates":[127.447388778004,36.3370467843348],"sales":{}},{"id":"MA010120220813538724","name":"싱싱홈마트","industry":"슈퍼마켓","coordinates":[127.449989250586,36.334081167981],"sales":{"202602":8221}},{"id":"MA010120220813540172","name":"샐러드위크","industry":"피자","coordinates":[127.448179279554,36.3369897520527],"sales":{"202602":448}},{"id":"MA010120220813552252","name":"피지컬GYM","industry":"헬스장","coordinates":[127.448252496522,36.3361603967211],"sales":{"202602":410}},{"id":"MA010120220813558323","name":"이루리네일&아이","industry":"네일숍","coordinates":[127.448550611265,36.3376462164218],"sales":{"202602":137}},{"id":"MA010120220813561502","name":"주주","industry":"낚시터 운영업","coordinates":[127.450972146082,36.3422871618481],"sales":{}},{"id":"MA010120220813587264","name":"아빠옛날떡볶이","industry":"김밥/만두/분식","coordinates":[127.449721632029,36.3398406810258],"sales":{"202602":261}},{"id":"MA010120220813599227","name":"문포레스트","industry":"꽃집","coordinates":[127.450466554205,36.3434696062297],"sales":{"202602":478}},{"id":"MA010120220813659276","name":"빽다방대전","industry":"카페","coordinates":[127.447388778004,36.3370467843348],"sales":{"202602":302}},{"id":"MA010120220813716611","name":"웰캄공인중개사사무소","industry":"부동산 중개/대리업","coordinates":[127.448963677505,36.3358693513045],"sales":{"202602":96}},{"id":"MA010120220813727246","name":"찜당한돼지","industry":"돼지고기 구이/찜","coordinates":[127.450693364287,36.3383681063562],"sales":{"202602":792}},{"id":"MA010120220813759321","name":"청년피자대전","industry":"피자","coordinates":[127.451332111099,36.3371040516437],"sales":{"202602":339}},{"id":"MA010120220813815317","name":"케이당구","industry":"당구장","coordinates":[127.44860893813,36.3381055964973],"sales":{"202602":209}},{"id":"MA010120220813863776","name":"청춘미장","industry":"미용실","coordinates":[127.449061920739,36.3394015863677],"sales":{"202602":276}},{"id":"MA010120220813938873","name":"셀조리사무소","industry":"기타 기술/직업 훈련학원","coordinates":[127.444591529887,36.3348223090286],"sales":{"202602":749}},{"id":"MA010120220813987923","name":"올레노래연습장","industry":"노래방","coordinates":[127.450364608711,36.33930656696],"sales":{"202602":856}},{"id":"MA010120220813993966","name":"신가네매운떡볶이","industry":"김밥/만두/분식","coordinates":[127.445045363461,36.3343249736088],"sales":{"202602":347}},{"id":"MA010120220814057104","name":"대학공인중개사사무소","industry":"부동산 중개/대리업","coordinates":[127.447884017486,36.337946104009],"sales":{"202602":130}},{"id":"MA010120220814099950","name":"180도헤어","industry":"미용실","coordinates":[127.448199039741,36.3384946394423],"sales":{"202602":198}},{"id":"MA010120220814106216","name":"범프리카우송대점","industry":"치킨","coordinates":[127.446712020657,36.3336158392027],"sales":{"202602":436}},{"id":"MA010120220814215964","name":"세종에바크리닝에어컨히터냄새전문카롱","industry":"자동차 세차장","coordinates":[127.450986536829,36.3351227718682],"sales":{"202602":753}},{"id":"MA010120220814254156","name":"산울림노래연습장","industry":"노래방","coordinates":[127.450133459146,36.3417225842826],"sales":{"202602":716}},{"id":"MA010120220814304796","name":"솔펫동물병원","industry":"동물병원","coordinates":[127.445916680137,36.3347723134544],"sales":{"202602":3344}},{"id":"MA010120220814333147","name":"작은숩","industry":"카페","coordinates":[127.453385402442,36.3377631489502],"sales":{"202602":556}},{"id":"MA010120220814340781","name":"미슐랭푸드","industry":"백반/한정식","coordinates":[127.449421194045,36.3418334058363],"sales":{"202602":5332}},{"id":"MA0101202209A0044017","name":"차밍뷰티","industry":"네일숍","coordinates":[127.448907191082,36.3376719128185],"sales":{"202602":101}},{"id":"MA0101202209A0095284","name":"면당포대전","industry":"국수/칼국수","coordinates":[127.447856272357,36.3369909629074],"sales":{"202602":1625}},{"id":"MA0101202209A0098890","name":"크레유","industry":"애완동물/애완용품 소매업","coordinates":[127.447765832127,36.34065006985],"sales":{"202602":459}},{"id":"MA0101202210A0007868","name":"웅이유부","industry":"김밥/만두/분식","coordinates":[127.451015857495,36.3382767723196],"sales":{"202602":804}},{"id":"MA0101202210A0067125","name":"콜드바","industry":"카페","coordinates":[127.451659654528,36.3340298083699],"sales":{"202602":364}},{"id":"MA0101202210A0096020","name":"그린요양보호사교육원","industry":"기타 기술/직업 훈련학원","coordinates":[127.447298899634,36.3369119445504],"sales":{"202602":597}},{"id":"MA0101202211A0042856","name":"그림헤어","industry":"미용실","coordinates":[127.449458972415,36.338715201306],"sales":{"202602":95}},{"id":"MA0101202211A0047054","name":"이엔터","industry":"전시/컨벤션/행사 대행 서비스업","coordinates":[127.448186636331,36.3343853291314],"sales":{"202602":117}},{"id":"MA0101202211A0063509","name":"미무헤어","industry":"미용실","coordinates":[127.447504596927,36.3358748235243],"sales":{"202602":459}},{"id":"MA0101202211A0070314","name":"영송개발","industry":"부동산 중개/대리업","coordinates":[127.452068969428,36.3431841914637],"sales":{"202602":49}},{"id":"MA0101202212A0029385","name":"원두막","industry":"채소/과일 소매업","coordinates":[127.451558114532,36.333804898302],"sales":{"202602":2397}},{"id":"MA0101202212A0031276","name":"뛰어라공인중개사사무소","industry":"부동산 중개/대리업","coordinates":[127.450736259311,36.3342135293546],"sales":{"202602":119}},{"id":"MA0101202212A0044942","name":"리치합동공인중개사사무소","industry":"부동산 중개/대리업","coordinates":[127.44762469087,36.3373973590903],"sales":{"202602":147}},{"id":"MA0101202212A0070284","name":"중앙공인중개사사무소","industry":"부동산 중개/대리업","coordinates":[127.448754639657,36.336320723772],"sales":{"202602":59}},{"id":"MA0101202212A0082338","name":"술취한숯불꼼장어","industry":"백반/한정식","coordinates":[127.448845075654,36.3423762753371],"sales":{"202602":2728}},{"id":"MA0101202301A0019541","name":"카페리플리","industry":"카페","coordinates":[127.449270085019,36.3387970172204],"sales":{"202602":567}},{"id":"MA0101202301A0033110","name":"라멕","industry":"교육컨설팅업","coordinates":[127.449706711571,36.3391828799873],"sales":{"202602":2001}},{"id":"MA0101202301A0034872","name":"니니헤어맨즈","industry":"미용실","coordinates":[127.447906030004,36.3359544254778],"sales":{"202602":208}},{"id":"MA0101202301A0056376","name":"육회왕자연어공주&포케프렌즈","industry":"소고기 구이/찜","coordinates":[127.446716318674,36.3363193481925],"sales":{"202602":1180}},{"id":"MA0101202301A0063098","name":"에이룸헤어살롱","industry":"미용실","coordinates":[127.449027315439,36.3391944463081],"sales":{"202602":234}},{"id":"MA0101202301A0075045","name":"한중교육국제교류연구원","industry":"기타 교육지원 서비스업","coordinates":[127.446713745912,36.3358687703844],"sales":{"202602":45}},{"id":"MA0101202301A0105337","name":"보노","industry":"광고물 설계/제작업","coordinates":[127.451210964409,36.3412048517975],"sales":{"202602":1117}},{"id":"MA0101202302A0019684","name":"대전상회","industry":"임시/일용 인력 공급업","coordinates":[127.45023632799,36.3383067468219],"sales":{}},{"id":"MA0101202302A0036287","name":"씨유","industry":"편의점","coordinates":[127.448219059176,36.3400445841866],"sales":{"202602":2339}},{"id":"MA0101202302A0047897","name":"한양","industry":"경양식","coordinates":[127.448115186261,36.3374676149404],"sales":{"202602":7951}},{"id":"MA0101202302A0066960","name":"피자는치즈빨","industry":"피자","coordinates":[127.448796745301,36.3417185999173],"sales":{"202602":687}},{"id":"MA0101202302A0068448","name":"홍바오","industry":"중국집","coordinates":[127.445754849094,36.3356921156541],"sales":{"202602":977}},{"id":"MA0101202303A0012113","name":"한일우송타운공인중개사사무소","industry":"부동산 중개/대리업","coordinates":[127.451066802169,36.3393850244125],"sales":{"202602":55}},{"id":"MA0101202303A0013728","name":"케밥하우스","industry":"기타 서양식 음식점","coordinates":[127.449805097756,36.3427331353042],"sales":{"202602":853}},{"id":"MA0101202303A0019830","name":"장호덕손만두대전","industry":"김밥/만두/분식","coordinates":[127.448361139959,36.3356823665397],"sales":{"202602":799}},{"id":"MA0101202303A0040307","name":"용미디어","industry":"광고물 설계/제작업","coordinates":[127.449767790634,36.3362448212901],"sales":{"202602":1233}},{"id":"MA0101202303A0040740","name":"삼첩분식","industry":"김밥/만두/분식","coordinates":[127.449061920739,36.3394015863677],"sales":{"202602":633}},{"id":"MA0101202303A0063965","name":"키다리문화사","industry":"서점","coordinates":[127.45323761414,36.3449370530997],"sales":{"202602":1190}},{"id":"MA0101202303A0066657","name":"무모한초밥대전","industry":"일식 회/초밥","coordinates":[127.448063882188,36.3382338056504],"sales":{"202602":2077}},{"id":"MA0101202303A0067482","name":"또와짬뽕","industry":"중국집","coordinates":[127.446344700241,36.3356088084841],"sales":{"202602":793}},{"id":"MA0101202303A0078689","name":"대주치킨호프","industry":"치킨","coordinates":[127.449616045663,36.3427879171487],"sales":{"202602":839}},{"id":"MA0101202303A0087249","name":"실크로드레스토랑","industry":"경양식","coordinates":[127.451015857495,36.3382767723196],"sales":{"202602":8682}},{"id":"MA0101202303A0097389","name":"유한C&C","industry":"자동차 세차장","coordinates":[127.449229878322,36.3395541547667],"sales":{"202602":1160}},{"id":"MA0101202303A0101915","name":"카페위드","industry":"백반/한정식","coordinates":[127.447673937526,36.3401637800696],"sales":{"202602":2727}},{"id":"MA0101202305A0006103","name":"무릉도원","industry":"미용실","coordinates":[127.447226661529,36.3359659813751],"sales":{"202602":236}},{"id":"MA0101202305A0021113","name":"더나아짐","industry":"헬스장","coordinates":[127.44563479449,36.3341695775048],"sales":{"202602":312}},{"id":"MA0101202305A0022177","name":"마스터드론교육원우송점","industry":"기타 기술/직업 훈련학원","coordinates":[127.447752573143,36.3363875643955],"sales":{"202602":1146}},{"id":"MA0101202305A0038868","name":"이옷장","industry":"여성 의류 소매업","coordinates":[127.449211418712,36.3421586171332],"sales":{"202602":338}},{"id":"MA0101202305A0043946","name":"타코앤유에이치비씨타코앤유HBC","industry":"기타 서양식 음식점","coordinates":[127.447226661529,36.3359659813751],"sales":{"202602":333}},{"id":"MA0101202305A0047151","name":"차이하나마트","industry":"슈퍼마켓","coordinates":[127.452450360067,36.3378658216864],"sales":{"202602":8178}},{"id":"MA0101202305A0050523","name":"재롱이수선","industry":"의류/이불 수선업","coordinates":[127.449390469721,36.3423021317786],"sales":{"202602":41}},{"id":"MA0101202305A0053090","name":"오디디스튜디오","industry":"기념품점","coordinates":[127.452758030749,36.3390632182824],"sales":{"202602":389}},{"id":"MA0101202305A0100217","name":"대복삼겹","industry":"돼지고기 구이/찜","coordinates":[127.44775468775,36.3367570381161],"sales":{"202602":433}},{"id":"MA0101202305A0125695","name":"보드카페","industry":"기타 오락장","coordinates":[127.449652935715,36.3395165168021],"sales":{"202602":774}},{"id":"MA0101202305A0194017","name":"신통치킨","industry":"치킨","coordinates":[127.450387992243,36.3414332496457],"sales":{"202602":636}},{"id":"MA0101202305A0195165","name":"효성태권도","industry":"태권도/무술학원","coordinates":[127.449583820021,36.3429953083429],"sales":{"202602":388}},{"id":"MA0101202306A0014157","name":"돌핀카페","industry":"빵/도넛","coordinates":[127.452719348002,36.3381531788325],"sales":{"202602":898}},{"id":"MA0101202306A0019622","name":"홍조푸드","industry":"돼지고기 구이/찜","coordinates":[127.447157670079,36.3355877460736],"sales":{"202602":1016}},{"id":"MA0101202306A0024219","name":"더예쁜미장원","industry":"미용실","coordinates":[127.450383980239,36.338801836368],"sales":{"202602":473}},{"id":"MA0101202306A0028286","name":"도도PC방","industry":"PC방","coordinates":[127.447687291619,36.3366581613761],"sales":{"202602":1591}},{"id":"MA0101202306A0034037","name":"호언이엔씨","industry":"건물 및 토목 엔지니어링 서비스업","coordinates":[127.450924079327,36.3397460326751],"sales":{}},{"id":"MA0101202306A0045299","name":"세일실업","industry":"임시/일용 인력 공급업","coordinates":[127.448581282772,36.3410525401224],"sales":{}},{"id":"MA0101202306A0089658","name":"알할랄","industry":"슈퍼마켓","coordinates":[127.451015857495,36.3382767723196],"sales":{"202602":7901}},{"id":"MA0101202306A0093955","name":"따뜻한한끼밥심","industry":"백반/한정식","coordinates":[127.45077330612,36.3387102511038],"sales":{"202602":14594}},{"id":"MA0101202306A0098429","name":"솔뫼해장국","industry":"국/탕/찌개류","coordinates":[127.448677396366,36.3403312400458],"sales":{"202602":819}},{"id":"MA0101202307A0046961","name":"컴포즈커피","industry":"카페","coordinates":[127.447933259267,36.3368194511967],"sales":{"202602":681}},{"id":"MA0101202307A0048681","name":"초미당세번째","industry":"일식 회/초밥","coordinates":[127.450148756718,36.3347023780572],"sales":{"202602":5811}},{"id":"MA0101202307A0059972","name":"우리솔루션","industry":"경영 컨설팅업","coordinates":[127.448623460327,36.3406378417287],"sales":{"202602":6316}},{"id":"MA0101202307A0104674","name":"당과노래연습장","industry":"노래방","coordinates":[127.447275901998,36.3367858661608],"sales":{"202602":408}},{"id":"MA0101202308A0014304","name":"나혼자한다클린","industry":"건축물 일반 청소업","coordinates":[127.4476271165,36.3339278267169],"sales":{"202602":304}},{"id":"MA0101202308A0058461","name":"이마트24","industry":"편의점","coordinates":[127.450629708502,36.3350520238238],"sales":{"202602":3508}},{"id":"MA0101202308A0059321","name":"만점스터디카페","industry":"독서실/스터디 카페","coordinates":[127.44775468775,36.3367570381161],"sales":{"202602":217}},{"id":"MA0101202308A0094686","name":"우리헤어클럽","industry":"미용실","coordinates":[127.451016584864,36.338402933984],"sales":{"202602":189}},{"id":"MA0101202309A0021325","name":"천씨씨커피","industry":"카페","coordinates":[127.448373948396,36.3379172316986],"sales":{"202602":991}},{"id":"MA0101202309A0032460","name":"디저트테이블냠냠","industry":"빵/도넛","coordinates":[127.449094385193,36.3353551905665],"sales":{"202602":1103}},{"id":"MA0101202309A0041530","name":"김밥나라","industry":"김밥/만두/분식","coordinates":[127.448752909411,36.3379608680707],"sales":{"202602":307}},{"id":"MA0101202310A0014448","name":"엉클부대찌개","industry":"국/탕/찌개류","coordinates":[127.448091464513,36.3372153749924],"sales":{"202602":1765}},{"id":"MA0101202310A0014548","name":"돈주면돼지","industry":"돼지고기 구이/찜","coordinates":[127.449752769248,36.3413815714898],"sales":{"202602":826}},{"id":"MA0101202310A0062694","name":"딜리시어스프라이","industry":"치킨","coordinates":[127.449928072626,36.3350636790096],"sales":{"202602":343}},{"id":"MA0101202310A0089751","name":"여니식당","industry":"백반/한정식","coordinates":[127.449659980744,36.3407420871173],"sales":{"202602":5365}},{"id":"MA0101202311A0005847","name":"브리딩플랜츠","industry":"꽃집","coordinates":[127.450629708502,36.3350520238238],"sales":{"202602":760}},{"id":"MA0101202311A0023156","name":"크라운호프대전","industry":"생맥주 전문","coordinates":[127.446147235176,36.334185689203],"sales":{"202602":265}},{"id":"MA0101202311A0026970","name":"매드버거","industry":"버거","coordinates":[127.444886615942,36.3338299182631],"sales":{"202602":4499}},{"id":"MA0101202311A0028290","name":"소금한조각","industry":"빵/도넛","coordinates":[127.450383980239,36.338801836368],"sales":{"202602":1145}},{"id":"MA0101202311A0038100","name":"건현수선","industry":"의류/이불 수선업","coordinates":[127.44908509309,36.3376171739856],"sales":{"202602":33}},{"id":"MA0101202311A0046448","name":"에스피소방","industry":"사업시설 유지·관리 서비스업","coordinates":[127.448057812799,36.3410635155986],"sales":{"202602":304}},{"id":"MA0101202311A0061120","name":"고향백반","industry":"백반/한정식","coordinates":[127.44931955604,36.3396529468048],"sales":{"202602":1050}},{"id":"MA0101202311A0061354","name":"니니헤어","industry":"미용실","coordinates":[127.447906030004,36.3359544254778],"sales":{"202602":290}},{"id":"MA0101202311A0094274","name":"크린토피아코인워시365대전","industry":"셀프 빨래방","coordinates":[127.449896679899,36.3354152553817],"sales":{"202602":88}},{"id":"MA0101202406A0003626","name":"네일오뉴","industry":"네일숍","coordinates":[127.4488583982,36.3369331329202],"sales":{"202602":63}},{"id":"MA0101202406A0005499","name":"노랑통닭","industry":"치킨","coordinates":[127.44749088171,36.3354242874346],"sales":{"202602":661}},{"id":"MA0101202406A0025432","name":"디에스휘트니스우송대","industry":"체형/비만 관리","coordinates":[127.448280452635,36.3371515840424],"sales":{"202602":257}},{"id":"MA0101202406A0031313","name":"태일기획","industry":"광고 대행업","coordinates":[127.449227083776,36.3390675311638],"sales":{"202602":1193}},{"id":"MA0101202406A0033983","name":"세븐일레븐","industry":"편의점","coordinates":[127.448280452635,36.3371515840424],"sales":{"202602":7855}},{"id":"MA0101202406A0064490","name":"플러스82대전","industry":"카페","coordinates":[127.44863005084,36.3398447837317],"sales":{"202602":916}},{"id":"MA0101202406A0089221","name":"굿즈야","industry":"기념품점","coordinates":[127.449706711571,36.3391828799873],"sales":{"202602":781}},{"id":"MA0101202406A0093859","name":"면식당","industry":"일식 회/초밥","coordinates":[127.447945790583,36.3370627213916],"sales":{"202602":2233}},{"id":"MA0101202406A0094747","name":"줄라이","industry":"카페","coordinates":[127.446795674831,36.3365623687451],"sales":{"202602":74}},{"id":"MA0101202406A0115505","name":"무카타","industry":"베트남식 전문","coordinates":[127.447036352652,36.3338489320794],"sales":{"202602":2156}},{"id":"MA0101202406A0118343","name":"씨앤씨","industry":"카페","coordinates":[127.446871170927,36.3361295225763],"sales":{"202602":1562}},{"id":"MA0101202406A0128196","name":"블랙골드","industry":"카페","coordinates":[127.450952499806,36.3350147593191],"sales":{"202602":218}},{"id":"MA0101202406A0128468","name":"코아바이크","industry":"기타 운송장비 대여업","coordinates":[127.449327919744,36.33529123056],"sales":{"202602":66}},{"id":"MA0101202406A0131352","name":"우송대_런드리익스프레스샵","industry":"세탁소","coordinates":[127.447129522957,36.334560511896],"sales":{"202602":120}},{"id":"MA0101202406A0152724","name":"동백이,장구,노래교실","industry":"입시·교과학원","coordinates":[127.451162131621,36.3423945856117],"sales":{"202602":343}},{"id":"MA0101202406A0158169","name":"큐웨어","industry":"전자 게임장","coordinates":[127.446844828693,36.3354176929038],"sales":{"202602":1047}},{"id":"MA0101202406A0175133","name":"달그락잡화점","industry":"카페","coordinates":[127.450724239004,36.3340603749374],"sales":{"202602":206}},{"id":"MA0101202406A0217299","name":"한식밥상대전","industry":"백반/한정식","coordinates":[127.448405955603,36.341557855539],"sales":{"202602":3806}},{"id":"MA0101202406A0221597","name":"블랙골드","industry":"독서실/스터디 카페","coordinates":[127.450952499806,36.3350147593191],"sales":{"202602":238}},{"id":"MA0101202406A0226552","name":"구일상회","industry":"일식 회/초밥","coordinates":[127.445780715215,36.3343672918647],"sales":{"202602":2157}},{"id":"MA0101202406A0241643","name":"이백장돈가스","industry":"일식 카레/돈가스/덮밥","coordinates":[127.451620767641,36.3369407497889],"sales":{"202602":1495}},{"id":"MA0101202406A0247904","name":"오브닝","industry":"빵/도넛","coordinates":[127.447504596927,36.3358748235243],"sales":{"202602":759}},{"id":"MA0101202406A0259345","name":"오똑헤어","industry":"미용실","coordinates":[127.449219179255,36.3357512384994],"sales":{"202602":207}},{"id":"MA0101202406A0289267","name":"드림공인중개사사무소","industry":"부동산 중개/대리업","coordinates":[127.450339997162,36.338901131286],"sales":{"202602":75}},{"id":"MA0101202406A0295505","name":"실전공인중개사사무소","industry":"부동산 중개/대리업","coordinates":[127.445674059723,36.3351967707056],"sales":{"202602":40}},{"id":"MA0101202406A0319708","name":"우리할매떡볶이","industry":"김밥/만두/분식","coordinates":[127.445780715215,36.3343672918647],"sales":{"202602":598}},{"id":"MA0101202406A0325148","name":"킴스팝업스토어Kim'sPop-upStore","industry":"백반/한정식","coordinates":[127.444678891476,36.3345155844703],"sales":{"202602":3234}},{"id":"MA0101202406A0334203","name":"보문산식후경","industry":"백반/한정식","coordinates":[127.450693364287,36.3383681063562],"sales":{"202602":2882}},{"id":"MA0101202406A0353684","name":"한신우동","industry":"국수/칼국수","coordinates":[127.445556419475,36.3340977756964],"sales":{"202602":2251}},{"id":"MA0101202406A0373622","name":"지에스25우송대","industry":"편의점","coordinates":[127.447076084749,36.336903766519],"sales":{"202602":5658}},{"id":"MA0101202406A0381445","name":"유플리아","industry":"꽃집","coordinates":[127.448345853115,36.3388455467791],"sales":{"202602":483}},{"id":"MA0101202406A0383612","name":"푸줏간","industry":"백반/한정식","coordinates":[127.449575998674,36.3416345653157],"sales":{"202602":2112}},{"id":"MA0101202406A0385121","name":"내동집","industry":"백반/한정식","coordinates":[127.445826190747,36.3345293337615],"sales":{"202602":3219}},{"id":"MA0101202406A0396399","name":"엘린","industry":"미용실","coordinates":[127.449818102466,36.3430575088919],"sales":{"202602":240}},{"id":"MA0101202406A0408864","name":"대전뼈구이","industry":"백반/한정식","coordinates":[127.44604596764,36.3340058321497],"sales":{"202602":4302}},{"id":"MA0101202406A0414835","name":"마실커피대전","industry":"카페","coordinates":[127.44604596764,36.3340058321497],"sales":{"202602":1073}},{"id":"MA0101202406A0434206","name":"춘리마라탕","industry":"마라탕/훠궈","coordinates":[127.448081152139,36.3373596015954],"sales":{"202602":454}},{"id":"MA0101202406A0435650","name":"더복줌공인중개사사무소","industry":"부동산 중개/대리업","coordinates":[127.446979616837,36.3356154473637],"sales":{"202602":42}},{"id":"MA0101202406A0441744","name":"가마치통닭","industry":"치킨","coordinates":[127.446844828693,36.3354176929038],"sales":{"202602":302}},{"id":"MA0101202406A0444223","name":"채원","industry":"꽃집","coordinates":[127.448415350732,36.3373673598841],"sales":{"202602":217}},{"id":"MA0101202406A0448996","name":"언더","industry":"카페","coordinates":[127.448623460327,36.3406378417287],"sales":{"202602":707}},{"id":"MA0101202406A0452005","name":"미스터프레쉬","industry":"건축물 일반 청소업","coordinates":[127.450454046653,36.3412978246],"sales":{"202602":478}},{"id":"MA0101202406A0469752","name":"건시스템","industry":"사업시설 유지·관리 서비스업","coordinates":[127.449864302379,36.3355956122218],"sales":{"202602":358}},{"id":"MA0101202406A0470942","name":"고릴라게러지","industry":"모터사이클 수리업","coordinates":[127.448628810457,36.3396285065725],"sales":{"202602":594}},{"id":"MA0101202406A0489822","name":"육교회관","industry":"백반/한정식","coordinates":[127.445826190747,36.3345293337615],"sales":{"202602":1873}},{"id":"MA0101202406A0495254","name":"아리네일","industry":"네일숍","coordinates":[127.449805097756,36.3427331353042],"sales":{"202602":30}},{"id":"MA0101202406A0513021","name":"엣지스토리","industry":"예술품 소매업","coordinates":[127.447816564675,36.3358916784965],"sales":{"202602":807}},{"id":"MA0101202409A0001368","name":"미디어연우송어학점","industry":"핸드폰 소매업","coordinates":[127.447148025724,36.3358491228749],"sales":{"202602":287}},{"id":"MA0101202409A0013274","name":"에프유","industry":"백반/한정식","coordinates":[127.451596550416,36.3423929447943],"sales":{"202602":2367}},{"id":"MA0101202409A0022799","name":"공실박스공인중개사사무소","industry":"부동산 중개/대리업","coordinates":[127.446615098465,36.3361485032701],"sales":{"202602":86}},{"id":"MA0101202409A0026351","name":"노모어피자","industry":"피자","coordinates":[127.448396878117,36.3360877611304],"sales":{"202602":1289}},{"id":"MA0101202409A0035931","name":"무마진덮밥","industry":"기타 한식 음식점","coordinates":[127.445415116995,36.3347111014881],"sales":{"202602":592}},{"id":"MA0101202409A0064246","name":"와플대학우송대캠퍼스","industry":"빵/도넛","coordinates":[127.447830281878,36.3363422145],"sales":{"202602":830}},{"id":"MA0101202409A0064803","name":"메가엠지씨커피대전","industry":"카페","coordinates":[127.447945790583,36.3370627213916],"sales":{"202602":435}},{"id":"MA0101202409A0068447","name":"버터컵","industry":"카페","coordinates":[127.450438288935,36.3346922754543],"sales":{"202602":597}},{"id":"MA0101202409A0084007","name":"경문하숙","industry":"그 외 기타 숙박업","coordinates":[127.451596306515,36.3365623489019],"sales":{}},{"id":"MA0101202409A0092380","name":"제이식자재마트","industry":"슈퍼마켓","coordinates":[127.449845711128,36.3401105662887],"sales":{"202602":18512}},{"id":"MA0101202409A0125018","name":"아라치치킨","industry":"치킨","coordinates":[127.449721632029,36.3398406810258],"sales":{"202602":882}},{"id":"MA0101202409A0142355","name":"대복","industry":"백반/한정식","coordinates":[127.451238208803,36.3382038390477],"sales":{"202602":4353}},{"id":"MA0101202409A0148632","name":"숲속주막","industry":"백반/한정식","coordinates":[127.446332277003,36.3353835611416],"sales":{"202602":6866}},{"id":"MA0101202409A0156353","name":"착한디자인","industry":"인테리어 디자인업","coordinates":[127.45158546866,36.3404734863345],"sales":{"202602":976}},{"id":"MA0101202409A0179306","name":"파파스","industry":"백반/한정식","coordinates":[127.444886615942,36.3338299182631],"sales":{"202602":16209}},{"id":"MA0101202409A0209692","name":"에이치투호","industry":"카페","coordinates":[127.448516628127,36.3375472147605],"sales":{"202602":247}},{"id":"MA0101202409A0247876","name":"단지한식제과연구소","industry":"카페","coordinates":[127.449800480995,36.3380560591599],"sales":{"202602":209}},{"id":"MA0101202410A0010346","name":"푸른샘치과의원","industry":"치과의원","coordinates":[127.448845075654,36.3423762753371],"sales":{"202602":4981}},{"id":"MA0101202410A0238370","name":"오픈스퀘어","industry":"기타 교육지원 서비스업","coordinates":[127.445102590473,36.3345951130442],"sales":{"202602":64}},{"id":"MA0101202410A0442715","name":"하이델피아노학원","industry":"음악학원","coordinates":[127.449583820021,36.3429953083429],"sales":{"202602":279}},{"id":"MA0101202410A0443058","name":"푸줏간정육점","industry":"정육점","coordinates":[127.450210433014,36.3396135470927],"sales":{"202602":5520}},{"id":"MA0101202410A0443177","name":"한빛축산","industry":"정육점","coordinates":[127.448361139959,36.3356823665397],"sales":{"202602":1636}},{"id":"MA0101202410A0443293","name":"대주축산","industry":"정육점","coordinates":[127.449225973541,36.3427533371307],"sales":{"202602":2933}},{"id":"MA0101202410A0443300","name":"방도석내과","industry":"내과/소아과 의원","coordinates":[127.449225973541,36.3427533371307],"sales":{"202602":8331}},{"id":"MA0101202410A0443600","name":"해오름한의원","industry":"한의원","coordinates":[127.448041441055,36.3362603173503],"sales":{"202602":927}},{"id":"MA0101202410A0443705","name":"자양한의원","industry":"한의원","coordinates":[127.448845075654,36.3423762753371],"sales":{"202602":1338}},{"id":"MA0101202410A0443881","name":"보람독서실","industry":"독서실/스터디 카페","coordinates":[127.448984295322,36.341402484564],"sales":{"202602":288}},{"id":"MA0101202410A0444559","name":"윤내과의원","industry":"내과/소아과 의원","coordinates":[127.449061920739,36.3394015863677],"sales":{"202602":2481}},{"id":"MA0101202410A0446205","name":"백합정육점","industry":"정육점","coordinates":[127.450889913891,36.3415485096015],"sales":{"202602":3284}},{"id":"MA0101202410A0448280","name":"신진서림","industry":"서점","coordinates":[127.445643931095,36.3357736350388],"sales":{"202602":1635}},{"id":"MA0101202410A0480198","name":"한밭서적","industry":"서점","coordinates":[127.445643931095,36.3357736350388],"sales":{"202602":1588}},{"id":"MA0101202410A0480306","name":"세미뮤직아트스쿨","industry":"입시·교과학원","coordinates":[127.452702964222,36.3391715677868],"sales":{"202602":1067}},{"id":"MA0101202410A0553209","name":"플라워썸","industry":"꽃집","coordinates":[127.445780715215,36.3343672918647],"sales":{"202602":157}},{"id":"MA0101202410A0709303","name":"강남복싱클럽","industry":"태권도/무술학원","coordinates":[127.445826190747,36.3345293337615],"sales":{"202602":422}},{"id":"MA0101202410A0718726","name":"가까운책방","industry":"서점","coordinates":[127.449843682501,36.3339465397097],"sales":{"202602":808}},{"id":"MA0101202411A0005327","name":"제이에스상사","industry":"컴퓨터/소프트웨어 소매업","coordinates":[127.451281282805,36.3340853081541],"sales":{"202602":952}},{"id":"MA0101202411A0008533","name":"동아마이스터고매점","industry":"슈퍼마켓","coordinates":[127.454606176782,36.3446615027482],"sales":{"202602":3677}},{"id":"MA0101202411A0015334","name":"취해도다시한번","industry":"생맥주 전문","coordinates":[127.448619712442,36.3419265346168],"sales":{"202602":1763}},{"id":"MA0101202411A0063095","name":"노사부면관","industry":"중국집","coordinates":[127.446332277003,36.3353835611416],"sales":{"202602":3137}},{"id":"MA0101202411A0063329","name":"24시간무인간식박스대전","industry":"슈퍼마켓","coordinates":[127.44908509309,36.3376171739856],"sales":{"202602":5909}},{"id":"MA0101202411A0074844","name":"픽피그","industry":"돼지고기 구이/찜","coordinates":[127.450387992243,36.3414332496457],"sales":{"202602":524}},{"id":"MA0101202411A0086718","name":"더드림공인중개사사무소","industry":"부동산 중개/대리업","coordinates":[127.448903447492,36.338960606321],"sales":{"202602":106}},{"id":"MA0101202411A0098262","name":"탁구탁탁","industry":"테니스장","coordinates":[127.447687291619,36.3366581613761],"sales":{"202602":270}},{"id":"MA0101202412A0010390","name":"또또누룽지삼계탕","industry":"국/탕/찌개류","coordinates":[127.44847222023,36.3414584777507],"sales":{"202602":1354}},{"id":"MA0101202412A0035179","name":"번쩍피자","industry":"피자","coordinates":[127.448645065804,36.3405206079882],"sales":{"202602":558}},{"id":"MA0101202412A0038452","name":"신화택배","industry":"고용 알선업","coordinates":[127.451880017851,36.3393999758066],"sales":{}},{"id":"MA0101202412A0041074","name":"지인공인중개사사무소","industry":"부동산 중개/대리업","coordinates":[127.448916643441,36.3354369640614],"sales":{"202602":101}},{"id":"MA0101202412A0068410","name":"해인한의원","industry":"한의원","coordinates":[127.450133459146,36.3417225842826],"sales":{"202602":2250}},{"id":"MA0101202501A0011209","name":"대한콩국","industry":"백반/한정식","coordinates":[127.447980340416,36.3372608503118],"sales":{"202602":1892}},{"id":"MA0101202501A0017560","name":"글로벌BIM솔루션즈","industry":"그 외 기타 교육기관","coordinates":[127.449706711571,36.3391828799873],"sales":{"202602":1264}},{"id":"MA0101202501A0020671","name":"금산화랑","industry":"예술품 소매업","coordinates":[127.448623460327,36.3406378417287],"sales":{"202602":297}},{"id":"MA0101202501A0061824","name":"우송공간부동산사무실·식당","industry":"부동산 중개/대리업","coordinates":[127.447165911217,36.3370295949198],"sales":{"202602":39}},{"id":"MA0101202502A0006052","name":"유앤아이스터디카페","industry":"독서실/스터디 카페","coordinates":[127.449652935715,36.3395165168021],"sales":{"202602":205}},{"id":"MA0101202502A0026174","name":"진희교구사","industry":"문구/회화용품 소매업","coordinates":[127.451596550416,36.3423929447943],"sales":{"202602":2225}},{"id":"MA0101202502A0030106","name":"브뤼셀대전","industry":"백반/한정식","coordinates":[127.447388778004,36.3370467843348],"sales":{"202602":18491}},{"id":"MA0101202502A0055019","name":"엑스트라커피","industry":"경영 컨설팅업","coordinates":[127.449061920739,36.3394015863677],"sales":{"202602":8416}},{"id":"MA0101202502A0056067","name":"요아정대전","industry":"카페","coordinates":[127.449227704781,36.3391756697456],"sales":{"202602":163}},{"id":"MA0101202502A0058718","name":"에이앤디케밥할랄","industry":"기타 서양식 음식점","coordinates":[127.450463817398,36.3391259582102],"sales":{"202602":338}},{"id":"MA0101202502A0090372","name":"유왁싱","industry":"피부 관리실","coordinates":[127.45061467795,36.3343761993112],"sales":{"202602":96}},{"id":"MA0101202503A0033426","name":"고복만","industry":"백반/한정식","coordinates":[127.449896381543,36.3411737609255],"sales":{"202602":6720}},{"id":"MA0101202503A0044301","name":"실크로드앤1","industry":"김밥/만두/분식","coordinates":[127.451015857495,36.3382767723196],"sales":{"202602":1731}},{"id":"MA0101202503A0047792","name":"나무곰디자인","industry":"주방/가정용품 소매업","coordinates":[127.448413820209,36.3390435501392],"sales":{"202602":971}},{"id":"MA0101202503A0051032","name":"세탁풍경","industry":"셀프 빨래방","coordinates":[127.449341127937,36.3356516508401],"sales":{"202602":531}},{"id":"MA0101202503A0077613","name":"엠에이치디자인","industry":"시각 디자인업","coordinates":[127.449890416817,36.338199908547],"sales":{"202602":301}},{"id":"MA0101202503A0079345","name":"만리향","industry":"중국집","coordinates":[127.44606865417,36.3340778414943],"sales":{"202602":992}},{"id":"MA0101202504A0012361","name":"대길주택관리","industry":"건축물 일반 청소업","coordinates":[127.449575998674,36.3416345653157],"sales":{"202602":429}},{"id":"MA0101202504A0038114","name":"종종테리어","industry":"사업시설 유지·관리 서비스업","coordinates":[127.446593826663,36.3343732680514],"sales":{"202602":269}},{"id":"MA0101202504A0056303","name":"투다리동아점","industry":"요리 주점","coordinates":[127.449896381543,36.3411737609255],"sales":{"202602":199}},{"id":"MA0101202504A0058882","name":"무궁화슈퍼","industry":"슈퍼마켓","coordinates":[127.450773593774,36.3329607551938],"sales":{"202602":8759}},{"id":"MA0101202505A0000776","name":"4스타카페","industry":"카페","coordinates":[127.446953840126,36.335002744793],"sales":{"202602":391}},{"id":"MA0101202505A0018019","name":"솜사우즈","industry":"베트남식 전문","coordinates":[127.450792571045,36.3381874973188],"sales":{"202602":1971}},{"id":"MA0101202505A0021124","name":"우이네일스튜디오","industry":"네일숍","coordinates":[127.448550611265,36.3376462164218],"sales":{"202602":31}},{"id":"MA0101202505A0021579","name":"엠제이코인노래연습장","industry":"노래방","coordinates":[127.446259126995,36.3342753889811],"sales":{"202602":544}},{"id":"MA0101202505A0023119","name":"써브웨이","industry":"토스트/샌드위치/샐러드","coordinates":[127.447687291619,36.3366581613761],"sales":{"202602":959}},{"id":"MA0101202505A0041240","name":"789다락","industry":"중국집","coordinates":[127.446623921519,36.3357429416051],"sales":{"202602":3994}},{"id":"MA0101202505A0084927","name":"동영전자","industry":"전기용품/조명장치 소매업","coordinates":[127.450463817398,36.3391259582102],"sales":{"202602":790}},{"id":"MA0106202201A0894270","name":"GS25뉴우송","industry":"편의점","coordinates":[127.449227083776,36.3390675311638],"sales":{"202602":3653}},{"id":"MA0106202201A0908504","name":"우송대학교","industry":"백반/한정식","coordinates":[127.453592797512,36.3370324107262],"sales":{"202602":1234}},{"id":"MA0106202201A0908505","name":"우송대학교","industry":"백반/한정식","coordinates":[127.453592797512,36.3370324107262],"sales":{"202602":3111}},{"id":"MA0106202201A0908507","name":"우송대학교스타리코","industry":"경양식","coordinates":[127.445643931095,36.3357736350388],"sales":{"202602":4610}},{"id":"MA0106202201A1168635","name":"투썸플레이스","industry":"카페","coordinates":[127.445643931095,36.3357736350388],"sales":{"202602":190}},{"id":"MA0106202201A1711157","name":"씨유우송대유학생기숙사점","industry":"슈퍼마켓","coordinates":[127.445643931095,36.3357736350388],"sales":{"202602":5620}},{"id":"MA0106202201A1711166","name":"씨유우송대학생회관점","industry":"슈퍼마켓","coordinates":[127.445643931095,36.3357736350388],"sales":{"202602":11897}},{"id":"MA0106202201A1711190","name":"씨유우송대동캠퍼스점","industry":"슈퍼마켓","coordinates":[127.453592797512,36.3370324107262],"sales":{"202602":7242}},{"id":"MA0106202301A2422871","name":"우송대학교우송어학센타","industry":"백반/한정식","coordinates":[127.453503274187,36.3369606565076],"sales":{"202602":2010}},{"id":"MA0106202305A0471373","name":"리빌딩트레이닝센터","industry":"헬스장","coordinates":[127.44563479449,36.3341695775048],"sales":{"202602":590}},{"id":"MA0106202405A0901885","name":"솔파크","industry":"백반/한정식","coordinates":[127.445754849094,36.3356921156541],"sales":{"202602":15639}},{"id":"MA0106202506A1374049","name":"투다리 동아점","industry":"요리 주점","coordinates":[127.449896381543,36.3411737609255],"sales":{"202602":531}},{"id":"MA0106202506A1748214","name":"오디디네일","industry":"미용실","coordinates":[127.448244198211,36.3366560739546],"sales":{"202602":537}},{"id":"MA0106202506A2425114","name":"무청감자탕","industry":"국/탕/찌개류","coordinates":[127.446713745912,36.3358687703844],"sales":{"202602":1152}},{"id":"MA0106202507A0450268","name":"리빌딩트레이닝센터","industry":"헬스장","coordinates":[127.44563479449,36.3341695775048],"sales":{"202602":513}},{"id":"MA0106202507A0763867","name":"밥풀릭스 자양점","industry":"백반/한정식","coordinates":[127.448632816888,36.3383848709426],"sales":{"202602":17539}},{"id":"MA0106202507A1174934","name":"꼴통고기","industry":"돼지고기 구이/찜","coordinates":[127.449805097756,36.3427331353042],"sales":{"202602":541}},{"id":"MA0106202507A1633064","name":"하이필드당구장","industry":"당구장","coordinates":[127.44776020654,36.3377212743029],"sales":{"202602":279}},{"id":"MA0106202507A1658601","name":"아시안빌리어드클럽2호점","industry":"당구장","coordinates":[127.449569628031,36.3405261452682],"sales":{"202602":226}},{"id":"MA0106202507A2321029","name":"모테키","industry":"일식 회/초밥","coordinates":[127.446316152528,36.3345094815728],"sales":{"202602":5470}},{"id":"MA0106202507A2338241","name":"솔펫애견미용놀이터","industry":"애완동물/애완용품 소매업","coordinates":[127.445916680137,36.3347723134544],"sales":{"202602":982}},{"id":"MA0106202507A2342258","name":"유유요거트","industry":"백반/한정식","coordinates":[127.446680716876,36.3339854380304],"sales":{"202602":2934}},{"id":"MA0106202507A2436606","name":"다둥이네수선세탁","industry":"그 외 기타 개인/가정용품 수리업","coordinates":[127.44846036859,36.3374482966799],"sales":{"202602":1044}},{"id":"MA0106202508A1312537","name":"기통찬족발","industry":"족발/보쌈","coordinates":[127.449156241625,36.3422489419092],"sales":{"202602":1709}},{"id":"MA0106202508A1729774","name":"청량마라","industry":"마라탕/훠궈","coordinates":[127.445043723165,36.3340366036534],"sales":{"202602":1580}},{"id":"MA0106202508A2457485","name":"행운김밥","industry":"김밥/만두/분식","coordinates":[127.450438288935,36.3346922754543],"sales":{"202602":423}},{"id":"MA0106202509A0345644","name":"과유불급떡볶이","industry":"김밥/만두/분식","coordinates":[127.448652278089,36.3359516264224],"sales":{"202602":218}},{"id":"MA0106202509A0693989","name":"해뜨는집","industry":"백반/한정식","coordinates":[127.448457062471,36.3368715573261],"sales":{"202602":3572}},{"id":"MA0106202509A1581625","name":"씨유대전","industry":"편의점","coordinates":[127.451553054402,36.3367878059729],"sales":{"202602":4646}},{"id":"MA0106202509A2056094","name":"하노이당구클럽","industry":"당구장","coordinates":[127.449027315439,36.3391944463081],"sales":{"202602":159}},{"id":"MA0106202509A2110046","name":"메리캐리","industry":"빵/도넛","coordinates":[127.449652935715,36.3395165168021],"sales":{"202602":514}},{"id":"MA0106202509A2115215","name":"쉐프의생안심탕수육대전본사","industry":"중국집","coordinates":[127.446301570613,36.3339057486771],"sales":{"202602":1538}},{"id":"MA0106202509A2253858","name":"원조강릉칼국수","industry":"국수/칼국수","coordinates":[127.449226761332,36.340950986387],"sales":{"202602":1753}},{"id":"MA0106202509A2335924","name":"올인베이커리대전","industry":"그 외 기타 상품 전문 소매업","coordinates":[127.44634668708,36.3340047094645],"sales":{"202602":1288}},{"id":"MA0106202509A2383714","name":"네일바이유","industry":"미용실","coordinates":[127.451196338164,36.3348065688092],"sales":{"202602":281}},{"id":"MA0106202509A2384028","name":"박가네소머리곰탕","industry":"국/탕/찌개류","coordinates":[127.450918462877,36.3349067467577],"sales":{"202602":808}},{"id":"MA0106202509A2465098","name":"포차천국","industry":"백반/한정식","coordinates":[127.448653388114,36.3380874061483],"sales":{"202602":1757}},{"id":"MA0106202510A1113265","name":"매일네일","industry":"미용실","coordinates":[127.448591646319,36.3409173251149],"sales":{"202602":106}},{"id":"MA0106202510A2314974","name":"배달통2","industry":"중국집","coordinates":[127.447623349608,36.3410561319541],"sales":{"202602":1900}},{"id":"MA0106202510A2362353","name":"순수건강원","industry":"건강보조식품 소매업","coordinates":[127.45323761414,36.3449370530997],"sales":{"202602":968}},{"id":"MA0106202511A2184231","name":"행복한닭가정","industry":"백반/한정식","coordinates":[127.44873311751,36.3422775666585],"sales":{"202602":3570}},{"id":"MA0106202511A2205384","name":"맛있는덮밥","industry":"기타 한식 음식점","coordinates":[127.446245023777,36.3357083099405],"sales":{"202602":640}},{"id":"MA0106202511A2358543","name":"에그박스대전","industry":"토스트/샌드위치/샐러드","coordinates":[127.447226661529,36.3359659813751],"sales":{"202602":1104}},{"id":"MA0106202512A0016471","name":"동해마루","industry":"백반/한정식","coordinates":[127.449818102466,36.3430575088919],"sales":{"202602":6958}},{"id":"MA0106202512A0136469","name":"씨유우송정보대점","industry":"편의점","coordinates":[127.452288756235,36.3388126664],"sales":{"202602":5117}},{"id":"MA0106202512A0403340","name":"제육당X한끼다이닝","industry":"돼지고기 구이/찜","coordinates":[127.448984295322,36.341402484564],"sales":{"202602":1010}},{"id":"MA0106202512A0875789","name":"육회왕자연어공주대전","industry":"소고기 구이/찜","coordinates":[127.448492306161,36.3391333730604],"sales":{"202602":2445}},{"id":"MA0106202512A0876989","name":"우송대학교산학협력단","industry":"입시·교과학원","coordinates":[127.445754849094,36.3356921156541],"sales":{"202602":929}},{"id":"MA0106202512A2129977","name":"광냐오박종남","industry":"백반/한정식","coordinates":[127.446713745912,36.3358687703844],"sales":{"202602":1540}},{"id":"MA0106202512A2204000","name":"오구피자","industry":"피자","coordinates":[127.447148025724,36.3358491228749],"sales":{"202602":1845}},{"id":"MA0106202512A2220280","name":"24시무인마켓","industry":"그 외 기타 상품 전문 소매업","coordinates":[127.449413797472,36.3386072302687],"sales":{"202602":728}},{"id":"MA0106202601A0433194","name":"피자런 동구점","industry":"피자","coordinates":[127.446167301043,36.3337981089674],"sales":{"202602":1033}},{"id":"MA0106202601A0701829","name":"캠퍼스핏","industry":"기타 의류 소매업","coordinates":[127.446713745912,36.3358687703844],"sales":{"202602":960}},{"id":"MA0106202601A0761553","name":"월광","industry":"미용실","coordinates":[127.444247637286,36.3350669050726],"sales":{"202602":295}},{"id":"MA0106202601A1000695","name":"캠토(캠퍼스토스트)","industry":"토스트/샌드위치/샐러드","coordinates":[127.445411833654,36.3341343616298],"sales":{"202602":485}},{"id":"MA0106202601A1063465","name":"베이커리킥","industry":"빵/도넛","coordinates":[127.450148756718,36.3347023780572],"sales":{"202602":393}},{"id":"MA0106202601A2067855","name":"도너킹(Donerking)","industry":"백반/한정식","coordinates":[127.448780689485,36.3369784834796],"sales":{"202602":2908}},{"id":"MA0106202601A2275449","name":"제로스토어 우송대점","industry":"그 외 기타 상품 전문 소매업","coordinates":[127.445780715215,36.3343672918647],"sales":{"202602":1634}},{"id":"MA0106202602A2220898","name":"우송편의매점","industry":"그 외 기타 상품 전문 소매업","coordinates":[127.446844828693,36.3354176929038],"sales":{"202602":786}}]