[{"id":"MA010120220800453264","name":"고기한판승","industry":"돼지고기 구이/찜","coordinates":[127.401448844267,36.3100123662475],"sales":{"202602":832}},{"id":"MA010120220800543502","name":"이태리마카롱","industry":"카페","coordinates":[127.402351610987,36.3101805555669],"sales":{"202602":671}},{"id":"MA010120220800642460","name":"천근떡집","industry":"떡/한과","coordinates":[127.402590592107,36.3090172283231],"sales":{"202602":970}},{"id":"MA010120220800652263","name":"하루헤어","industry":"미용실","coordinates":[127.403103185755,36.3090966072745],"sales":{"202602":422}},{"id":"MA010120220800684632","name":"잘헤어염색","industry":"미용실","coordinates":[127.3975021587,36.3068263626771],"sales":{"202602":97}},{"id":"MA010120220800776492","name":"대전정육점","industry":"정육점","coordinates":[127.402992492225,36.3092231457257],"sales":{"202602":6077}},{"id":"MA010120220800846384","name":"이야기","industry":"실/섬유제품 소매업","coordinates":[127.401924756191,36.30945203533],"sales":{"202602":186}},{"id":"MA010120220801077187","name":"문화농산고추.잡곡","industry":"정육점","coordinates":[127.402267976148,36.3090723851447],"sales":{"202602":3519}},{"id":"MA010120220801146246","name":"진포슬린","industry":"기념품점","coordinates":[127.4039025096,36.3064804856391],"sales":{"202602":704}},{"id":"MA010120220801150591","name":"전","industry":"요리 주점","coordinates":[127.402259896973,36.3096671914101],"sales":{"202602":729}},{"id":"MA010120220801310296","name":"티샵","industry":"핸드폰 소매업","coordinates":[127.3975021587,36.3068263626771],"sales":{"202602":106}},{"id":"MA010120220801743503","name":"문화탑독서실","industry":"독서실/스터디 카페","coordinates":[127.397655837894,36.3063932847317],"sales":{"202602":405}},{"id":"MA010120220802793869","name":"선우시스템","industry":"가전제품 수리업","coordinates":[127.401940112694,36.312443901958],"sales":{"202602":315}},{"id":"MA010120220802837280","name":"문화장패","industry":"백반/한정식","coordinates":[127.401928456346,36.3101729671853],"sales":{"202602":726}},{"id":"MA010120220802924514","name":"청명학원","industry":"입시·교과학원","coordinates":[127.407240589308,36.3082084400175],"sales":{"202602":864}},{"id":"MA010120220802930631","name":"대전넘버원방충망","industry":"기타 건설/건축자재 소매업","coordinates":[127.407052198804,36.3083803058884],"sales":{"202602":45}},{"id":"MA010120220803004889","name":"에이치엠","industry":"포장/충전업","coordinates":[127.397328311105,36.3120627997296],"sales":{"202602":28}},{"id":"MA010120220803010633","name":"공때리네당구장","industry":"당구장","coordinates":[127.403327959815,36.3095013803386],"sales":{"202602":234}},{"id":"MA010120220803043268","name":"우리메디칼","industry":"포장/충전업","coordinates":[127.397328311105,36.3120627997296],"sales":{"202602":34}},{"id":"MA010120220803070096","name":"채담우렁쌈밥갈비","industry":"백반/한정식","coordinates":[127.397658079902,36.3068348559601],"sales":{"202602":248}},{"id":"MA010120220803077775","name":"아이스박스아이스크림할인점","industry":"슈퍼마켓","coordinates":[127.40026523445,36.3093584732797],"sales":{"202602":4344}},{"id":"MA010120220803215397","name":"다온카페","industry":"카페","coordinates":[127.398051013287,36.3118531240956],"sales":{"202602":389}},{"id":"MA010120220803264213","name":"황가축산","industry":"정육점","coordinates":[127.40026523445,36.3093584732797],"sales":{"202602":2173}},{"id":"MA010120220803293766","name":"제이앤제이인테리어","industry":"인테리어 디자인업","coordinates":[127.398406484916,36.3073099901332],"sales":{"202602":1566}},{"id":"MA010120220803440585","name":"다옴티엔알","industry":"침구류/커튼 소매업","coordinates":[127.400048953883,36.312792693938],"sales":{"202602":280}},{"id":"MA010120220803671621","name":"교촌치킨문화","industry":"치킨","coordinates":[127.402583951533,36.3098913956747],"sales":{"202602":1609}},{"id":"MA010120220803702538","name":"미스터컵","industry":"카페","coordinates":[127.40325220048,36.3099251906671],"sales":{"202602":415}},{"id":"MA010120220803820496","name":"이디야커피대전천근","industry":"카페","coordinates":[127.402473487624,36.3100629918768],"sales":{"202602":1203}},{"id":"MA010120220803861542","name":"뉴문화탁구장","industry":"탁구장","coordinates":[127.399943904042,36.3096659500639],"sales":{"202602":146}},{"id":"MA010120220804084441","name":"보보스헤어뷰티","industry":"미용실","coordinates":[127.40026523445,36.3093584732797],"sales":{"202602":229}},{"id":"MA010120220804423661","name":"때때로내마음대로건축인테리어","industry":"인테리어 디자인업","coordinates":[127.403360568455,36.3071852363271],"sales":{"202602":1852}},{"id":"MA010120220804573995","name":"디마인드디자인","industry":"시각 디자인업","coordinates":[127.407174908923,36.3084249470352],"sales":{"202602":922}},{"id":"MA010120220804869099","name":"주선생식당","industry":"요리 주점","coordinates":[127.398144904826,36.3062294444199],"sales":{"202602":277}},{"id":"MA010120220804953747","name":"컴퓨터랜드","industry":"컴퓨터/노트북/프린터 수리업","coordinates":[127.399279503454,36.3125699713714],"sales":{"202602":650}},{"id":"MA010120220805069006","name":"신화열쇠","industry":"철물/공구 소매업","coordinates":[127.400765382709,36.3113574180005],"sales":{"202602":1252}},{"id":"MA010120220805082905","name":"마논헤어","industry":"미용실","coordinates":[127.40026523445,36.3093584732797],"sales":{"202602":116}},{"id":"MA010120220805088322","name":"원아카데미학원","industry":"입시·교과학원","coordinates":[127.39936493032,36.3074870284373],"sales":{"202602":781}},{"id":"MA010120220805252286","name":"산성김","industry":"반찬/식료품 소매업","coordinates":[127.401420986038,36.3089220314635],"sales":{"202602":494}},{"id":"MA010120220805292598","name":"윤진스킨앤바디","industry":"피부 관리실","coordinates":[127.402419482687,36.3103875985833],"sales":{"202602":582}},{"id":"MA010120220805424230","name":"장원해물칼국수","industry":"국수/칼국수","coordinates":[127.403324850212,36.3088975999516],"sales":{"202602":1256}},{"id":"MA010120220805427734","name":"고덕갈비","industry":"소고기 구이/찜","coordinates":[127.404101292473,36.3061644006101],"sales":{"202602":1581}},{"id":"MA010120220805507273","name":"제이청과","industry":"채소/과일 소매업","coordinates":[127.398406484916,36.3073099901332],"sales":{"202602":335}},{"id":"MA010120220805511523","name":"땡스독","industry":"애완동물/애완용품 소매업","coordinates":[127.398406484916,36.3073099901332],"sales":{"202602":464}},{"id":"MA010120220805525939","name":"유회공방","industry":"주방/가정용품 소매업","coordinates":[127.397878790549,36.3064466138026],"sales":{"202602":830}},{"id":"MA010120220805682212","name":"롤로토바코","industry":"액세서리/잡화 소매업","coordinates":[127.401523367234,36.3115170869728],"sales":{"202602":575}},{"id":"MA010120220805691387","name":"남원집","industry":"백반/한정식","coordinates":[127.404156430694,36.3082189061958],"sales":{"202602":1290}},{"id":"MA010120220805738331","name":"귀뚜라미경동보일러온수기에어컨","industry":"그 외 기타 개인/가정용품 수리업","coordinates":[127.398900507924,36.3124901304067],"sales":{"202602":427}},{"id":"MA010120220805739001","name":"라임","industry":"유아용 의류 소매업","coordinates":[127.402139084981,36.3099920227887],"sales":{"202602":594}},{"id":"MA010120220805739017","name":"순아미용실","industry":"미용실","coordinates":[127.396500099191,36.3112274518936],"sales":{"202602":214}},{"id":"MA010120220805739644","name":"속옷나라","industry":"기타 의류 소매업","coordinates":[127.40026523445,36.3093584732797],"sales":{"202602":397}},{"id":"MA010120220805739688","name":"천금당","industry":"시계/귀금속 소매업","coordinates":[127.403327959815,36.3095013803386],"sales":{"202602":874}},{"id":"MA010120220805739808","name":"현대자동차","industry":"자동차 정비소","coordinates":[127.402014956129,36.311839859682],"sales":{"202602":323}},{"id":"MA010120220805739933","name":"가족노래방","industry":"노래방","coordinates":[127.402259896973,36.3096671914101],"sales":{"202602":1343}},{"id":"MA010120220805740468","name":"슈가트리","industry":"기타 의류 소매업","coordinates":[127.398941652712,36.3074523944232],"sales":{"202602":1033}},{"id":"MA010120220805741044","name":"머리나라미용실","industry":"미용실","coordinates":[127.401376353775,36.3110760023793],"sales":{"202602":120}},{"id":"MA010120220805741309","name":"황가네호떡","industry":"빵/도넛","coordinates":[127.398406484916,36.3073099901332],"sales":{"202602":1040}},{"id":"MA010120220805741391","name":"아이원안경콘택트by안경매니져","industry":"안경렌즈 소매업","coordinates":[127.401376353775,36.3110760023793],"sales":{"202602":1698}},{"id":"MA010120220805741658","name":"신용식당","industry":"백반/한정식","coordinates":[127.404942764067,36.3095590041158],"sales":{"202602":626}},{"id":"MA010120220805741819","name":"천근식당","industry":"백반/한정식","coordinates":[127.402426171395,36.3095224429498],"sales":{"202602":1473}},{"id":"MA010120220805741823","name":"명랑꽃집","industry":"꽃집","coordinates":[127.402259896973,36.3096671914101],"sales":{"202602":497}},{"id":"MA010120220805741927","name":"천근미용실","industry":"미용실","coordinates":[127.403327959815,36.3095013803386],"sales":{"202602":286}},{"id":"MA010120220805742647","name":"광역공인중개사","industry":"부동산 중개/대리업","coordinates":[127.398252441526,36.3076709757193],"sales":{"202602":215}},{"id":"MA010120220805742946","name":"조이헤어샵","industry":"미용실","coordinates":[127.399668446991,36.3080537580213],"sales":{"202602":145}},{"id":"MA010120220805743196","name":"동성이용원","industry":"미용실","coordinates":[127.402783397178,36.3097014759959],"sales":{"202602":80}},{"id":"MA010120220805743946","name":"조명숙헤어샵","industry":"미용실","coordinates":[127.402408436583,36.306070980734],"sales":{"202602":81}},{"id":"MA010120220805744598","name":"해든마켓","industry":"슈퍼마켓","coordinates":[127.403558948027,36.3089508807741],"sales":{"202602":4687}},{"id":"MA010120220805745030","name":"샤론헤어샵","industry":"미용실","coordinates":[127.399523197576,36.3079551136343],"sales":{"202602":110}},{"id":"MA010120220805746618","name":"보떼","industry":"화장품 소매업","coordinates":[127.403226637196,36.309285438839],"sales":{"202602":884}},{"id":"MA010120220805748210","name":"미기세탁소","industry":"세탁소","coordinates":[127.400832162079,36.3091763376959],"sales":{"202602":126}},{"id":"MA010120220805749827","name":"이즘포토스튜디오","industry":"사진촬영업","coordinates":[127.402444596286,36.3087744011514],"sales":{"202602":96}},{"id":"MA010120220805750404","name":"효수학전문개인과외교실","industry":"입시·교과학원","coordinates":[127.401334733606,36.3073001958879],"sales":{"202602":1121}},{"id":"MA010120220805750837","name":"행운광고기획","industry":"명함/간판/광고물 제작","coordinates":[127.397757415981,36.3066633011212],"sales":{"202602":788}},{"id":"MA010120220805750897","name":"쁘띠마리","industry":"실/섬유제품 소매업","coordinates":[127.398406484916,36.3073099901332],"sales":{"202602":138}},{"id":"MA010120220805751174","name":"박해선미용실","industry":"미용실","coordinates":[127.402626635793,36.3095307797818],"sales":{"202602":171}},{"id":"MA010120220805751829","name":"문화카클리닉","industry":"자동차 정비소","coordinates":[127.401117187161,36.3061293908713],"sales":{"202602":2274}},{"id":"MA010120220805752160","name":"문화건강원","industry":"건강보조식품 소매업","coordinates":[127.40387251965,36.3093012822115],"sales":{"202602":596}},{"id":"MA010120220805752354","name":"동화나라","industry":"문구/회화용품 소매업","coordinates":[127.401334733606,36.3073001958879],"sales":{"202602":2383}},{"id":"MA010120220805752656","name":"좋은건강원","industry":"건강보조식품 소매업","coordinates":[127.403579637558,36.3086444095729],"sales":{"202602":1427}},{"id":"MA010120220805752937","name":"한사랑안경","industry":"안경렌즈 소매업","coordinates":[127.398406484916,36.3073099901332],"sales":{"202602":1814}},{"id":"MA010120220805752965","name":"충대에너지","industry":"가정용 연료 소매업","coordinates":[127.404563963756,36.3095152275929],"sales":{"202602":4330}},{"id":"MA010120220805753635","name":"우리장식","industry":"벽지/장판/마루 소매업","coordinates":[127.401817759403,36.3102995045474],"sales":{"202602":85}},{"id":"MA010120220805753981","name":"준헤어","industry":"미용실","coordinates":[127.402105653132,36.3121549676596],"sales":{"202602":353}},{"id":"MA010120220805754094","name":"복권천하","industry":"복권 발행/판매업","coordinates":[127.402783397178,36.3097014759959],"sales":{"202602":300}},{"id":"MA010120220805754134","name":"밀밭칼국수","industry":"국수/칼국수","coordinates":[127.397076555312,36.3063321274565],"sales":{"202602":1138}},{"id":"MA010120220805755557","name":"천냥DC마트","industry":"그 외 기타 종합 소매업","coordinates":[127.402748464668,36.3094042041596],"sales":{"202602":1910}},{"id":"MA010120220805756458","name":"승현공인중개사","industry":"부동산 중개/대리업","coordinates":[127.403438188938,36.3092847251111],"sales":{"202602":580}},{"id":"MA010120220805757192","name":"동인냉동산업","industry":"가전제품 소매업","coordinates":[127.405165442279,36.3074044283382],"sales":{"202602":6035}},{"id":"MA010120220805757915","name":"세분미용실","industry":"미용실","coordinates":[127.398252441526,36.3076709757193],"sales":{"202602":162}},{"id":"MA010120220805758402","name":"계룡인테리어","industry":"인테리어 디자인업","coordinates":[127.404155574553,36.3102105177404],"sales":{"202602":1690}},{"id":"MA010120220805759059","name":"태광상회","industry":"슈퍼마켓","coordinates":[127.402393858968,36.3119016674923],"sales":{"202602":2619}},{"id":"MA010120220805759063","name":"새한문구","industry":"문구/회화용품 소매업","coordinates":[127.401566699836,36.3069389446397],"sales":{"202602":4215}},{"id":"MA010120220805759071","name":"한밭부동산중개인사무소","industry":"부동산 중개/대리업","coordinates":[127.403368830205,36.3087893099123],"sales":{"202602":251}},{"id":"MA010120220805759088","name":"옥천문구","industry":"문구/회화용품 소매업","coordinates":[127.40188976996,36.3069739062687],"sales":{"202602":2090}},{"id":"MA010120220805759096","name":"그린이용원","industry":"미용실","coordinates":[127.398406484916,36.3073099901332],"sales":{"202602":197}},{"id":"MA010120220805759174","name":"스타공인중개사사무소","industry":"부동산 중개/대리업","coordinates":[127.401435307694,36.3095437978999],"sales":{"202602":741}},{"id":"MA010120220805759214","name":"대문이용원","industry":"미용실","coordinates":[127.401413734107,36.3075072022299],"sales":{"202602":162}},{"id":"MA010120220805759228","name":"로삐아노과자점","industry":"빵/도넛","coordinates":[127.402992492225,36.3092231457257],"sales":{"202602":1401}},{"id":"MA010120220805759248","name":"대신약국","industry":"약국","coordinates":[127.403438188938,36.3092847251111],"sales":{"202602":9691}},{"id":"MA010120220805759579","name":"나하나미용실","industry":"미용실","coordinates":[127.397325478293,36.3071153278977],"sales":{"202602":416}},{"id":"MA010120220805759602","name":"오미용실","industry":"미용실","coordinates":[127.397325478293,36.3071153278977],"sales":{"202602":138}},{"id":"MA010120220805759948","name":"약국","industry":"약국","coordinates":[127.398049234175,36.3071219321504],"sales":{"202602":6960}},{"id":"MA010120220805759949","name":"금광당","industry":"시계/귀금속 소매업","coordinates":[127.398406484916,36.3073099901332],"sales":{"202602":2618}},{"id":"MA010120220805759953","name":"김정문알로에","industry":"건강보조식품 소매업","coordinates":[127.403281798231,36.309186122929],"sales":{"202602":1851}},{"id":"MA010120220805760970","name":"제생약국","industry":"약국","coordinates":[127.400832162079,36.3091763376959],"sales":{"202602":6325}},{"id":"MA010120220805760987","name":"지엔피，태인공인중개사사무소","industry":"부동산 중개/대리업","coordinates":[127.397173607109,36.3057099901186],"sales":{"202602":262}},{"id":"MA010120220805761443","name":"옻벗은닭한마리","industry":"닭/오리고기 구이/찜","coordinates":[127.401545957994,36.3094082492296],"sales":{"202602":995}},{"id":"MA010120220805761450","name":"프리스타일","industry":"미용실","coordinates":[127.398414730816,36.3067422186837],"sales":{"202602":336}},{"id":"MA010120220805762393","name":"세아제빙기","industry":"중고 상품 소매업","coordinates":[127.400100806055,36.3120445409752],"sales":{"202602":536}},{"id":"MA010120220805762495","name":"태울","industry":"백반/한정식","coordinates":[127.397758880532,36.3069516741555],"sales":{"202602":619}},{"id":"MA010120220805762999","name":"천근돼지촌","industry":"돼지고기 구이/찜","coordinates":[127.402473487624,36.3100629918768],"sales":{"202602":4052}},{"id":"MA010120220805763053","name":"담인테리어","industry":"인테리어 디자인업","coordinates":[127.402666526029,36.3107922978386],"sales":{"202602":1303}},{"id":"MA010120220805763167","name":"스마일카센타","industry":"자동차 정비소","coordinates":[127.404563963756,36.3095152275929],"sales":{"202602":420}},{"id":"MA010120220805763601","name":"골든벨","industry":"시계/귀금속 소매업","coordinates":[127.398406484916,36.3073099901332],"sales":{"202602":729}},{"id":"MA010120220805763877","name":"풍년산채골","industry":"백반/한정식","coordinates":[127.397076555312,36.3063321274565],"sales":{"202602":441}},{"id":"MA010120220805764099","name":"내담","industry":"국수/칼국수","coordinates":[127.398144904826,36.3062294444199],"sales":{"202602":919}},{"id":"MA010120220805766616","name":"업소명없음","industry":"기타 건설/건축자재 소매업","coordinates":[127.400316742068,36.3128999390981],"sales":{"202602":149}},{"id":"MA010120220805767590","name":"유희미용실","industry":"미용실","coordinates":[127.401699157465,36.308885049883],"sales":{"202602":117}},{"id":"MA010120220805769053","name":"태양에너지","industry":"그 외 기타 개인/가정용품 수리업","coordinates":[127.402060697842,36.3120740126619],"sales":{"202602":303}},{"id":"MA010120220805769468","name":"신신이용원","industry":"미용실","coordinates":[127.398900507924,36.3124901304067],"sales":{"202602":255}},{"id":"MA010120220805769743","name":"진진크리닝","industry":"세탁소","coordinates":[127.402408436583,36.306070980734],"sales":{"202602":320}},{"id":"MA010120220805770439","name":"영광이용원","industry":"미용실","coordinates":[127.40026523445,36.3093584732797],"sales":{"202602":78}},{"id":"MA010120220805770444","name":"문화푸른약국","industry":"약국","coordinates":[127.404184326659,36.309309240233],"sales":{"202602":8188}},{"id":"MA010120220805770465","name":"반가와요","industry":"백반/한정식","coordinates":[127.402259896973,36.3096671914101],"sales":{"202602":791}},{"id":"MA010120220805770475","name":"박가네세탁소","industry":"세탁소","coordinates":[127.40026523445,36.3093584732797],"sales":{"202602":125}},{"id":"MA010120220805770695","name":"미모발헤어","industry":"미용실","coordinates":[127.398406484916,36.3073099901332],"sales":{"202602":378}},{"id":"MA010120220805771536","name":"제이엠정보통신","industry":"핸드폰 소매업","coordinates":[127.401699157465,36.308885049883],"sales":{"202602":119}},{"id":"MA010120220805772027","name":"삼성문화부동산","industry":"부동산 중개/대리업","coordinates":[127.399668446991,36.3080537580213],"sales":{"202602":363}},{"id":"MA010120220805772575","name":"글벗고시원","industry":"기숙사/고시원","coordinates":[127.407267262833,36.3090554586988],"sales":{"202602":32}},{"id":"MA010120220805773479","name":"나눔의터","industry":"기타 의류 소매업","coordinates":[127.401376353775,36.3110760023793],"sales":{"202602":1104}},{"id":"MA010120220805775329","name":"온누리식당","industry":"백반/한정식","coordinates":[127.397757415981,36.3066633011212],"sales":{"202602":887}},{"id":"MA010120220805775672","name":"진성아구찜","industry":"해산물 구이/찜","coordinates":[127.401450045403,36.3102466691018],"sales":{"202602":1914}},{"id":"MA010120220805775683","name":"그레이스헤어","industry":"미용실","coordinates":[127.398406484916,36.3073099901332],"sales":{"202602":176}},{"id":"MA010120220805775813","name":"해든마켓","industry":"슈퍼마켓","coordinates":[127.398796680652,36.3074078190626],"sales":{"202602":2696}},{"id":"MA010120220805775822","name":"엠씨마트","industry":"슈퍼마켓","coordinates":[127.403051317582,36.3098357500697],"sales":{"202602":2118}},{"id":"MA010120220805775845","name":"홈런세탁","industry":"세탁소","coordinates":[127.398615279463,36.3067685856059],"sales":{"202602":517}},{"id":"MA010120220805779924","name":"천근맛고을","industry":"백반/한정식","coordinates":[127.403679055778,36.3084908732289],"sales":{"202602":589}},{"id":"MA010120220805780022","name":"모아아울렛","industry":"여성 의류 소매업","coordinates":[127.402836241265,36.3091515778998],"sales":{"202602":158}},{"id":"MA010120220805780320","name":"훈이네분식","industry":"김밥/만두/분식","coordinates":[127.402105653132,36.3121549676596],"sales":{"202602":248}},{"id":"MA010120220805781119","name":"정우공인중개사합동사무소","industry":"부동산 중개/대리업","coordinates":[127.400832162079,36.3091763376959],"sales":{"202602":416}},{"id":"MA010120220805781670","name":"화랑","industry":"미용실","coordinates":[127.402139084981,36.3099920227887],"sales":{"202602":230}},{"id":"MA010120220805781747","name":"꼬치분식","industry":"김밥/만두/분식","coordinates":[127.407102638041,36.30951562135],"sales":{"202602":194}},{"id":"MA010120220805781940","name":"외형복원칼라매치","industry":"자동차 세차장","coordinates":[127.401836662716,36.3118134237204],"sales":{"202602":1013}},{"id":"MA010120220805782135","name":"에어컨테크","industry":"가전제품 수리업","coordinates":[127.397463040231,36.3057000164231],"sales":{"202602":437}},{"id":"MA010120220805782249","name":"매일우유대전중부상하목장DS","industry":"우유 소매업","coordinates":[127.397155726373,36.306575183355],"sales":{}},{"id":"MA010120220805783482","name":"곤지암할매소머리국밥","industry":"국/탕/찌개류","coordinates":[127.401542679018,36.3109402668],"sales":{"202602":807}},{"id":"MA010120220805785988","name":"맛나분식","industry":"김밥/만두/분식","coordinates":[127.407691725367,36.3093153542151],"sales":{"202602":164}},{"id":"MA010120220805786291","name":"굽네치킨대전","industry":"치킨","coordinates":[127.402238878027,36.309910580831],"sales":{"202602":696}},{"id":"MA010120220805787174","name":"커피볶는꽁치","industry":"카페","coordinates":[127.401699157465,36.308885049883],"sales":{"202602":619}},{"id":"MA010120220805787183","name":"풍년떡방앗간","industry":"떡/한과","coordinates":[127.401708720058,36.3085786163681],"sales":{"202602":1047}},{"id":"MA010120220805787511","name":"수다떠는도서관식당","industry":"카페","coordinates":[127.407847183181,36.3092337177426],"sales":{"202602":749}},{"id":"MA010120220805788134","name":"헬스원","industry":"헬스장","coordinates":[127.39790366803,36.3069602041592],"sales":{"202602":1410}},{"id":"MA010120220805791275","name":"지에스25문화삼거리","industry":"편의점","coordinates":[127.401441082222,36.3106702539358],"sales":{"202602":3866}},{"id":"MA010120220805793771","name":"봉스김밥","industry":"김밥/만두/분식","coordinates":[127.404851266789,36.3090907002261],"sales":{"202602":1840}},{"id":"MA010120220805793856","name":"통발숯불구이","industry":"돼지고기 구이/찜","coordinates":[127.39812588951,36.3068693462444],"sales":{"202602":1163}},{"id":"MA010120220805794055","name":"경희순대","industry":"국/탕/찌개류","coordinates":[127.402139084981,36.3099920227887],"sales":{"202602":735}},{"id":"MA010120220805794636","name":"라코","industry":"요리 주점","coordinates":[127.402259896973,36.3096671914101],"sales":{"202602":251}},{"id":"MA010120220805794673","name":"명성오토카서비스","industry":"자동차 정비소","coordinates":[127.401268517761,36.3117612613014],"sales":{"202602":653}},{"id":"MA010120220805795253","name":"서대전덴타피아치과의원","industry":"치과의원","coordinates":[127.398677491463,36.3124277917584],"sales":{"202602":4893}},{"id":"MA010120220805795500","name":"야시","industry":"기타 의류 소매업","coordinates":[127.402783397178,36.3097014759959],"sales":{"202602":297}},{"id":"MA010120220805795619","name":"인생은생방송","industry":"백반/한정식","coordinates":[127.401425882532,36.3098772662969],"sales":{"202602":384}},{"id":"MA010120220805795795","name":"세븐나잇","industry":"요리 주점","coordinates":[127.398414730816,36.3067422186837],"sales":{"202602":263}},{"id":"MA010120220805796224","name":"애플휘트니스","industry":"헬스장","coordinates":[127.40026523445,36.3093584732797],"sales":{"202602":490}},{"id":"MA010120220805796471","name":"한별통신","industry":"핸드폰 소매업","coordinates":[127.402259896973,36.3096671914101],"sales":{"202602":231}},{"id":"MA010120220805796872","name":"종가수제비","industry":"국수/칼국수","coordinates":[127.399668446991,36.3080537580213],"sales":{"202602":214}},{"id":"MA010120220805797397","name":"경동보일러서비스나비엔","industry":"철물/공구 소매업","coordinates":[127.405216329976,36.3107836822446],"sales":{"202602":827}},{"id":"MA010120220805797817","name":"굿짬뽕","industry":"중국집","coordinates":[127.401734732948,36.3093084851677],"sales":{"202602":4630}},{"id":"MA010120220805798844","name":"불앤구이돈","industry":"돼지고기 구이/찜","coordinates":[127.398104262879,36.3069955835921],"sales":{"202602":979}},{"id":"MA010120220805798936","name":"선경할인마트","industry":"슈퍼마켓","coordinates":[127.401466539398,36.3091201382078],"sales":{"202602":5271}},{"id":"MA010120220805804260","name":"우주카센타","industry":"자동차 정비소","coordinates":[127.396478788193,36.3114167704414],"sales":{"202602":1511}},{"id":"MA010120220805806830","name":"신도세탁소","industry":"세탁소","coordinates":[127.396500099191,36.3112274518936],"sales":{"202602":176}},{"id":"MA010120220805812299","name":"대율종합환경주","industry":"소독, 구충 및 방제 서비스업","coordinates":[127.403171058437,36.3071408165348],"sales":{"202602":159}},{"id":"MA010120220805824614","name":"머리하고픈날","industry":"미용실","coordinates":[127.403368830205,36.3087893099123],"sales":{"202602":111}},{"id":"MA010120220805825798","name":"삼성지게차","industry":"그 외 기타 개인/가정용품 수리업","coordinates":[127.403563348757,36.3076441541322],"sales":{"202602":330}},{"id":"MA010120220805825999","name":"스피드정보통신","industry":"핸드폰 소매업","coordinates":[127.403160991212,36.3095109553353],"sales":{"202602":91}},{"id":"MA010120220805829353","name":"왕복순대","industry":"국/탕/찌개류","coordinates":[127.401543744205,36.3133193785109],"sales":{"202602":1013}},{"id":"MA010120220805847350","name":"깍꾸노래연습장","industry":"노래방","coordinates":[127.402992492225,36.3092231457257],"sales":{"202602":135}},{"id":"MA010120220805859286","name":"비와이씨범수종합의류","industry":"여성 의류 소매업","coordinates":[127.403226637196,36.309285438839],"sales":{"202602":64}},{"id":"MA010120220805861000","name":"샤인헤어","industry":"미용실","coordinates":[127.401924756191,36.30945203533],"sales":{"202602":258}},{"id":"MA010120220805873513","name":"김밥이야기","industry":"김밥/만두/분식","coordinates":[127.397129727241,36.3080351827875],"sales":{"202602":1816}},{"id":"MA010120220805893438","name":"상상칼국수","industry":"국수/칼국수","coordinates":[127.402139084981,36.3099920227887],"sales":{"202602":2420}},{"id":"MA010120220805931162","name":"천근공인중개사사무소","industry":"부동산 중개/대리업","coordinates":[127.402238878027,36.309910580831],"sales":{"202602":197}},{"id":"MA010120220806001715","name":"아트갤러리미술학원","industry":"미술학원","coordinates":[127.40026523445,36.3093584732797],"sales":{"202602":278}},{"id":"MA010120220806173824","name":"더쉼건축인테리어,한진설비","industry":"인테리어 디자인업","coordinates":[127.401836662716,36.3118134237204],"sales":{"202602":632}},{"id":"MA010120220806176574","name":"옛날식당","industry":"돼지고기 구이/찜","coordinates":[127.405371951363,36.3064304531479],"sales":{"202602":340}},{"id":"MA010120220806184797","name":"윤희네만물","industry":"액세서리/잡화 소매업","coordinates":[127.404943463048,36.3096941787926],"sales":{"202602":1031}},{"id":"MA010120220806193148","name":"해피마트","industry":"그 외 기타 종합 소매업","coordinates":[127.403595230243,36.309509490141],"sales":{"202602":1876}},{"id":"MA010120220806195347","name":"문화주공세탁","industry":"세탁소","coordinates":[127.397129727241,36.3080351827875],"sales":{"202602":102}},{"id":"MA010120220806199069","name":"쿡노래연습장","industry":"노래방","coordinates":[127.401886092286,36.3105966643422],"sales":{"202602":297}},{"id":"MA010120220806208144","name":"지에스25","industry":"편의점","coordinates":[127.401434199021,36.3093275183166],"sales":{"202602":4651}},{"id":"MA010120220806223589","name":"이오통신","industry":"핸드폰 소매업","coordinates":[127.40026523445,36.3093584732797],"sales":{"202602":88}},{"id":"MA010120220806235902","name":"스팀사이언스","industry":"전시/컨벤션/행사 대행 서비스업","coordinates":[127.402980250314,36.3068440702035],"sales":{"202602":744}},{"id":"MA010120220806401202","name":"풍경","industry":"백반/한정식","coordinates":[127.404085187408,36.3095168468541],"sales":{"202602":1356}},{"id":"MA010120220806677691","name":"오구쌀피자","industry":"피자","coordinates":[127.398406484916,36.3073099901332],"sales":{"202602":539}},{"id":"MA010120220806714771","name":"청소년이랑사회적협동조합","industry":"교육컨설팅업","coordinates":[127.402205078645,36.3120014325856],"sales":{"202602":876}},{"id":"MA010120220806781321","name":"토라사랑아카데미","industry":"서점","coordinates":[127.397947471319,36.3068158694111],"sales":{"202602":7205}},{"id":"MA010120220806814409","name":"다사랑치킨피자","industry":"피자","coordinates":[127.401886092286,36.3105966643422],"sales":{"202602":2018}},{"id":"MA010120220806877620","name":"식풍경","industry":"백반/한정식","coordinates":[127.398424168551,36.306408750272],"sales":{"202602":260}},{"id":"MA010120220806933962","name":"이쁘지예","industry":"피부 관리실","coordinates":[127.398406484916,36.3073099901332],"sales":{"202602":258}},{"id":"MA010120220807335207","name":"가마치통닭","industry":"치킨","coordinates":[127.401542679018,36.3109402668],"sales":{"202602":303}},{"id":"MA010120220807561753","name":"푸른의원","industry":"피부/비뇨기과 의원","coordinates":[127.404184326659,36.309309240233],"sales":{"202602":6037}},{"id":"MA010120220807747893","name":"지에스25문화","industry":"편의점","coordinates":[127.398102659633,36.3066801756008],"sales":{"202602":3381}},{"id":"MA010120220807779502","name":"화이트","industry":"기타 의류 소매업","coordinates":[127.398406484916,36.3073099901332],"sales":{"202602":307}},{"id":"MA010120220807781351","name":"이쁜이미용실","industry":"미용실","coordinates":[127.398941652712,36.3074523944232],"sales":{"202602":129}},{"id":"MA010120220807783074","name":"소라열쇠","industry":"철물/공구 소매업","coordinates":[127.401724899989,36.311732693135],"sales":{"202602":318}},{"id":"MA010120220808088202","name":"투다리","industry":"요리 주점","coordinates":[127.403472799,36.3095189152076],"sales":{"202602":711}},{"id":"MA010120220808100081","name":"카페엘","industry":"카페","coordinates":[127.401542679018,36.3109402668],"sales":{"202602":346}},{"id":"MA010120220808197380","name":"남성컷전문댄디클럽","industry":"미용실","coordinates":[127.401564991988,36.3087773589534],"sales":{"202602":91}},{"id":"MA010120220808299753","name":"출장타이어","industry":"그 외 기타 개인/가정용품 수리업","coordinates":[127.399070535084,36.3108944740152],"sales":{"202602":288}},{"id":"MA010120220808344612","name":"라인아트","industry":"네일숍","coordinates":[127.398252441526,36.3076709757193],"sales":{"202602":138}},{"id":"MA010120220808373185","name":"나무꾼꽃직매장","industry":"꽃집","coordinates":[127.405142995678,36.3095222785004],"sales":{"202602":211}},{"id":"MA010120220808487181","name":"삼성정보시스템","industry":"핸드폰/통신장비 수리업","coordinates":[127.402060697842,36.3120740126619],"sales":{"202602":308}},{"id":"MA010120220808551199","name":"경동보일러설치친환경콘덴싱보일러수리교체온수기배관청소","industry":"가전제품 수리업","coordinates":[127.396686693768,36.3106951364531],"sales":{"202602":407}},{"id":"MA010120220808606716","name":"아이엠헤어","industry":"미용실","coordinates":[127.397401358614,36.3067095442595],"sales":{"202602":204}},{"id":"MA010120220808731828","name":"대박로또방","industry":"복권 발행/판매업","coordinates":[127.398252441526,36.3076709757193],"sales":{"202602":668}},{"id":"MA010120220808746972","name":"뷰티샵","industry":"화장품 소매업","coordinates":[127.403438188938,36.3092847251111],"sales":{"202602":183}},{"id":"MA010120220808754652","name":"삼성크리닝","industry":"세탁소","coordinates":[127.401653603659,36.3086869432224],"sales":{"202602":155}},{"id":"MA010120220808803417","name":"천년장묘종합개발","industry":"장례식장","coordinates":[127.396357995149,36.3117506076991],"sales":{"202602":16382}},{"id":"MA010120220809401225","name":"여우머리방","industry":"미용실","coordinates":[127.403491028171,36.3087348267179],"sales":{"202602":39}},{"id":"MA010120220809619701","name":"더더더대패삼겹살","industry":"돼지고기 구이/찜","coordinates":[127.399005885947,36.3069475187799],"sales":{"202602":938}},{"id":"MA010120220809622813","name":"미장원","industry":"미용실","coordinates":[127.403472799,36.3095189152076],"sales":{"202602":188}},{"id":"MA010120220809741975","name":"미인샵","industry":"피부 관리실","coordinates":[127.402583365345,36.3076114109662],"sales":{"202602":210}},{"id":"MA010120220809746341","name":"문화할인마트","industry":"슈퍼마켓","coordinates":[127.399700462874,36.3121450100012],"sales":{"202602":3715}},{"id":"MA010120220809773243","name":"더존덴탈","industry":"의료기기 소매업","coordinates":[127.405306758715,36.3110447179205],"sales":{"202602":2595}},{"id":"MA010120220809812653","name":"뮬랑샵","industry":"미용실","coordinates":[127.400765382709,36.3113574180005],"sales":{"202602":99}},{"id":"MA010120220809820962","name":"에끌라두대전","industry":"화장품 소매업","coordinates":[127.402408436583,36.306070980734],"sales":{"202602":193}},{"id":"MA010120220809956121","name":"츄헤어살롱","industry":"미용실","coordinates":[127.396736476763,36.3095324484119],"sales":{"202602":133}},{"id":"MA010120220809961910","name":"윤가네한판닭갈비","industry":"닭/오리고기 구이/찜","coordinates":[127.40146224243,36.3104538996126],"sales":{"202602":333}},{"id":"MA010120220809979633","name":"연화김치","industry":"반찬/식료품 소매업","coordinates":[127.402836241265,36.3091515778998],"sales":{"202602":1977}},{"id":"MA010120220810153426","name":"명물춘천닭갈비","industry":"닭/오리고기 구이/찜","coordinates":[127.397155726373,36.306575183355],"sales":{"202602":1252}},{"id":"MA010120220810189210","name":"넉점반","industry":"서점","coordinates":[127.402867983654,36.306664212413],"sales":{"202602":9383}},{"id":"MA010120220810285273","name":"건우공조시스템","industry":"가전제품 수리업","coordinates":[127.397463040231,36.3057000164231],"sales":{"202602":676}},{"id":"MA010120220810345321","name":"귀미순대","industry":"국/탕/찌개류","coordinates":[127.398369140768,36.3065350989841],"sales":{"202602":1640}},{"id":"MA010120220810368517","name":"가비헤어","industry":"미용실","coordinates":[127.405954680807,36.3093032417308],"sales":{"202602":174}},{"id":"MA010120220810503114","name":"청명학원중등지점","industry":"입시·교과학원","coordinates":[127.396984012732,36.3056475371442],"sales":{"202602":1789}},{"id":"MA010120220810648810","name":"유엔오건축","industry":"건축 설계 및 관련 서비스업","coordinates":[127.401553261568,36.3130039335847],"sales":{"202602":347}},{"id":"MA010120220810815557","name":"구룡성","industry":"중국집","coordinates":[127.39899521107,36.3070376724959],"sales":{"202602":1536}},{"id":"MA010120220810962008","name":"베스트투어","industry":"기타 여행 보조/예약 서비스업","coordinates":[127.397838512124,36.3072848461258],"sales":{"202602":459}},{"id":"MA010120220811368749","name":"그린E&C","industry":"가전제품 소매업","coordinates":[127.406924629242,36.309543262802],"sales":{"202602":2919}},{"id":"MA010120220811382208","name":"탑할인마트","industry":"슈퍼마켓","coordinates":[127.397838512124,36.3072848461258],"sales":{"202602":7541}},{"id":"MA010120220811599283","name":"파랑새유통","industry":"슈퍼마켓","coordinates":[127.398952373608,36.3073712523727],"sales":{"202602":1908}},{"id":"MA010120220811714478","name":"워시테리아","industry":"세탁소","coordinates":[127.402085356329,36.3103706992396],"sales":{"202602":31}},{"id":"MA010120220811761850","name":"우주불교만물","industry":"그 외 기타 상품 전문 소매업","coordinates":[127.400637970334,36.3060408796483],"sales":{"202602":1843}},{"id":"MA010120220811763427","name":"천근오거리공인중개사사무소","industry":"부동산 중개/대리업","coordinates":[127.402748464668,36.3094042041596],"sales":{"202602":453}},{"id":"MA010120220811790273","name":"프린센스","industry":"여성 의류 소매업","coordinates":[127.402139084981,36.3099920227887],"sales":{"202602":191}},{"id":"MA010120220811860455","name":"정미소문화국수","industry":"국수/칼국수","coordinates":[127.39754582543,36.3066549930955],"sales":{"202602":540}},{"id":"MA010120220811897764","name":"찜닭만드는남자","industry":"요리 주점","coordinates":[127.403011746406,36.3086373135169],"sales":{"202602":621}},{"id":"MA010120220811984918","name":"스마트통신","industry":"핸드폰 소매업","coordinates":[127.397325478293,36.3071153278977],"sales":{"202602":163}},{"id":"MA010120220811990894","name":"스텔라헤어","industry":"미용실","coordinates":[127.401795250793,36.308082676251],"sales":{"202602":145}},{"id":"MA010120220812032968","name":"푸른공인중개사사무소","industry":"부동산 중개/대리업","coordinates":[127.404184326659,36.309309240233],"sales":{"202602":291}},{"id":"MA010120220812232137","name":"끌리네옷가게","industry":"여성 의류 소매업","coordinates":[127.401653603659,36.3086869432224],"sales":{"202602":522}},{"id":"MA010120220812254193","name":"허성준보쌈","industry":"족발/보쌈","coordinates":[127.401817759403,36.3102995045474],"sales":{"202602":1685}},{"id":"MA010120220812429946","name":"엄마손반찬","industry":"반찬/식료품 소매업","coordinates":[127.402413184768,36.3091620144952],"sales":{"202602":877}},{"id":"MA010120220812489065","name":"라라마마","industry":"건강보조식품 소매업","coordinates":[127.402259896973,36.3096671914101],"sales":{"202602":613}},{"id":"MA010120220812490024","name":"문화OK공인중개사사무소","industry":"부동산 중개/대리업","coordinates":[127.405074977723,36.3092882021045],"sales":{"202602":239}},{"id":"MA010120220812535108","name":"해뜰날","industry":"채소/과일 소매업","coordinates":[127.400765382709,36.3113574180005],"sales":{"202602":1761}},{"id":"MA010120220812590180","name":"착한밥상","industry":"김밥/만두/분식","coordinates":[127.401473977514,36.3105710136399],"sales":{"202602":965}},{"id":"MA010120220812600603","name":"수건축적산","industry":"건축 설계 및 관련 서비스업","coordinates":[127.398421142944,36.3058139808675],"sales":{"202602":551}},{"id":"MA010120220812788535","name":"보문헬스목욕탕","industry":"목욕탕/사우나","coordinates":[127.405707181875,36.3066636229923],"sales":{"202602":2590}},{"id":"MA010120220812878714","name":"공주얼큰이칼국수","industry":"국수/칼국수","coordinates":[127.399220049833,36.3074604769016],"sales":{"202602":1815}},{"id":"MA010120220812907646","name":"소소하게","industry":"피자","coordinates":[127.397655837894,36.3063932847317],"sales":{"202602":641}},{"id":"MA010120220812939531","name":"이태원김밥","industry":"김밥/만두/분식","coordinates":[127.402426171395,36.3095224429498],"sales":{"202602":710}},{"id":"MA010120220813016069","name":"문화축산","industry":"정육점","coordinates":[127.397838512124,36.3072848461258],"sales":{"202602":5173}},{"id":"MA010120220813060317","name":"한밭누리협동조합","industry":"명함/간판/광고물 제작","coordinates":[127.397173607109,36.3057099901186],"sales":{"202602":711}},{"id":"MA010120220813136373","name":"인테리어드림","industry":"인테리어 디자인업","coordinates":[127.402980250314,36.3068440702035],"sales":{"202602":845}},{"id":"MA010120220813183770","name":"이노헤어","industry":"미용실","coordinates":[127.403384281348,36.3096273555609],"sales":{"202602":106}},{"id":"MA010120220813365537","name":"최진혁","industry":"사진촬영업","coordinates":[127.406341388774,36.3087251725383],"sales":{"202602":240}},{"id":"MA010120220813408353","name":"얼음나라아이스크림할인점","industry":"슈퍼마켓","coordinates":[127.397325478293,36.3071153278977],"sales":{"202602":1451}},{"id":"MA010120220813451455","name":"라움인테리어","industry":"인테리어 디자인업","coordinates":[127.401523367234,36.3115170869728],"sales":{"202602":1391}},{"id":"MA010120220813606706","name":"서진공조시스템","industry":"가전제품 수리업","coordinates":[127.399156929054,36.312552357105],"sales":{"202602":155}},{"id":"MA010120220813620589","name":"다올헤어","industry":"미용실","coordinates":[127.399943904042,36.3096659500639],"sales":{"202602":229}},{"id":"MA010120220813679555","name":"투다리","industry":"요리 주점","coordinates":[127.397401358614,36.3067095442595],"sales":{"202602":185}},{"id":"MA010120220813892958","name":"세븐일레븐대전문화","industry":"편의점","coordinates":[127.398252441526,36.3076709757193],"sales":{"202602":592}},{"id":"MA010120220813912909","name":"해경이네폰가게","industry":"핸드폰 소매업","coordinates":[127.398941652712,36.3074523944232],"sales":{"202602":35}},{"id":"MA010120220814032235","name":"문화스튜디오","industry":"사진촬영업","coordinates":[127.399523197576,36.3079551136343],"sales":{"202602":248}},{"id":"MA010120220814091494","name":"오렌지구제","industry":"여성 의류 소매업","coordinates":[127.403103185755,36.3090966072745],"sales":{"202602":317}},{"id":"MA010120220814111047","name":"카페리에또","industry":"카페","coordinates":[127.397155726373,36.306575183355],"sales":{"202602":685}},{"id":"MA010120220814140881","name":"도레미노래연습장","industry":"노래방","coordinates":[127.401448844267,36.3100123662475],"sales":{"202602":544}},{"id":"MA010120220814180458","name":"겨자씨","industry":"그 외 기타 간이 음식점","coordinates":[127.404748403553,36.3085773756848],"sales":{"202602":727}},{"id":"MA010120220814333939","name":"짜이뽕","industry":"중국집","coordinates":[127.401460440662,36.3101024453405],"sales":{"202602":817}},{"id":"MA010120220814354907","name":"파리바게트대전","industry":"빵/도넛","coordinates":[127.398049234175,36.3071219321504],"sales":{"202602":3256}},{"id":"MA0101202209A0022482","name":"문화우림학원","industry":"입시·교과학원","coordinates":[127.398796680652,36.3074078190626],"sales":{"202602":1433}},{"id":"MA0101202209A0045349","name":"한밭당구장","industry":"당구장","coordinates":[127.401886092286,36.3105966643422],"sales":{"202602":226}},{"id":"MA0101202210A0003150","name":"희망도서관","industry":"교육컨설팅업","coordinates":[127.399812408612,36.3079000759376],"sales":{"202602":686}},{"id":"MA0101202210A0042005","name":"빽다방대전","industry":"카페","coordinates":[127.399130977445,36.3074607743086],"sales":{"202602":547}},{"id":"MA0101202210A0069082","name":"서울헤어살롱","industry":"미용실","coordinates":[127.401481092469,36.3097869628595],"sales":{"202602":311}},{"id":"MA0101202211A0062246","name":"파스카로제하우스","industry":"카페","coordinates":[127.401599503789,36.3089935263489],"sales":{"202602":708}},{"id":"MA0101202211A0077726","name":"이쌤학원삼성영어학원","industry":"외국어학원","coordinates":[127.399967273642,36.3077012981632],"sales":{"202602":673}},{"id":"MA0101202211A0093876","name":"대문축산","industry":"정육점","coordinates":[127.403360568455,36.3071852363271],"sales":{"202602":2611}},{"id":"MA0101202212A0026948","name":"짱구카센타","industry":"자동차 정비소","coordinates":[127.399645571194,36.3122983941329],"sales":{"202602":687}},{"id":"MA0101202212A0027235","name":"세븐일레븐대전문화극동점","industry":"편의점","coordinates":[127.402408436583,36.306070980734],"sales":{"202602":1605}},{"id":"MA0101202301A0084192","name":"세종선우공인중개사사무소","industry":"부동산 중개/대리업","coordinates":[127.402238878027,36.309910580831],"sales":{"202602":216}},{"id":"MA0101202303A0036848","name":"이불올데코","industry":"침구류/커튼 소매업","coordinates":[127.40040392924,36.3059966046691],"sales":{"202602":828}},{"id":"MA0101202303A0047044","name":"그길로커피","industry":"카페","coordinates":[127.403160991212,36.3095109553353],"sales":{"202602":270}},{"id":"MA0101202305A0037906","name":"빨간우체통","industry":"중고 상품 소매업","coordinates":[127.396781934238,36.3119114138105],"sales":{"202602":304}},{"id":"MA0101202305A0048610","name":"허브노래연습장","industry":"노래방","coordinates":[127.397947471319,36.3068158694111],"sales":{"202602":321}},{"id":"MA0101202305A0066546","name":"탄탄대로","industry":"돼지고기 구이/찜","coordinates":[127.401469311304,36.309660837168],"sales":{"202602":718}},{"id":"MA0101202305A0077414","name":"보성가","industry":"돼지고기 구이/찜","coordinates":[127.397878790549,36.3064466138026],"sales":{"202602":1082}},{"id":"MA0101202305A0098538","name":"골목집","industry":"요리 주점","coordinates":[127.398414730816,36.3067422186837],"sales":{"202602":323}},{"id":"MA0101202305A0109832","name":"문화회관","industry":"백반/한정식","coordinates":[127.397924516607,36.3066807686725],"sales":{"202602":627}},{"id":"MA0101202305A0194911","name":"사랑가득복지센터","industry":"기타 개인/가정용품 대여업","coordinates":[127.402240636987,36.3102530234336],"sales":{"202602":434}},{"id":"MA0101202306A0066327","name":"지에스25도서관미래점","industry":"편의점","coordinates":[127.407491307954,36.3093160375189],"sales":{"202602":1511}},{"id":"MA0101202306A0102060","name":"싸리골추어탕","industry":"국/탕/찌개류","coordinates":[127.401589478611,36.3092098433427],"sales":{"202602":1789}},{"id":"MA0101202308A0053770","name":"행복짜장","industry":"중국집","coordinates":[127.401481092469,36.3097869628595],"sales":{"202602":461}},{"id":"MA0101202308A0081977","name":"모티보티","industry":"시각 디자인업","coordinates":[127.40556897413,36.3079257448028],"sales":{"202602":1547}},{"id":"MA0101202309A0001284","name":"천근소머리곰탕","industry":"국/탕/찌개류","coordinates":[127.402359735782,36.3095947609985],"sales":{"202602":1497}},{"id":"MA0101202310A0080463","name":"반하다네일","industry":"네일숍","coordinates":[127.398527904524,36.30710231384],"sales":{"202602":116}},{"id":"MA0101202310A0095836","name":"연월","industry":"펜션","coordinates":[127.401227026685,36.3123561793993],"sales":{"202602":185}},{"id":"MA0101202311A0023839","name":"과외수업","industry":"입시·교과학원","coordinates":[127.403291444218,36.3067348791514],"sales":{"202602":854}},{"id":"MA0101202406A0015543","name":"빅베로스광고디자인","industry":"명함/간판/광고물 제작","coordinates":[127.405080838809,36.3061160265993],"sales":{"202602":319}},{"id":"MA0101202406A0063848","name":"허갈닭강정","industry":"치킨","coordinates":[127.399668446991,36.3080537580213],"sales":{"202602":346}},{"id":"MA0101202406A0094272","name":"천근갈매기","industry":"백반/한정식","coordinates":[127.402259896973,36.3096671914101],"sales":{"202602":1185}},{"id":"MA0101202406A0116844","name":"드림저니","industry":"여행사","coordinates":[127.401523367234,36.3115170869728],"sales":{"202602":1532}},{"id":"MA0101202406A0130190","name":"더블유인테리어","industry":"벽지/장판/마루 소매업","coordinates":[127.399943904042,36.3096659500639],"sales":{"202602":173}},{"id":"MA0101202406A0166227","name":"땅스부대찌개","industry":"국/탕/찌개류","coordinates":[127.399943904042,36.3096659500639],"sales":{"202602":914}},{"id":"MA0101202406A0237150","name":"크린토피아코인워시대전문화2동","industry":"셀프 빨래방","coordinates":[127.39936493032,36.3074870284373],"sales":{"202602":220}},{"id":"MA0101202406A0283347","name":"송가네김치찜","industry":"국/탕/찌개류","coordinates":[127.400131677464,36.3115487885777],"sales":{"202602":1565}},{"id":"MA0101202406A0315053","name":"지연옷수선","industry":"의류/이불 수선업","coordinates":[127.400832162079,36.3091763376959],"sales":{"202602":88}},{"id":"MA0101202406A0410988","name":"다온허브다이어트","industry":"건강보조식품 소매업","coordinates":[127.401376353775,36.3110760023793],"sales":{"202602":1548}},{"id":"MA0101202406A0418947","name":"인테리어연월","industry":"인테리어 디자인업","coordinates":[127.401227026685,36.3123561793993],"sales":{"202602":2485}},{"id":"MA0101202406A0455268","name":"바담식탁","industry":"백반/한정식","coordinates":[127.397655837894,36.3063932847317],"sales":{"202602":619}},{"id":"MA0101202406A0516088","name":"낭만술집","industry":"백반/한정식","coordinates":[127.402259896973,36.3096671914101],"sales":{"202602":425}},{"id":"MA0101202406A0519434","name":"페리카나","industry":"치킨","coordinates":[127.397325478293,36.3071153278977],"sales":{"202602":811}},{"id":"MA0101202406A0574418","name":"스터디라운지청명","industry":"독서실/스터디 카페","coordinates":[127.396984012732,36.3056475371442],"sales":{"202602":265}},{"id":"MA0101202409A0019221","name":"서울떡집","industry":"떡/한과","coordinates":[127.397325478293,36.3071153278977],"sales":{"202602":1196}},{"id":"MA0101202409A0089349","name":"도란도란","industry":"생맥주 전문","coordinates":[127.403738768625,36.3092746985752],"sales":{"202602":946}},{"id":"MA0101202409A0137064","name":"혜인아트지움","industry":"시각 디자인업","coordinates":[127.405660567624,36.3084120715083],"sales":{"202602":1407}},{"id":"MA0101202409A0140950","name":"유티스갤러리","industry":"전시/컨벤션/행사 대행 서비스업","coordinates":[127.399668446991,36.3080537580213],"sales":{"202602":1548}},{"id":"MA0101202409A0164366","name":"문화자이남성컷트","industry":"미용실","coordinates":[127.404932748069,36.3097753213119],"sales":{"202602":137}},{"id":"MA0101202410A0016628","name":"동양체육관","industry":"태권도/무술학원","coordinates":[127.39936493032,36.3074870284373],"sales":{"202602":458}},{"id":"MA0101202410A0215588","name":"누가연합의원","industry":"내과/소아과 의원","coordinates":[127.4013440124,36.3112833824025],"sales":{"202602":3813}},{"id":"MA0101202410A0217690","name":"두루음악학원","industry":"음악학원","coordinates":[127.398406484916,36.3073099901332],"sales":{"202602":378}},{"id":"MA0101202410A0430863","name":"하늘치과의원","industry":"치과의원","coordinates":[127.404184326659,36.309309240233],"sales":{"202602":2588}},{"id":"MA0101202410A0439258","name":"대전과일","industry":"채소/과일 소매업","coordinates":[127.405272270532,36.3086837425885],"sales":{"202602":511}},{"id":"MA0101202410A0442720","name":"행운꽃집","industry":"꽃집","coordinates":[127.397757415981,36.3066633011212],"sales":{"202602":652}},{"id":"MA0101202410A0443356","name":"김정철한의원","industry":"한의원","coordinates":[127.401695696504,36.3103810209826],"sales":{"202602":1034}},{"id":"MA0101202410A0443431","name":"두루학원","industry":"입시·교과학원","coordinates":[127.398406484916,36.3073099901332],"sales":{"202602":1367}},{"id":"MA0101202410A0443555","name":"예그린피아노학원","industry":"음악학원","coordinates":[127.398252441526,36.3076709757193],"sales":{"202602":108}},{"id":"MA0101202410A0443657","name":"위풍당당한의원","industry":"한의원","coordinates":[127.403929678584,36.3095894668126],"sales":{"202602":1289}},{"id":"MA0101202410A0443662","name":"오현태권도장","industry":"태권도/무술학원","coordinates":[127.397838512124,36.3072848461258],"sales":{"202602":346}},{"id":"MA0101202410A0443665","name":"정과일","industry":"채소/과일 소매업","coordinates":[127.403226637196,36.309285438839],"sales":{"202602":1791}},{"id":"MA0101202410A0443676","name":"경희대청룡태권도","industry":"태권도/무술학원","coordinates":[127.397852329037,36.3121962339522],"sales":{"202602":191}},{"id":"MA0101202410A0443764","name":"한신설비인력공사","industry":"고용 알선업","coordinates":[127.39971449569,36.3127127065128],"sales":{}},{"id":"MA0101202410A0443989","name":"명당장묘개발","industry":"장례식장","coordinates":[127.39971449569,36.3127127065128],"sales":{"202602":16690}},{"id":"MA0101202410A0444200","name":"평화닭집","industry":"정육점","coordinates":[127.402680036926,36.3090890215156],"sales":{"202602":1947}},{"id":"MA0101202410A0444346","name":"논산축산","industry":"정육점","coordinates":[127.403051317582,36.3098357500697],"sales":{"202602":557}},{"id":"MA0101202410A0444416","name":"기타랩음악교습소","industry":"음악학원","coordinates":[127.398406484916,36.3073099901332],"sales":{"202602":89}},{"id":"MA0101202410A0444462","name":"펠리체음악학원","industry":"음악학원","coordinates":[127.39754582543,36.3066549930955],"sales":{"202602":287}},{"id":"MA0101202410A0444661","name":"리틀뮤직클래스피아노교습소","industry":"음악학원","coordinates":[127.398186004132,36.3121230285918],"sales":{"202602":303}},{"id":"MA0101202410A0445255","name":"우리아이음악학원","industry":"음악학원","coordinates":[127.39936493032,36.3074870284373],"sales":{"202602":288}},{"id":"MA0101202410A0445677","name":"임진완치과의원","industry":"치과의원","coordinates":[127.398406484916,36.3073099901332],"sales":{"202602":1326}},{"id":"MA0101202410A0445679","name":"유한의원","industry":"한의원","coordinates":[127.398797414858,36.3075520055452],"sales":{"202602":686}},{"id":"MA0101202410A0445684","name":"성모의원","industry":"내과/소아과 의원","coordinates":[127.399943904042,36.3096659500639],"sales":{"202602":2523}},{"id":"MA0101202410A0468958","name":"문화토피아해법영어교습소","industry":"입시·교과학원","coordinates":[127.40026523445,36.3093584732797],"sales":{"202602":1202}},{"id":"MA0101202410A0478951","name":"약초원","industry":"채소/과일 소매업","coordinates":[127.403924472723,36.3085801623405],"sales":{"202602":1677}},{"id":"MA0101202410A0479206","name":"문화연세의원","industry":"내과/소아과 의원","coordinates":[127.39790366803,36.3069602041592],"sales":{"202602":963}},{"id":"MA0101202410A0492812","name":"황금수산","industry":"수산물 소매업","coordinates":[127.40266992205,36.3092873152817],"sales":{"202602":3608}},{"id":"MA0101202410A0606509","name":"천년서가","industry":"중고 상품 소매업","coordinates":[127.396576945979,36.3110109137079],"sales":{"202602":186}},{"id":"MA0101202410A0606514","name":"한걸음학원","industry":"입시·교과학원","coordinates":[127.398142198407,36.3122673633149],"sales":{"202602":590}},{"id":"MA0101202410A0645250","name":"백세한의원","industry":"한의원","coordinates":[127.398049234175,36.3071219321504],"sales":{"202602":2339}},{"id":"MA0101202410A0680798","name":"대무관문화합기도백산체육관","industry":"태권도/무술학원","coordinates":[127.398797414858,36.3075520055452],"sales":{"202602":365}},{"id":"MA0101202410A0683485","name":"봄피아노교습소","industry":"음악학원","coordinates":[127.404423277984,36.3081459093439],"sales":{"202602":122}},{"id":"MA0101202410A0811545","name":"선영이꽃집","industry":"꽃집","coordinates":[127.403327959815,36.3095013803386],"sales":{"202602":148}},{"id":"MA0101202410A0900293","name":"대전축산유통","industry":"정육점","coordinates":[127.402386285873,36.3082609245165],"sales":{"202602":2561}},{"id":"MA0101202410A0912827","name":"위너수학영어학원","industry":"입시·교과학원","coordinates":[127.398102659633,36.3066801756008],"sales":{"202602":533}},{"id":"MA0101202410A0944390","name":"정들치과","industry":"치과의원","coordinates":[127.401642381445,36.3108408020478],"sales":{"202602":3313}},{"id":"MA0101202410A0971566","name":"양촌농산물장터","industry":"채소/과일 소매업","coordinates":[127.40026523445,36.3093584732797],"sales":{"202602":1878}},{"id":"MA0101202410A1031513","name":"참조은내과","industry":"내과/소아과 의원","coordinates":[127.398406484916,36.3073099901332],"sales":{"202602":4657}},{"id":"MA0101202411A0017001","name":"할매보리밥수제비","industry":"백반/한정식","coordinates":[127.401469311304,36.309660837168],"sales":{"202602":1180}},{"id":"MA0101202411A0099951","name":"윤아분식","industry":"김밥/만두/분식","coordinates":[127.401473977514,36.3105710136399],"sales":{"202602":207}},{"id":"MA0101202411A0123636","name":"전주식당","industry":"백반/한정식","coordinates":[127.407112788561,36.3093263389304],"sales":{"202602":953}},{"id":"MA0101202411A0136036","name":"36.5도인테리어","industry":"인테리어 디자인업","coordinates":[127.401453233901,36.3086966280442],"sales":{"202602":899}},{"id":"MA0101202411A0140422","name":"밥사랑한식","industry":"백반/한정식","coordinates":[127.404830256039,36.3093340900745],"sales":{"202602":819}},{"id":"MA0101202412A0032001","name":"붐당구장","industry":"당구장","coordinates":[127.398102659633,36.3066801756008],"sales":{"202602":260}},{"id":"MA0101202501A0039305","name":"또바기잡화점","industry":"여성 의류 소매업","coordinates":[127.3975021587,36.3068263626771],"sales":{"202602":182}},{"id":"MA0101202502A0053790","name":"필럽인테리어","industry":"그 외 기타 개인/가정용품 수리업","coordinates":[127.402408436583,36.306070980734],"sales":{"202602":176}},{"id":"MA0101202502A0070770","name":"영주네채소","industry":"채소/과일 소매업","coordinates":[127.402413184768,36.3091620144952],"sales":{"202602":1308}},{"id":"MA0101202503A0045462","name":"필리핀프리미엄유학","industry":"기타 교육지원 서비스업","coordinates":[127.40185748779,36.3093621434245],"sales":{"202602":943}},{"id":"MA0101202503A0051500","name":"어반컴퍼니","industry":"사진촬영업","coordinates":[127.401954518212,36.3109118473729],"sales":{"202602":100}},{"id":"MA0101202503A0052358","name":"율이네밥상","industry":"백반/한정식","coordinates":[127.404629512572,36.3092716870598],"sales":{"202602":374}},{"id":"MA0101202503A0061665","name":"해바라기구제","industry":"기타 의류 소매업","coordinates":[127.403738768625,36.3092746985752],"sales":{"202602":235}},{"id":"MA0101202503A0065286","name":"에스제이공조","industry":"가전제품 수리업","coordinates":[127.39827411929,36.31193348723],"sales":{"202602":398}},{"id":"MA0101202504A0055331","name":"심슨설비","industry":"사업시설 유지·관리 서비스업","coordinates":[127.39971449569,36.3127127065128],"sales":{"202602":1215}},{"id":"MA0101202504A0082568","name":"아이스크림스토리대문중점","industry":"슈퍼마켓","coordinates":[127.401453233901,36.3086966280442],"sales":{"202602":5802}},{"id":"MA0101202504A0112805","name":"하나축산","industry":"정육점","coordinates":[127.401420986038,36.3089220314635],"sales":{"202602":488}},{"id":"MA0101202505A0005730","name":"미쓰봉","industry":"카페","coordinates":[127.398406484916,36.3073099901332],"sales":{"202602":298}},{"id":"MA0101202505A0009696","name":"헤어케이","industry":"미용실","coordinates":[127.40026523445,36.3093584732797],"sales":{"202602":162}},{"id":"MA0101202505A0009917","name":"달자의봄","industry":"카페","coordinates":[127.40260169581,36.3068453456129],"sales":{"202602":981}},{"id":"MA0101202505A0018016","name":"수라청","industry":"카페","coordinates":[127.398615279463,36.3067685856059],"sales":{"202602":521}},{"id":"MA0101202505A0082613","name":"카페올웨이즈","industry":"카페","coordinates":[127.398480525797,36.3065437395895],"sales":{"202602":793}},{"id":"MA0106202506A1398427","name":"카페연","industry":"백반/한정식","coordinates":[127.401795250793,36.308082676251],"sales":{"202602":293}},{"id":"MA0106202506A1974412","name":"아이스크림스토리 대문중점","industry":"그 외 기타 상품 전문 소매업","coordinates":[127.401453233901,36.3086966280442],"sales":{"202602":1277}},{"id":"MA0106202506A2416305","name":"하나축산","industry":"정육점","coordinates":[127.401420986038,36.3089220314635],"sales":{"202602":1348}},{"id":"MA0106202507A1675176","name":"제리(Jerry)","industry":"기타 의류 소매업","coordinates":[127.396357995149,36.3117506076991],"sales":{"202602":666}},{"id":"MA0106202508A0371208","name":"다차림문화점","industry":"백반/한정식","coordinates":[127.407491307954,36.3093160375189],"sales":{"202602":1715}},{"id":"MA0106202509A2357233","name":"문화에듀학원","industry":"입시·교과학원","coordinates":[127.39790366803,36.3069602041592],"sales":{"202602":1010}},{"id":"MA0106202509A2357234","name":"문화에듀학원","industry":"입시·교과학원","coordinates":[127.39790366803,36.3069602041592],"sales":{"202602":1284}},{"id":"MA0106202510A0824440","name":"주유소마차","industry":"일식 회/초밥","coordinates":[127.399523197576,36.3079551136343],"sales":{"202602":1806}},{"id":"MA0106202510A1079911","name":"헌옷다오","industry":"기타 의류 소매업","coordinates":[127.403402644364,36.3067074685603],"sales":{"202602":201}},{"id":"MA0106202512A0971760","name":"박가네","industry":"백반/한정식","coordinates":[127.397947471319,36.3068158694111],"sales":{"202602":673}},{"id":"MA0106202512A1049115","name":"홍성석법무사사무소","industry":"변호사","coordinates":[127.399034262861,36.3125167194179],"sales":{"202602":1}},{"id":"MA0106202512A1586906","name":"대전세탁기에어컨청소월드클린시스템","industry":"그 외 기타 개인/가정용품 수리업","coordinates":[127.396736476763,36.3095324484119],"sales":{"202602":414}},{"id":"MA0106202601A2465631","name":"32번지포차","industry":"백반/한정식","coordinates":[127.401474069916,36.3105890369349],"sales":{"202602":597}},{"id":"MA0106202602A2154789","name":"문화명품축산","industry":"정육점","coordinates":[127.402626635793,36.3095307797818],"sales":{"202602":9274}}]