[{"id":"MA010120220800042238","name":"조으다헤어","industry":"미용실","coordinates":[127.403955298409,36.3231881760778],"sales":{"202602":1387}},{"id":"MA010120220800043769","name":"마장동김씨","industry":"돼지고기 구이/찜","coordinates":[127.40954188849,36.3224392113724],"sales":{"202602":1788}},{"id":"MA010120220800109524","name":"씨이","industry":"경영 컨설팅업","coordinates":[127.409798397703,36.3225104265003],"sales":{"202602":5187}},{"id":"MA010120220800115070","name":"하나로114지역마켓팅","industry":"광고 대행업","coordinates":[127.401628581094,36.329855720988],"sales":{"202602":606}},{"id":"MA010120220800122329","name":"대박포차","industry":"요리 주점","coordinates":[127.410501772547,36.3228504607094],"sales":{"202602":2100}},{"id":"MA010120220800248240","name":"사람마중","industry":"임시/일용 인력 공급업","coordinates":[127.408244318777,36.3256067849214],"sales":{}},{"id":"MA010120220800302186","name":"태건목구조","industry":"건축 설계 및 관련 서비스업","coordinates":[127.41045406155,36.3222468351788],"sales":{"202602":386}},{"id":"MA010120220800309771","name":"히메식당","industry":"요리 주점","coordinates":[127.410213128112,36.3230226754805],"sales":{"202602":573}},{"id":"MA010120220800451367","name":"이클립스","industry":"운동용품 소매업","coordinates":[127.41045406155,36.3222468351788],"sales":{"202602":1828}},{"id":"MA010120220800461329","name":"그레","industry":"경양식","coordinates":[127.409844310767,36.322771610756],"sales":{"202602":889}},{"id":"MA010120220800533525","name":"션스페샬관리","industry":"화장품 소매업","coordinates":[127.404701522224,36.3232036754556],"sales":{"202602":359}},{"id":"MA010120220800538665","name":"파스타집","industry":"파스타/스테이크","coordinates":[127.403605569837,36.3287946838894],"sales":{"202602":1669}},{"id":"MA010120220800617199","name":"카라헤어","industry":"미용실","coordinates":[127.405134204596,36.3228867973285],"sales":{"202602":332}},{"id":"MA010120220800783028","name":"나라세무회계사무소","industry":"세무사","coordinates":[127.41045406155,36.3222468351788],"sales":{"202602":1200}},{"id":"MA010120220800803949","name":"노랑통닭","industry":"치킨","coordinates":[127.410205911778,36.3237706780262],"sales":{"202602":328}},{"id":"MA010120220800842329","name":"카페코지","industry":"카페","coordinates":[127.406162579584,36.3214774691327],"sales":{"202602":430}},{"id":"MA010120220800851647","name":"두온네이쳐","industry":"백반/한정식","coordinates":[127.410467513253,36.3226883662953],"sales":{"202602":1257}},{"id":"MA010120220800998842","name":"밀트레이","industry":"돼지고기 구이/찜","coordinates":[127.406851327364,36.3211507026033],"sales":{"202602":1289}},{"id":"MA010120220801246778","name":"농협유통하나로마트오룡점","industry":"슈퍼마켓","coordinates":[127.407855805131,36.3258514292448],"sales":{"202602":3208}},{"id":"MA010120220801438401","name":"가장맛있는뒷고기","industry":"돼지고기 구이/찜","coordinates":[127.410471010327,36.3233552260778],"sales":{"202602":3074}},{"id":"MA010120220801523042","name":"지에스25오류삼성","industry":"편의점","coordinates":[127.405809029675,36.3220193770029],"sales":{"202602":2782}},{"id":"MA010120220801939687","name":"당신의하루","industry":"빵/도넛","coordinates":[127.405045460477,36.3272578112387],"sales":{"202602":853}},{"id":"MA010120220802166922","name":"씨에프티","industry":"중국집","coordinates":[127.40866231963,36.3224782688484],"sales":{"202602":2806}},{"id":"MA010120220802269195","name":"우리시스템","industry":"컴퓨터/노트북/프린터 수리업","coordinates":[127.409796461708,36.3242677303624],"sales":{"202602":1627}},{"id":"MA010120220802375135","name":"스퀘어","industry":"카페","coordinates":[127.405312838364,36.3272749284122],"sales":{"202602":611}},{"id":"MA010120220802513748","name":"은이네오리도리","industry":"백반/한정식","coordinates":[127.409129944597,36.322458645631],"sales":{"202602":140}},{"id":"MA010120220802588430","name":"아이라이크렌즈타운파리글라스","industry":"안경렌즈 소매업","coordinates":[127.406360361601,36.3209631251777],"sales":{"202602":754}},{"id":"MA010120220802683069","name":"5월에내리는눈","industry":"유사 의료업","coordinates":[127.41045406155,36.3222468351788],"sales":{"202602":677}},{"id":"MA010120220802738425","name":"세븐일레븐대전","industry":"편의점","coordinates":[127.408228055936,36.3224887645232],"sales":{"202602":921}},{"id":"MA010120220802835759","name":"토강춘천불닭갈비","industry":"돼지고기 구이/찜","coordinates":[127.405908133123,36.3218027576896],"sales":{"202602":469}},{"id":"MA010120220802882160","name":"스카이팰리스공인중개사사무소","industry":"부동산 중개/대리업","coordinates":[127.404701522224,36.3232036754556],"sales":{"202602":388}},{"id":"MA010120220802896456","name":"세븐일레븐서대전역","industry":"편의점","coordinates":[127.405504526607,36.3212814440451],"sales":{"202602":737}},{"id":"MA010120220802963255","name":"대전노비타제이리빙","industry":"가전제품 수리업","coordinates":[127.402009032708,36.3280340634332],"sales":{"202602":162}},{"id":"MA010120220802963565","name":"피앤케이","industry":"전시/컨벤션/행사 대행 서비스업","coordinates":[127.41045406155,36.3222468351788],"sales":{"202602":1212}},{"id":"MA010120220803070853","name":"정가네공주칼국수쭈꾸미구이","industry":"국수/칼국수","coordinates":[127.406384504885,36.3213235145061],"sales":{"202602":1058}},{"id":"MA010120220803071277","name":"미인왁싱","industry":"피부 관리실","coordinates":[127.40954188849,36.3224392113724],"sales":{"202602":180}},{"id":"MA010120220803155575","name":"훈이네분식앤드대성제빵","industry":"김밥/만두/분식","coordinates":[127.41045406155,36.3222468351788],"sales":{"202602":592}},{"id":"MA010120220803180459","name":"시선도시건축연구소","industry":"도시 계획 및 조경 설계 서비스업","coordinates":[127.41045406155,36.3222468351788],"sales":{}},{"id":"MA010120220803187173","name":"대전오에이","industry":"사무기기 소매업","coordinates":[127.403859908851,36.3284423655579],"sales":{"202602":368}},{"id":"MA010120220803195775","name":"대전아이폰수리사설서","industry":"핸드폰/통신장비 수리업","coordinates":[127.406360361601,36.3209631251777],"sales":{"202602":373}},{"id":"MA010120220803206082","name":"좋은옷위드나스홈","industry":"기타 의류 소매업","coordinates":[127.406638819706,36.3252607982985],"sales":{"202602":276}},{"id":"MA010120220803234471","name":"한밭제일약국","industry":"약국","coordinates":[127.409561378855,36.3219074494226],"sales":{"202602":2891}},{"id":"MA010120220803271066","name":"아쿠아워시","industry":"세탁소","coordinates":[127.404701522224,36.3232036754556],"sales":{"202602":391}},{"id":"MA010120220803271866","name":"가오스노래연습장","industry":"노래방","coordinates":[127.409798397703,36.3225104265003],"sales":{"202602":435}},{"id":"MA010120220803282006","name":"나두나두토스트앤도시락","industry":"피자","coordinates":[127.407855805131,36.3258514292448],"sales":{"202602":741}},{"id":"MA010120220803290973","name":"이것이생선구이다","industry":"해산물 구이/찜","coordinates":[127.407848017384,36.3222197083465],"sales":{"202602":2209}},{"id":"MA010120220803303622","name":"더180","industry":"자동차 세차장","coordinates":[127.403305510011,36.3267590353198],"sales":{"202602":158}},{"id":"MA010120220803322671","name":"더달달","industry":"슈퍼마켓","coordinates":[127.408406469803,36.3225332139806],"sales":{"202602":2620}},{"id":"MA010120220803352290","name":"삼성식당","industry":"백반/한정식","coordinates":[127.410171463777,36.3235725370783],"sales":{"202602":1053}},{"id":"MA010120220803366482","name":"시라비타커피","industry":"카페","coordinates":[127.406041999799,36.3218473619541],"sales":{"202602":1094}},{"id":"MA010120220803385533","name":"올레단란주점","industry":"요리 주점","coordinates":[127.405809029675,36.3220193770029],"sales":{"202602":239}},{"id":"MA010120220803396180","name":"스피드메이트대전","industry":"자동차 정비소","coordinates":[127.402265507286,36.3280962829681],"sales":{"202602":2266}},{"id":"MA010120220803412770","name":"맘스터치","industry":"버거","coordinates":[127.407129633239,36.3211317314545],"sales":{"202602":3700}},{"id":"MA010120220803439737","name":"잭","industry":"요리 주점","coordinates":[127.405585933922,36.3219480399223],"sales":{"202602":858}},{"id":"MA010120220803550576","name":"과일은달당","industry":"채소/과일 소매업","coordinates":[127.403516844958,36.3288670776566],"sales":{"202602":1007}},{"id":"MA010120220803579343","name":"나래소방","industry":"그 외 기타 상품 전문 소매업","coordinates":[127.405529086246,36.3217229381877],"sales":{"202602":2280}},{"id":"MA010120220803674566","name":"마초비어","industry":"생맥주 전문","coordinates":[127.408379542876,36.3216411394545],"sales":{"202602":1421}},{"id":"MA010120220803855085","name":"후시스템에어컨","industry":"가전제품 수리업","coordinates":[127.400638428646,36.3300663148628],"sales":{"202602":258}},{"id":"MA010120220803864734","name":"라면타임","industry":"김밥/만두/분식","coordinates":[127.405188439635,36.3226072482171],"sales":{"202602":1553}},{"id":"MA010120220803982931","name":"세븐일레븐","industry":"편의점","coordinates":[127.404140661437,36.3288920053274],"sales":{"202602":3551}},{"id":"MA010120220804048230","name":"세븐데이즈슈가왁싱","industry":"피부 관리실","coordinates":[127.41003263501,36.3225817174773],"sales":{"202602":318}},{"id":"MA010120220804079512","name":"OK상사","industry":"자동차 부품 소매업","coordinates":[127.402056661913,36.3264658539553],"sales":{"202602":2891}},{"id":"MA010120220804199982","name":"김무삼","industry":"돼지고기 구이/찜","coordinates":[127.409532638291,36.3227997143406],"sales":{"202602":1120}},{"id":"MA010120220804207480","name":"곰수산종합수산물센터","industry":"횟집","coordinates":[127.402496463916,36.3275277635368],"sales":{"202602":1968}},{"id":"MA010120220804231222","name":"예담공방","industry":"기념품점","coordinates":[127.41045406155,36.3222468351788],"sales":{"202602":760}},{"id":"MA010120220804311439","name":"에듀코치개별지도문화학원","industry":"입시·교과학원","coordinates":[127.409829541442,36.3220777541754],"sales":{"202602":531}},{"id":"MA010120220804337412","name":"올바른찬","industry":"반찬/식료품 소매업","coordinates":[127.407432696903,36.321590299852],"sales":{"202602":929}},{"id":"MA010120220804391120","name":"제이엘","industry":"화장품 소매업","coordinates":[127.403288437484,36.3277684119486],"sales":{"202602":144}},{"id":"MA010120220804404058","name":"스마트해법영어대전지사","industry":"입시·교과학원","coordinates":[127.404713543819,36.3233748586206],"sales":{"202602":206}},{"id":"MA010120220804472763","name":"택이네조개전골","industry":"해산물 구이/찜","coordinates":[127.409037888479,36.32189121837],"sales":{"202602":1002}},{"id":"MA010120220804545749","name":"수노래연습장","industry":"노래방","coordinates":[127.410012345236,36.3229602818987],"sales":{"202602":715}},{"id":"MA010120220804577377","name":"쌈주머니","industry":"백반/한정식","coordinates":[127.403955298409,36.3231881760778],"sales":{"202602":1977}},{"id":"MA010120220804578953","name":"팰리스헤어","industry":"미용실","coordinates":[127.405188439635,36.3226072482171],"sales":{"202602":344}},{"id":"MA010120220804598305","name":"둔산복지용구","industry":"의료기기 소매업","coordinates":[127.402749922739,36.327004226683],"sales":{"202602":329}},{"id":"MA010120220804720578","name":"커피드림","industry":"카페","coordinates":[127.406544301436,36.3263605567418],"sales":{"202602":855}},{"id":"MA010120220804773643","name":"에이비엠경영컨설팅","industry":"경영 컨설팅업","coordinates":[127.41045406155,36.3222468351788],"sales":{"202602":2517}},{"id":"MA010120220804823424","name":"신화","industry":"핸드폰 소매업","coordinates":[127.407609841274,36.3213914366663],"sales":{"202602":57}},{"id":"MA010120220804861540","name":"늘행복공인중개사사무소","industry":"부동산 중개/대리업","coordinates":[127.408852623025,36.3226668655047],"sales":{"202602":571}},{"id":"MA010120220804883463","name":"카페루앤비대전","industry":"카페","coordinates":[127.410566793673,36.322507789698],"sales":{"202602":428}},{"id":"MA010120220804921867","name":"스프링거","industry":"컴퓨터/노트북/프린터 수리업","coordinates":[127.406100523669,36.3245416860114],"sales":{"202602":526}},{"id":"MA010120220805115228","name":"에스제이컴퍼니","industry":"컴퓨터/노트북/프린터 수리업","coordinates":[127.403603461343,36.3262263346997],"sales":{"202602":638}},{"id":"MA010120220805133964","name":"정통집","industry":"돼지고기 구이/찜","coordinates":[127.410447036539,36.3230308842959],"sales":{"202602":863}},{"id":"MA010120220805143283","name":"카페나의이야기","industry":"카페","coordinates":[127.408648737017,36.3220097025816],"sales":{"202602":1779}},{"id":"MA010120220805144021","name":"지에스25","industry":"편의점","coordinates":[127.410152205381,36.3220225767599],"sales":{"202602":2811}},{"id":"MA010120220805239104","name":"해드림김밥","industry":"김밥/만두/분식","coordinates":[127.408137274974,36.3221646503445],"sales":{"202602":589}},{"id":"MA010120220805240734","name":"팡팡노래연습장","industry":"노래방","coordinates":[127.410501772547,36.3228504607094],"sales":{"202602":557}},{"id":"MA010120220805262264","name":"황진이노래연습장","industry":"노래방","coordinates":[127.410337044103,36.3232926035804],"sales":{"202602":428}},{"id":"MA010120220805298328","name":"서산콩쥐식당","industry":"요리 주점","coordinates":[127.407432696903,36.321590299852],"sales":{"202602":1721}},{"id":"MA010120220805319164","name":"유니콘애니메이션스튜디오","industry":"시각 디자인업","coordinates":[127.41045406155,36.3222468351788],"sales":{"202602":798}},{"id":"MA010120220805328255","name":"1909커피","industry":"카페","coordinates":[127.405246997155,36.3274643989615],"sales":{"202602":1376}},{"id":"MA010120220805340359","name":"9회말스크린야구존","industry":"전자 게임장","coordinates":[127.410758756874,36.3230117899428],"sales":{"202602":5130}},{"id":"MA010120220805364095","name":"다다제과점","industry":"빵/도넛","coordinates":[127.407432696903,36.321590299852],"sales":{"202602":1204}},{"id":"MA010120220805384111","name":"청담플란트치과의원","industry":"치과의원","coordinates":[127.407609841274,36.3213914366663],"sales":{"202602":2487}},{"id":"MA010120220805431842","name":"다솜","industry":"결혼 상담 서비스업","coordinates":[127.41045406155,36.3222468351788],"sales":{"202602":4633}},{"id":"MA010120220805473464","name":"선화동한가네닭발","industry":"요리 주점","coordinates":[127.406796958733,36.3214032176177],"sales":{"202602":3251}},{"id":"MA010120220805543106","name":"킹당구클럽","industry":"당구장","coordinates":[127.410566793673,36.322507789698],"sales":{"202602":151}},{"id":"MA010120220805605559","name":"컴퓨터수리","industry":"그 외 기타 개인/가정용품 수리업","coordinates":[127.402573993901,36.3296092225226],"sales":{"202602":234}},{"id":"MA010120220805738442","name":"충남영창피아노","industry":"악기 소매업","coordinates":[127.408568385401,36.3215503762967],"sales":{"202602":275}},{"id":"MA010120220805738930","name":"월드파크,목욕탕","industry":"목욕탕/사우나","coordinates":[127.403658075885,36.3260188793649],"sales":{"202602":2590}},{"id":"MA010120220805738964","name":"중화루","industry":"중국집","coordinates":[127.405222687974,36.3227693442158],"sales":{"202602":3413}},{"id":"MA010120220805739052","name":"임문택약국","industry":"약국","coordinates":[127.40651640542,36.320989629956],"sales":{"202602":6183}},{"id":"MA010120220805739152","name":"평화미용실","industry":"미용실","coordinates":[127.407311466471,36.3218340311757],"sales":{"202602":259}},{"id":"MA010120220805739524","name":"삼흥카써비스","industry":"자동차 정비소","coordinates":[127.402274725742,36.3298895951155],"sales":{"202602":1851}},{"id":"MA010120220805739934","name":"식사일번지","industry":"백반/한정식","coordinates":[127.403415252074,36.3264432527508],"sales":{"202602":567}},{"id":"MA010120220805739969","name":"수연이네","industry":"치킨","coordinates":[127.407746149169,36.3219046434636],"sales":{"202602":370}},{"id":"MA010120220805740836","name":"이조식당","industry":"백반/한정식","coordinates":[127.41045406155,36.3222468351788],"sales":{"202602":1053}},{"id":"MA010120220805741264","name":"승현미뷰티","industry":"화장품 소매업","coordinates":[127.408852623025,36.3226668655047],"sales":{"202602":1200}},{"id":"MA010120220805741592","name":"대일사","industry":"자동차 부품 소매업","coordinates":[127.405023634974,36.323040372345],"sales":{"202602":1617}},{"id":"MA010120220805741715","name":"청양농수산물","industry":"채소/과일 소매업","coordinates":[127.407746149169,36.3219046434636],"sales":{"202602":723}},{"id":"MA010120220805742136","name":"진영전자","industry":"전기용품/조명장치 소매업","coordinates":[127.41045406155,36.3222468351788],"sales":{"202602":654}},{"id":"MA010120220805742358","name":"낙원음향，조명","industry":"전시/컨벤션/행사 대행 서비스업","coordinates":[127.400665963307,36.3310935646725],"sales":{"202602":1523}},{"id":"MA010120220805742449","name":"제이에스유통","industry":"건강보조식품 소매업","coordinates":[127.406638819706,36.3252607982985],"sales":{"202602":1320}},{"id":"MA010120220805743608","name":"센트리아슈퍼","industry":"슈퍼마켓","coordinates":[127.41045406155,36.3222468351788],"sales":{"202602":6621}},{"id":"MA010120220805743727","name":"현대정보","industry":"컴퓨터/노트북/프린터 수리업","coordinates":[127.403667836864,36.3279113196385],"sales":{"202602":701}},{"id":"MA010120220805744200","name":"무겐식당","industry":"김밥/만두/분식","coordinates":[127.40492228981,36.3228244329114],"sales":{"202602":245}},{"id":"MA010120220805746196","name":"이탈리아노","industry":"가구 소매업","coordinates":[127.410562369601,36.3237874777592],"sales":{"202602":1095}},{"id":"MA010120220805748586","name":"가뜨랑","industry":"요리 주점","coordinates":[127.406384504885,36.3213235145061],"sales":{"202602":1141}},{"id":"MA010120220805748681","name":"삼대째손두부2","industry":"백반/한정식","coordinates":[127.407833688471,36.3216069559568],"sales":{"202602":502}},{"id":"MA010120220805748719","name":"신짬뽕","industry":"중국집","coordinates":[127.401628581094,36.329855720988],"sales":{"202602":1252}},{"id":"MA010120220805748877","name":"엠디","industry":"명함/간판/광고물 제작","coordinates":[127.404258979719,36.3280805454694],"sales":{"202602":1452}},{"id":"MA010120220805750056","name":"꽃마차낙지볶음","industry":"해산물 구이/찜","coordinates":[127.409798397703,36.3225104265003],"sales":{"202602":3081}},{"id":"MA010120220805751286","name":"세븐대전나루터점","industry":"편의점","coordinates":[127.410471010327,36.3233552260778],"sales":{"202602":552}},{"id":"MA010120220805751307","name":"물이야술이야","industry":"요리 주점","coordinates":[127.40948686768,36.3225655648214],"sales":{"202602":1206}},{"id":"MA010120220805751322","name":"코스모악기점","industry":"악기 소매업","coordinates":[127.403848654995,36.326261553626],"sales":{"202602":238}},{"id":"MA010120220805752257","name":"닥터랩","industry":"가전제품 소매업","coordinates":[127.404787581604,36.3204638015122],"sales":{"202602":5219}},{"id":"MA010120220805752280","name":"중앙카독크","industry":"자동차 정비소","coordinates":[127.405449640089,36.3214348305764],"sales":{"202602":146}},{"id":"MA010120220805752447","name":"정우의료기","industry":"의료기기 소매업","coordinates":[127.410152205381,36.3220225767599],"sales":{"202602":1188}},{"id":"MA010120220805752822","name":"낙영칼국수","industry":"국수/칼국수","coordinates":[127.402673718564,36.3295097570801],"sales":{"202602":639}},{"id":"MA010120220805752833","name":"한국종합건축사사무소","industry":"건축 설계 및 관련 서비스업","coordinates":[127.408729889564,36.3226222263343],"sales":{"202602":431}},{"id":"MA010120220805753007","name":"삼성관식당","industry":"중국집","coordinates":[127.406638819706,36.3252607982985],"sales":{"202602":1204}},{"id":"MA010120220805753469","name":"아이노벨","industry":"사진촬영업","coordinates":[127.404383933329,36.3220872891424],"sales":{"202602":219}},{"id":"MA010120220805753614","name":"파란신호등","industry":"백반/한정식","coordinates":[127.407826402444,36.3223459470569],"sales":{"202602":2630}},{"id":"MA010120220805753943","name":"해피투어","industry":"여행사","coordinates":[127.405154051507,36.3224181173267],"sales":{"202602":3073}},{"id":"MA010120220805754295","name":"시장분식","industry":"김밥/만두/분식","coordinates":[127.406686628555,36.3216018523022],"sales":{"202602":361}},{"id":"MA010120220805755240","name":"카스광장","industry":"요리 주점","coordinates":[127.406850812147,36.3210515747211],"sales":{"202602":483}},{"id":"MA010120220805755590","name":"원빨래세탁소","industry":"세탁소","coordinates":[127.408580368122,36.3217125474454],"sales":{"202602":195}},{"id":"MA010120220805755610","name":"대중이용원","industry":"미용실","coordinates":[127.403827869524,36.3265500007519],"sales":{"202602":422}},{"id":"MA010120220805755614","name":"모범이용원","industry":"미용실","coordinates":[127.408228055936,36.3224887645232],"sales":{"202602":330}},{"id":"MA010120220805755637","name":"화신사부동산중개사무소","industry":"부동산 중개/대리업","coordinates":[127.403519371325,36.3250370637357],"sales":{"202602":182}},{"id":"MA010120220805755686","name":"조이당구장","industry":"당구장","coordinates":[127.407947725977,36.3221202384827],"sales":{"202602":111}},{"id":"MA010120220805755710","name":"새로남기사식당","industry":"백반/한정식","coordinates":[127.40188793083,36.3304766615659],"sales":{"202602":1047}},{"id":"MA010120220805755711","name":"유명약국","industry":"약국","coordinates":[127.410152205381,36.3220225767599],"sales":{"202602":11289}},{"id":"MA010120220805755713","name":"삼성귀금속","industry":"시계/귀금속 소매업","coordinates":[127.406638819706,36.3252607982985],"sales":{"202602":1048}},{"id":"MA010120220805755718","name":"한영식당","industry":"백반/한정식","coordinates":[127.410760884994,36.3234173127556],"sales":{"202602":620}},{"id":"MA010120220805755725","name":"강화해물탕","industry":"국/탕/찌개류","coordinates":[127.406807251755,36.3212409704624],"sales":{"202602":1188}},{"id":"MA010120220805755730","name":"육일인쇄사","industry":"명함/간판/광고물 제작","coordinates":[127.408170166449,36.3220654084197],"sales":{"202602":1135}},{"id":"MA010120220805756028","name":"골드리아","industry":"시계/귀금속 소매업","coordinates":[127.408629522703,36.3225955341417],"sales":{"202602":2152}},{"id":"MA010120220805756159","name":"합동카인테리어","industry":"자동차 정비소","coordinates":[127.403020640635,36.3276701856762],"sales":{"202602":2390}},{"id":"MA010120220805756171","name":"금호타이어유일","industry":"타이어 소매업","coordinates":[127.402349257656,36.3292224729759],"sales":{"202602":1993}},{"id":"MA010120220805756187","name":"광산방역공사","industry":"소독, 구충 및 방제 서비스업","coordinates":[127.403305510011,36.3267590353198],"sales":{"202602":89}},{"id":"MA010120220805758138","name":"오리엔탈모텔","industry":"여관/모텔","coordinates":[127.405806927317,36.3216138538446],"sales":{"202602":818}},{"id":"MA010120220805758242","name":"자동차매직칼라매치","industry":"자동차 정비소","coordinates":[127.401707501853,36.3278728652407],"sales":{"202602":581}},{"id":"MA010120220805758250","name":"펌&컷헤어","industry":"미용실","coordinates":[127.405731917698,36.3221818508811],"sales":{"202602":261}},{"id":"MA010120220805759600","name":"프로포즈모텔","industry":"여관/모텔","coordinates":[127.405861673082,36.3214334322788],"sales":{"202602":665}},{"id":"MA010120220805759695","name":"금비동물병원","industry":"동물병원","coordinates":[127.407988418907,36.3213811333321],"sales":{"202602":2944}},{"id":"MA010120220805760344","name":"옹기마을","industry":"돼지고기 구이/찜","coordinates":[127.405779278099,36.3270210160673],"sales":{"202602":1454}},{"id":"MA010120220805761243","name":"지코바치킨","industry":"치킨","coordinates":[127.403415252074,36.3264432527508],"sales":{"202602":1370}},{"id":"MA010120220805762610","name":"세이항공여행사","industry":"여행사","coordinates":[127.41045406155,36.3222468351788],"sales":{"202602":2462}},{"id":"MA010120220805763292","name":"오류장여관","industry":"여관/모텔","coordinates":[127.40267298505,36.3272027450072],"sales":{"202602":299}},{"id":"MA010120220805763629","name":"동신부동산","industry":"부동산 중개/대리업","coordinates":[127.410079540365,36.3230321456389],"sales":{"202602":376}},{"id":"MA010120220805763692","name":"뚜레쥬르오류","industry":"빵/도넛","coordinates":[127.409796461708,36.3242677303624],"sales":{"202602":2260}},{"id":"MA010120220805763701","name":"오크마운틴가구","industry":"가구 소매업","coordinates":[127.411580753926,36.322612444041],"sales":{"202602":2073}},{"id":"MA010120220805765884","name":"신삼성이용원","industry":"미용실","coordinates":[127.406638819706,36.3252607982985],"sales":{"202602":221}},{"id":"MA010120220805768361","name":"삼성식품","industry":"채소/과일 소매업","coordinates":[127.407311466471,36.3218340311757],"sales":{"202602":1066}},{"id":"MA010120220805768626","name":"류진희산부인과","industry":"건강보조식품 소매업","coordinates":[127.409829541442,36.3220777541754],"sales":{"202602":1076}},{"id":"MA010120220805768968","name":"삼성안경원","industry":"안경렌즈 소매업","coordinates":[127.406638819706,36.3252607982985],"sales":{"202602":720}},{"id":"MA010120220805769179","name":"대전독일보청기","industry":"의료기기 소매업","coordinates":[127.410152205381,36.3220225767599],"sales":{"202602":687}},{"id":"MA010120220805769588","name":"삼성떡집","industry":"떡/한과","coordinates":[127.406638819706,36.3252607982985],"sales":{"202602":3129}},{"id":"MA010120220805770532","name":"아델리아","industry":"여관/모텔","coordinates":[127.406416930363,36.3211341567777],"sales":{"202602":2449}},{"id":"MA010120220805770672","name":"수미감자탕","industry":"국/탕/찌개류","coordinates":[127.404701522224,36.3232036754556],"sales":{"202602":3973}},{"id":"MA010120220805771807","name":"남도여인숙","industry":"여관/모텔","coordinates":[127.404194433126,36.3220518829406],"sales":{"202602":2258}},{"id":"MA010120220805771946","name":"제우공인중개사사무소","industry":"부동산 중개/대리업","coordinates":[127.406638819706,36.3252607982985],"sales":{"202602":596}},{"id":"MA010120220805772323","name":"오라클코스메틱","industry":"화장품 소매업","coordinates":[127.409561378855,36.3219074494226],"sales":{"202602":447}},{"id":"MA010120220805772452","name":"오류옥천가2","industry":"돼지고기 구이/찜","coordinates":[127.406599693423,36.322016690117],"sales":{"202602":2321}},{"id":"MA010120220805772602","name":"참도너츠","industry":"빵/도넛","coordinates":[127.405731917698,36.3221818508811],"sales":{"202602":1497}},{"id":"MA010120220805774571","name":"삼성왕갈비","industry":"돼지고기 구이/찜","coordinates":[127.40698992576,36.3221054799118],"sales":{"202602":1367}},{"id":"MA010120220805777268","name":"리츠공인중개사","industry":"부동산 중개/대리업","coordinates":[127.41045406155,36.3222468351788],"sales":{"202602":431}},{"id":"MA010120220805777356","name":"한국도자기대전","industry":"주방/가정용품 소매업","coordinates":[127.409405285077,36.3218719370201],"sales":{"202602":580}},{"id":"MA010120220805777511","name":"중앙종합장식","industry":"벽지/장판/마루 소매업","coordinates":[127.405477420494,36.3224981268835],"sales":{"202602":129}},{"id":"MA010120220805778093","name":"새봄약국","industry":"약국","coordinates":[127.409796461708,36.3242677303624],"sales":{"202602":10086}},{"id":"MA010120220805778221","name":"궁전가든","industry":"백반/한정식","coordinates":[127.405601836219,36.3271658067555],"sales":{"202602":2089}},{"id":"MA010120220805778848","name":"라이카스튜디오사진관","industry":"사진촬영업","coordinates":[127.410012345236,36.3229602818987],"sales":{"202602":209}},{"id":"MA010120220805779191","name":"건축사사무소예림","industry":"건축 설계 및 관련 서비스업","coordinates":[127.41045406155,36.3222468351788],"sales":{"202602":2403}},{"id":"MA010120220805779983","name":"최강모터스","industry":"자동차 정비소","coordinates":[127.405418705722,36.3219125600884],"sales":{"202602":569}},{"id":"MA010120220805780046","name":"아이든소아청소년과","industry":"건강보조식품 소매업","coordinates":[127.409829541442,36.3220777541754],"sales":{"202602":955}},{"id":"MA010120220805780339","name":"저녁노을","industry":"횟집","coordinates":[127.406599693423,36.322016690117],"sales":{"202602":1025}},{"id":"MA010120220805780879","name":"진성아구찜","industry":"해산물 구이/찜","coordinates":[127.408783405635,36.3222075013359],"sales":{"202602":2443}},{"id":"MA010120220805781005","name":"소문난애견","industry":"애완동물/애완용품 소매업","coordinates":[127.403767397097,36.3256219918487],"sales":{"202602":464}},{"id":"MA010120220805781303","name":"공주칼국수쭈꾸미마당","industry":"국수/칼국수","coordinates":[127.41018208062,36.3234733710626],"sales":{"202602":1525}},{"id":"MA010120220805781909","name":"길커뮤니케이션","industry":"전시/컨벤션/행사 대행 서비스업","coordinates":[127.40096385654,36.3305428475678],"sales":{"202602":1917}},{"id":"MA010120220805782016","name":"뷰티그레이스아카데미","industry":"화장품 소매업","coordinates":[127.41045406155,36.3222468351788],"sales":{"202602":228}},{"id":"MA010120220805782420","name":"장어랑송어랑","industry":"해산물 구이/찜","coordinates":[127.406686628555,36.3216018523022],"sales":{"202602":2698}},{"id":"MA010120220805782922","name":"김도헌갤러리","industry":"가구 소매업","coordinates":[127.411580753926,36.322612444041],"sales":{"202602":1361}},{"id":"MA010120220805784125","name":"가구연금매장","industry":"가구 소매업","coordinates":[127.411580753926,36.322612444041],"sales":{"202602":2926}},{"id":"MA010120220805785531","name":"어두리","industry":"횟집","coordinates":[127.406051079021,36.3214508125937],"sales":{"202602":1638}},{"id":"MA010120220805785665","name":"아리따움","industry":"화장품 소매업","coordinates":[127.407854645851,36.3213545544942],"sales":{"202602":623}},{"id":"MA010120220805785706","name":"퀼트인","industry":"기타 기술/직업 훈련학원","coordinates":[127.406638819706,36.3252607982985],"sales":{"202602":863}},{"id":"MA010120220805785758","name":"새손병원","industry":"일반병원","coordinates":[127.409796461708,36.3242677303624],"sales":{"202602":60828}},{"id":"MA010120220805785799","name":"서대전함소아한의원","industry":"한의원","coordinates":[127.411060571282,36.3232270351397],"sales":{"202602":3319}},{"id":"MA010120220805785880","name":"서대전미치과","industry":"치과의원","coordinates":[127.411404422175,36.3229645105273],"sales":{"202602":1235}},{"id":"MA010120220805786607","name":"피자일","industry":"피자","coordinates":[127.403696393967,36.324811171482],"sales":{"202602":749}},{"id":"MA010120220805786938","name":"연합비뇨기과의원","industry":"피부/비뇨기과 의원","coordinates":[127.405604545112,36.32768848057],"sales":{"202602":10057}},{"id":"MA010120220805786964","name":"이민호베이스볼","industry":"요가/필라테스 학원","coordinates":[127.408931822638,36.3250366927828],"sales":{"202602":1806}},{"id":"MA010120220805787651","name":"강산컨테이너","industry":"기타 운송장비 대여업","coordinates":[127.402767830834,36.3283198857195],"sales":{"202602":845}},{"id":"MA010120220805788432","name":"대전한지공예","industry":"예술품 소매업","coordinates":[127.407132867321,36.3217535335673],"sales":{"202602":506}},{"id":"MA010120220805789717","name":"프리죤","industry":"요리 주점","coordinates":[127.404673891782,36.3221674139083],"sales":{"202602":819}},{"id":"MA010120220805790040","name":"윤영미용실","industry":"미용실","coordinates":[127.408137274974,36.3221646503445],"sales":{"202602":584}},{"id":"MA010120220805790670","name":"정현헤어아트","industry":"미용실","coordinates":[127.408228055936,36.3224887645232],"sales":{"202602":235}},{"id":"MA010120220805790819","name":"메종드프레정","industry":"화장품 소매업","coordinates":[127.403283825088,36.3225506067948],"sales":{"202602":201}},{"id":"MA010120220805790960","name":"한솥도시락","industry":"백반/한정식","coordinates":[127.411060571282,36.3232270351397],"sales":{"202602":579}},{"id":"MA010120220805791087","name":"행복요가원","industry":"요가/필라테스 학원","coordinates":[127.404625105583,36.3235013229782],"sales":{"202602":957}},{"id":"MA010120220805791584","name":"고은도예","industry":"기타 예술/스포츠 교육기관","coordinates":[127.408729889564,36.3226222263343],"sales":{"202602":334}},{"id":"MA010120220805791869","name":"쌍대박","industry":"요리 주점","coordinates":[127.407445052539,36.3218245641199],"sales":{"202602":586}},{"id":"MA010120220805791920","name":"유승모터스","industry":"자동차 정비소","coordinates":[127.400976425378,36.3308221703535],"sales":{"202602":1071}},{"id":"MA010120220805792005","name":"노블","industry":"요리 주점","coordinates":[127.409932078987,36.3225189799009],"sales":{"202602":447}},{"id":"MA010120220805792039","name":"행복한분식","industry":"김밥/만두/분식","coordinates":[127.407311466471,36.3218340311757],"sales":{"202602":1066}},{"id":"MA010120220805792059","name":"민약국","industry":"약국","coordinates":[127.407609841274,36.3213914366663],"sales":{"202602":11729}},{"id":"MA010120220805792329","name":"다비치안경서대전네","industry":"안경렌즈 소매업","coordinates":[127.411580753926,36.322612444041],"sales":{"202602":791}},{"id":"MA010120220805792619","name":"상하이양꼬치","industry":"중국집","coordinates":[127.409653297296,36.3224478413933],"sales":{"202602":1054}},{"id":"MA010120220805793265","name":"씬스1896하우스카페","industry":"카페","coordinates":[127.402895441433,36.3293107508641],"sales":{"202602":1778}},{"id":"MA010120220805794105","name":"락단란주점","industry":"요리 주점","coordinates":[127.406296445844,36.3215220731173],"sales":{"202602":621}},{"id":"MA010120220805794118","name":"락노래연습장","industry":"노래방","coordinates":[127.406296445844,36.3215220731173],"sales":{"202602":261}},{"id":"MA010120220805794320","name":"우주피엔씨대전","industry":"컴퓨터/소프트웨어 소매업","coordinates":[127.41045406155,36.3222468351788],"sales":{"202602":243}},{"id":"MA010120220805794802","name":"더블유피부과의원","industry":"피부/비뇨기과 의원","coordinates":[127.409561378855,36.3219074494226],"sales":{"202602":8160}},{"id":"MA010120220805795273","name":"마이블럭","industry":"레크리에이션 교육기관","coordinates":[127.406638819706,36.3252607982985],"sales":{"202602":126}},{"id":"MA010120220805795585","name":"말자오류점","industry":"요리 주점","coordinates":[127.409977614896,36.3227080711447],"sales":{"202602":528}},{"id":"MA010120220805795838","name":"아르테사노","industry":"미용실","coordinates":[127.40371245772,36.3257663658893],"sales":{"202602":453}},{"id":"MA010120220805796276","name":"홍가닭","industry":"치킨","coordinates":[127.408406469803,36.3225332139806],"sales":{"202602":456}},{"id":"MA010120220805796492","name":"설빙문화","industry":"아이스크림/빙수","coordinates":[127.407609841274,36.3213914366663],"sales":{"202602":1278}},{"id":"MA010120220805796720","name":"벌집녹두삼계탕","industry":"국/탕/찌개류","coordinates":[127.408505237467,36.3222535112197],"sales":{"202602":1692}},{"id":"MA010120220805797146","name":"참이맛감자탕","industry":"국/탕/찌개류","coordinates":[127.408758686293,36.3217389731476],"sales":{"202602":2011}},{"id":"MA010120220805797292","name":"커피파르달","industry":"카페","coordinates":[127.403283825088,36.3225506067948],"sales":{"202602":1463}},{"id":"MA010120220805797322","name":"한밭가구유통","industry":"가구 소매업","coordinates":[127.411580753926,36.322612444041],"sales":{"202602":1065}},{"id":"MA010120220805797392","name":"오렌지애드","industry":"문구/회화용품 소매업","coordinates":[127.41045406155,36.3222468351788],"sales":{"202602":3298}},{"id":"MA010120220805797548","name":"한국관식당","industry":"백반/한정식","coordinates":[127.41045406155,36.3222468351788],"sales":{"202602":1538}},{"id":"MA010120220805798275","name":"우신환경","industry":"건축물 일반 청소업","coordinates":[127.41045406155,36.3222468351788],"sales":{"202602":534}},{"id":"MA010120220805798553","name":"족의보감","industry":"백반/한정식","coordinates":[127.410917124388,36.3234798582075],"sales":{"202602":718}},{"id":"MA010120220805798668","name":"하나참치","industry":"일식 회/초밥","coordinates":[127.406531519499,36.3217555802601],"sales":{"202602":998}},{"id":"MA010120220805798925","name":"안경매니져","industry":"안경렌즈 소매업","coordinates":[127.408931822638,36.3250366927828],"sales":{"202602":1279}},{"id":"MA010120220805810061","name":"선우항공여행사","industry":"여행사","coordinates":[127.408379542876,36.3216411394545],"sales":{"202602":2150}},{"id":"MA010120220805810142","name":"씨케이주","industry":"옥외/전시 광고 대행업","coordinates":[127.41045406155,36.3222468351788],"sales":{"202602":440}},{"id":"MA010120220805812731","name":"하영비엠씨","industry":"상용 인력 공급 및 인사관리 서비스업","coordinates":[127.41045406155,36.3222468351788],"sales":{}},{"id":"MA010120220805813860","name":"인구보건복지협회대전충남지회","industry":"방사선 진단/병리 검사 의원","coordinates":[127.402782724802,36.3290497893073],"sales":{"202602":9868}},{"id":"MA010120220805814463","name":"건강카페하나","industry":"카페","coordinates":[127.406901847996,36.3265846345193],"sales":{"202602":701}},{"id":"MA010120220805815367","name":"중도가스서대전영업소주","industry":"가스 충전소","coordinates":[127.402789136364,36.3259677400357],"sales":{"202602":13642}},{"id":"MA010120220805815397","name":"젠한국(ZEN)대전주","industry":"주방/가정용품 소매업","coordinates":[127.408520946761,36.3252633922241],"sales":{"202602":2198}},{"id":"MA010120220805815927","name":"나이스세무법인대전지사","industry":"세무사","coordinates":[127.41045406155,36.3222468351788],"sales":{"202602":1625}},{"id":"MA010120220805815951","name":"세븐대전세이점주","industry":"편의점","coordinates":[127.408228055936,36.3224887645232],"sales":{"202602":1552}},{"id":"MA010120220805815994","name":"한국기업진흥원주","industry":"경영 컨설팅업","coordinates":[127.41045406155,36.3222468351788],"sales":{"202602":5325}},{"id":"MA010120220805816062","name":"사람마중중부지역본부주","industry":"임시/일용 인력 공급업","coordinates":[127.408244318777,36.3256067849214],"sales":{}},{"id":"MA010120220805816318","name":"제이비플러스","industry":"시장 조사 및 여론 조사업","coordinates":[127.407855805131,36.3258514292448],"sales":{}},{"id":"MA010120220805816750","name":"세종에이치알주","industry":"상용 인력 공급 및 인사관리 서비스업","coordinates":[127.408244318777,36.3256067849214],"sales":{}},{"id":"MA010120220805816799","name":"에스텍세이프","industry":"상용 인력 공급 및 인사관리 서비스업","coordinates":[127.404140661437,36.3288920053274],"sales":{}},{"id":"MA010120220805816850","name":"나라재무장부","industry":"가전제품 소매업","coordinates":[127.41045406155,36.3222468351788],"sales":{"202602":3735}},{"id":"MA010120220805817145","name":"씨씨","industry":"여행사","coordinates":[127.406244779243,36.3265868695523],"sales":{"202602":2525}},{"id":"MA010120220805817655","name":"리더스피아","industry":"부동산 중개/대리업","coordinates":[127.41045406155,36.3222468351788],"sales":{"202602":439}},{"id":"MA010120220805818020","name":"머큐리알엔에스주","industry":"사업시설 유지·관리 서비스업","coordinates":[127.404339685636,36.328611967204],"sales":{"202602":1110}},{"id":"MA010120220805818021","name":"나라플랫폼","industry":"복사업","coordinates":[127.41045406155,36.3222468351788],"sales":{"202602":240}},{"id":"MA010120220805818069","name":"나눔복지협동조합","industry":"경영 컨설팅업","coordinates":[127.41045406155,36.3222468351788],"sales":{"202602":3751}},{"id":"MA010120220805818669","name":"다사랑결혼정보주","industry":"결혼 상담 서비스업","coordinates":[127.405154051507,36.3224181173267],"sales":{"202602":3398}},{"id":"MA010120220805818847","name":"스마트전기소방","industry":"기타 기술/직업 훈련학원","coordinates":[127.406216248839,36.3210897800025],"sales":{"202602":624}},{"id":"MA010120220805819072","name":"워크베이주","industry":"상용 인력 공급 및 인사관리 서비스업","coordinates":[127.41045406155,36.3222468351788],"sales":{}},{"id":"MA010120220805819785","name":"도원인베스트먼트","industry":"그 외 기타 상품 전문 소매업","coordinates":[127.405154051507,36.3224181173267],"sales":{"202602":1421}},{"id":"MA010120220805827929","name":"유정식당","industry":"백반/한정식","coordinates":[127.404968201958,36.3273932496697],"sales":{"202602":985}},{"id":"MA010120220805849540","name":"올리브","industry":"골프 연습장","coordinates":[127.407855805131,36.3258514292448],"sales":{"202602":339}},{"id":"MA010120220805862597","name":"귀빈항공여행사자","industry":"여행사","coordinates":[127.407855805131,36.3258514292448],"sales":{"202602":1515}},{"id":"MA010120220805868872","name":"큐모텔","industry":"여관/모텔","coordinates":[127.405763317381,36.3217942375798],"sales":{"202602":788}},{"id":"MA010120220805909704","name":"궁전모텔","industry":"여관/모텔","coordinates":[127.406139091852,36.3212432425313],"sales":{"202602":274}},{"id":"MA010120220805935930","name":"하얀피부스킨케어","industry":"화장품 소매업","coordinates":[127.406995767183,36.3210871283988],"sales":{"202602":138}},{"id":"MA010120220806143158","name":"양재기와주전자식당","industry":"요리 주점","coordinates":[127.406811654159,36.3220880631983],"sales":{"202602":241}},{"id":"MA010120220806143778","name":"태영막창","industry":"곱창 전골/구이","coordinates":[127.406631276003,36.321665123105],"sales":{"202602":1309}},{"id":"MA010120220806170488","name":"코지안가구","industry":"가구 소매업","coordinates":[127.411580753926,36.322612444041],"sales":{"202602":385}},{"id":"MA010120220806172282","name":"신화영상","industry":"사진촬영업","coordinates":[127.402153535475,36.3279795066697],"sales":{"202602":161}},{"id":"MA010120220806172287","name":"한국정신과학연구회","industry":"음반/비디오물 소매업","coordinates":[127.41045406155,36.3222468351788],"sales":{}},{"id":"MA010120220806173493","name":"떠오름디자인","industry":"명함/간판/광고물 제작","coordinates":[127.402055134187,36.3261684703926],"sales":{"202602":1105}},{"id":"MA010120220806174412","name":"마스터","industry":"악기 소매업","coordinates":[127.40198071364,36.3290254539863],"sales":{"202602":489}},{"id":"MA010120220806177071","name":"칼국수만드는사람들","industry":"국수/칼국수","coordinates":[127.405343215095,36.3266890599129],"sales":{"202602":1294}},{"id":"MA010120220806178197","name":"알프스레져","industry":"운동용품 소매업","coordinates":[127.403298329478,36.3296878866032],"sales":{"202602":999}},{"id":"MA010120220806181397","name":"우리안경원","industry":"안경렌즈 소매업","coordinates":[127.409829541442,36.3220777541754],"sales":{"202602":1845}},{"id":"MA010120220806182639","name":"쌍둥이네","industry":"백반/한정식","coordinates":[127.407311466471,36.3218340311757],"sales":{"202602":1261}},{"id":"MA010120220806186060","name":"장원식당","industry":"돼지고기 구이/찜","coordinates":[127.404949171518,36.321562692075],"sales":{"202602":2397}},{"id":"MA010120220806186238","name":"미락정","industry":"백반/한정식","coordinates":[127.407833688471,36.3216069559568],"sales":{"202602":532}},{"id":"MA010120220806187073","name":"코나바리스타","industry":"카페","coordinates":[127.407691172755,36.3220400077365],"sales":{"202602":1089}},{"id":"MA010120220806188712","name":"명성레포츠","industry":"자전거 소매업","coordinates":[127.402306932878,36.3296551805999],"sales":{"202602":531}},{"id":"MA010120220806191494","name":"메모리하우스","industry":"기념품점","coordinates":[127.41045406155,36.3222468351788],"sales":{"202602":391}},{"id":"MA010120220806194691","name":"양지공인중개사사무소","industry":"부동산 중개/대리업","coordinates":[127.404625105583,36.3235013229782],"sales":{"202602":348}},{"id":"MA010120220806197520","name":"한지붕","industry":"백반/한정식","coordinates":[127.404559212162,36.3279894118884],"sales":{"202602":1191}},{"id":"MA010120220806201216","name":"인헤어","industry":"미용실","coordinates":[127.406638819706,36.3252607982985],"sales":{"202602":236}},{"id":"MA010120220806202576","name":"위니아서비스","industry":"가전제품 수리업","coordinates":[127.403863582892,36.3291542833293],"sales":{"202602":474}},{"id":"MA010120220806203100","name":"명성황후","industry":"미용실","coordinates":[127.407988418907,36.3213811333321],"sales":{"202602":375}},{"id":"MA010120220806203784","name":"커피프레스까","industry":"카페","coordinates":[127.402063998014,36.3300615278643],"sales":{"202602":1557}},{"id":"MA010120220806205706","name":"삼일소고기국밥","industry":"돼지고기 구이/찜","coordinates":[127.405592240593,36.3274632279302],"sales":{"202602":1867}},{"id":"MA010120220806208130","name":"엔에이치커뮤니케이션즈","industry":"광고 대행업","coordinates":[127.41045406155,36.3222468351788],"sales":{"202602":2405}},{"id":"MA010120220806209297","name":"한독의안","industry":"사진기/기타 광학기기 소매업","coordinates":[127.41045406155,36.3222468351788],"sales":{"202602":363}},{"id":"MA010120220806211873","name":"영광건축사사무소","industry":"건축 설계 및 관련 서비스업","coordinates":[127.41045406155,36.3222468351788],"sales":{"202602":1074}},{"id":"MA010120220806215034","name":"대길경영지도자문","industry":"경영 컨설팅업","coordinates":[127.41045406155,36.3222468351788],"sales":{"202602":1370}},{"id":"MA010120220806219181","name":"이든세무회계","industry":"세무사","coordinates":[127.41045406155,36.3222468351788],"sales":{"202602":1026}},{"id":"MA010120220806223266","name":"디자인하라","industry":"광고물 설계/제작업","coordinates":[127.41045406155,36.3222468351788],"sales":{"202602":493}},{"id":"MA010120220806227744","name":"갤러리모아","industry":"기타 의류 소매업","coordinates":[127.406638819706,36.3252607982985],"sales":{"202602":805}},{"id":"MA010120220806229093","name":"뷰티뉴","industry":"피부 관리실","coordinates":[127.407854645851,36.3213545544942],"sales":{"202602":161}},{"id":"MA010120220806245672","name":"나은산업개발주","industry":"조경 유지·관리 서비스업","coordinates":[127.41045406155,36.3222468351788],"sales":{}},{"id":"MA010120220806246603","name":"나인트리주","industry":"중국집","coordinates":[127.407855805131,36.3258514292448],"sales":{"202602":2148}},{"id":"MA010120220806252793","name":"대동컴퍼니주","industry":"전시/컨벤션/행사 대행 서비스업","coordinates":[127.41045406155,36.3222468351788],"sales":{"202602":2979}},{"id":"MA010120220806254352","name":"드림개발주","industry":"부동산 중개/대리업","coordinates":[127.41045406155,36.3222468351788],"sales":{"202602":1031}},{"id":"MA010120220806255143","name":"케이웹미디어주","industry":"광고 대행업","coordinates":[127.410639378513,36.323606977627],"sales":{"202602":2378}},{"id":"MA010120220806302537","name":"서대전스토아","industry":"담배/전자담배 소매업","coordinates":[127.410917124388,36.3234798582075],"sales":{"202602":694}},{"id":"MA010120220806306209","name":"버킷셀러","industry":"광고 대행업","coordinates":[127.41045406155,36.3222468351788],"sales":{"202602":970}},{"id":"MA010120220806385690","name":"올레노래연습장","industry":"노래방","coordinates":[127.405809029675,36.3220193770029],"sales":{"202602":271}},{"id":"MA010120220806392138","name":"대명가스충전소","industry":"가스 충전소","coordinates":[127.402112553064,36.328673551288],"sales":{"202602":23474}},{"id":"MA010120220806440495","name":"지에스25오류플러스","industry":"편의점","coordinates":[127.403074657031,36.3295084056457],"sales":{"202602":3154}},{"id":"MA010120220806448098","name":"노래야노래야코인노래연습장대전","industry":"노래방","coordinates":[127.410467513253,36.3226883662953],"sales":{"202602":474}},{"id":"MA010120220806461186","name":"다온짬뽕","industry":"중국집","coordinates":[127.406189563158,36.3266771749762],"sales":{"202602":1875}},{"id":"MA010120220806475449","name":"헤어바이엠","industry":"미용실","coordinates":[127.405405609374,36.3215341095522],"sales":{"202602":411}},{"id":"MA010120220806477229","name":"종이숲미디어","industry":"광고 대행업","coordinates":[127.40667738023,36.3262519627032],"sales":{"202602":1863}},{"id":"MA010120220806481395","name":"신전떡볶이","industry":"김밥/만두/분식","coordinates":[127.408335515774,36.3217404194834],"sales":{"202602":1635}},{"id":"MA010120220806496551","name":"사랑의료기","industry":"반찬/식료품 소매업","coordinates":[127.409561378855,36.3219074494226],"sales":{"202602":2164}},{"id":"MA010120220806512920","name":"디테일링가이드","industry":"자동차 세차장","coordinates":[127.40212938598,36.3297819429115],"sales":{"202602":257}},{"id":"MA010120220806517858","name":"국제표준금거래소","industry":"시계/귀금속 소매업","coordinates":[127.403955298409,36.3231881760778],"sales":{"202602":1401}},{"id":"MA010120220806597276","name":"디에스휘트니스센터","industry":"헬스장","coordinates":[127.408931822638,36.3250366927828],"sales":{"202602":747}},{"id":"MA010120220806624222","name":"올키퍼","industry":"소독, 구충 및 방제 서비스업","coordinates":[127.401628581094,36.329855720988],"sales":{"202602":229}},{"id":"MA010120220806649977","name":"바른치킨대전","industry":"치킨","coordinates":[127.411170182496,36.3228932222584],"sales":{"202602":754}},{"id":"MA010120220806708546","name":"수치레","industry":"백반/한정식","coordinates":[127.406686628555,36.3216018523022],"sales":{"202602":362}},{"id":"MA010120220806721454","name":"모모야마스시","industry":"일식 회/초밥","coordinates":[127.409532638291,36.3227997143406],"sales":{"202602":1635}},{"id":"MA010120220806736097","name":"행복한우직판장","industry":"정육점","coordinates":[127.404536667062,36.3236277872695],"sales":{"202602":10686}},{"id":"MA010120220806738520","name":"리움건축사사무소","industry":"건축 설계 및 관련 서비스업","coordinates":[127.41045406155,36.3222468351788],"sales":{"202602":662}},{"id":"MA010120220806756182","name":"문화에듀플렉스심리상담연구소","industry":"교육컨설팅업","coordinates":[127.409829541442,36.3220777541754],"sales":{"202602":592}},{"id":"MA010120220806756421","name":"라파분재원","industry":"꽃집","coordinates":[127.402022921298,36.3307375489889],"sales":{"202602":644}},{"id":"MA010120220806838598","name":"착한사나이포차식당","industry":"요리 주점","coordinates":[127.410268053592,36.3228782984741],"sales":{"202602":997}},{"id":"MA010120220806880246","name":"깡통주먹구이","industry":"돼지고기 구이/찜","coordinates":[127.408381846627,36.3220827089712],"sales":{"202602":1097}},{"id":"MA010120220806961832","name":"제이코코","industry":"요리 주점","coordinates":[127.410244553121,36.3226440728151],"sales":{"202602":1616}},{"id":"MA010120220807015359","name":"중앙골프장","industry":"골프 연습장","coordinates":[127.401490958096,36.3290811707707],"sales":{"202602":418}},{"id":"MA010120220807057891","name":"전주단지네대전","industry":"백반/한정식","coordinates":[127.410123377089,36.3228968185216],"sales":{"202602":2823}},{"id":"MA010120220807063353","name":"진이엔씨","industry":"건물 및 토목 엔지니어링 서비스업","coordinates":[127.41045406155,36.3222468351788],"sales":{"202602":425}},{"id":"MA010120220807085369","name":"중앙기업상담","industry":"경영 컨설팅업","coordinates":[127.41045406155,36.3222468351788],"sales":{"202602":1714}},{"id":"MA010120220807105660","name":"진어전","industry":"김밥/만두/분식","coordinates":[127.403283825088,36.3225506067948],"sales":{"202602":637}},{"id":"MA010120220807120293","name":"좋은인연결혼정보","industry":"결혼 상담 서비스업","coordinates":[127.41045406155,36.3222468351788],"sales":{"202602":1921}},{"id":"MA010120220807177364","name":"한국치과의원","industry":"치과의원","coordinates":[127.411060571282,36.3232270351397],"sales":{"202602":2217}},{"id":"MA010120220807277894","name":"부부바지락칼국수","industry":"국수/칼국수","coordinates":[127.406257553272,36.3269022383232],"sales":{"202602":1186}},{"id":"MA010120220807334616","name":"중부가스","industry":"가정용 연료 소매업","coordinates":[127.402789136364,36.3259677400357],"sales":{"202602":4330}},{"id":"MA010120220807432416","name":"폼앤폼","industry":"중고 상품 소매업","coordinates":[127.404407586229,36.3266651938535],"sales":{"202602":254}},{"id":"MA010120220807435872","name":"봉주르살롱","industry":"네일숍","coordinates":[127.404827711259,36.3282228089481],"sales":{"202602":166}},{"id":"MA010120220807436326","name":"하와이코나사자커피","industry":"카페","coordinates":[127.403283825088,36.3225506067948],"sales":{"202602":1630}},{"id":"MA010120220807497426","name":"투다리","industry":"요리 주점","coordinates":[127.408503074094,36.3218389765907],"sales":{"202602":837}},{"id":"MA010120220807560661","name":"케이앤케이피티스튜디오","industry":"헬스장","coordinates":[127.409508234855,36.3245210479906],"sales":{"202602":474}},{"id":"MA010120220807561029","name":"이레약국","industry":"약국","coordinates":[127.406237725751,36.3209365066629],"sales":{"202602":2930}},{"id":"MA010120220807562074","name":"떡보의하루","industry":"떡/한과","coordinates":[127.409508234855,36.3245210479906],"sales":{"202602":468}},{"id":"MA010120220807720540","name":"에스텍엔지니어링","industry":"기타 엔지니어링 서비스업","coordinates":[127.40667738023,36.3262519627032],"sales":{"202602":45042}},{"id":"MA010120220807824018","name":"미스사이공","industry":"베트남식 전문","coordinates":[127.409829541442,36.3220777541754],"sales":{"202602":986}},{"id":"MA010120220808009649","name":"충청애드포인트","industry":"명함/간판/광고물 제작","coordinates":[127.407833688471,36.3216069559568],"sales":{"202602":612}},{"id":"MA010120220808054698","name":"낭만취객","industry":"요리 주점","coordinates":[127.410872342621,36.3234349532467],"sales":{"202602":1700}},{"id":"MA010120220808102965","name":"꼬마피카소미술교습소","industry":"미술학원","coordinates":[127.406638819706,36.3252607982985],"sales":{"202602":333}},{"id":"MA010120220808140047","name":"더조은정비","industry":"자동차 정비소","coordinates":[127.403882927044,36.3285864761786],"sales":{"202602":1088}},{"id":"MA010120220808184823","name":"행복분식","industry":"김밥/만두/분식","coordinates":[127.407132867321,36.3217535335673],"sales":{"202602":354}},{"id":"MA010120220808185481","name":"브랜드유","industry":"카페","coordinates":[127.403504485399,36.3264699868811],"sales":{"202602":359}},{"id":"MA010120220808228229","name":"공간과울타리대상관계심리상담센터","industry":"교육컨설팅업","coordinates":[127.41045406155,36.3222468351788],"sales":{"202602":970}},{"id":"MA010120220808248938","name":"초월짬뽕","industry":"중국집","coordinates":[127.405557802543,36.3272650857114],"sales":{"202602":3274}},{"id":"MA010120220808279120","name":"슈올즈프라미스","industry":"신발 소매업","coordinates":[127.403651336693,36.3247121940623],"sales":{"202602":2323}},{"id":"MA010120220808343030","name":"웅이네오돌뼈","industry":"닭/오리고기 구이/찜","coordinates":[127.402573993901,36.3296092225226],"sales":{"202602":1040}},{"id":"MA010120220808364152","name":"본스PC카페","industry":"PC방","coordinates":[127.41045406155,36.3222468351788],"sales":{"202602":2427}},{"id":"MA010120220808380222","name":"삼거리집","industry":"백반/한정식","coordinates":[127.410079540365,36.3230321456389],"sales":{"202602":641}},{"id":"MA010120220808412751","name":"파트너컴퍼니","industry":"시각 디자인업","coordinates":[127.404140661437,36.3288920053274],"sales":{"202602":1786}},{"id":"MA010120220808414674","name":"로즈","industry":"카페","coordinates":[127.404206984686,36.3266388370684],"sales":{"202602":930}},{"id":"MA010120220808431110","name":"도란네일","industry":"네일숍","coordinates":[127.405731917698,36.3221818508811],"sales":{"202602":164}},{"id":"MA010120220808432510","name":"조이파티커뮤니케이션","industry":"전시/컨벤션/행사 대행 서비스업","coordinates":[127.402576914618,36.330176954402],"sales":{"202602":4128}},{"id":"MA010120220808449267","name":"허준헤어","industry":"미용실","coordinates":[127.409829541442,36.3220777541754],"sales":{"202602":875}},{"id":"MA010120220808457391","name":"짜장마을","industry":"중국집","coordinates":[127.401942599075,36.3302782187327],"sales":{"202602":1313}},{"id":"MA010120220808488433","name":"문밀원","industry":"국수/칼국수","coordinates":[127.403716522195,36.3287132032056],"sales":{"202602":2417}},{"id":"MA010120220808534091","name":"파리바게뜨","industry":"빵/도넛","coordinates":[127.408004956681,36.3224174319855],"sales":{"202602":1336}},{"id":"MA010120220808541028","name":"대전전자담배스카이베이프","industry":"담배/전자담배 소매업","coordinates":[127.406850812147,36.3210515747211],"sales":{"202602":2772}},{"id":"MA010120220808566804","name":"대전트라우마심리치료연구소","industry":"유사 의료업","coordinates":[127.41045406155,36.3222468351788],"sales":{"202602":495}},{"id":"MA010120220808597267","name":"화로본갈비2앤인","industry":"돼지고기 구이/찜","coordinates":[127.406141569959,36.3217208587026],"sales":{"202602":1357}},{"id":"MA010120220808617083","name":"홍명상회","industry":"돼지고기 구이/찜","coordinates":[127.410133285631,36.3226624782067],"sales":{"202602":779}},{"id":"MA010120220808648062","name":"구일대패","industry":"돼지고기 구이/찜","coordinates":[127.406420720259,36.3218640984461],"sales":{"202602":553}},{"id":"MA010120220808737759","name":"짝태패밀리","industry":"요리 주점","coordinates":[127.40948686768,36.3225655648214],"sales":{"202602":984}},{"id":"MA010120220808768698","name":"우리의오늘","industry":"요리 주점","coordinates":[127.405212559979,36.3272662566378],"sales":{"202602":967}},{"id":"MA010120220808774532","name":"에스더뷰티앤스칼프","industry":"피부 관리실","coordinates":[127.409037888479,36.32189121837],"sales":{"202602":277}},{"id":"MA010120220808777701","name":"올드트리","industry":"카페","coordinates":[127.405809029675,36.3220193770029],"sales":{"202602":831}},{"id":"MA010120220808782910","name":"에너비즈삼성주유소","industry":"주유소","coordinates":[127.403475084373,36.3294079250816],"sales":{"202602":21954}},{"id":"MA010120220808787825","name":"30초커피오류동","industry":"카페","coordinates":[127.406638819706,36.3252607982985],"sales":{"202602":309}},{"id":"MA010120220808790630","name":"코스모스세탁소","industry":"세탁소","coordinates":[127.407958016692,36.3219579912623],"sales":{"202602":156}},{"id":"MA010120220808812086","name":"쎄이미의원","industry":"성형외과 의원","coordinates":[127.409829541442,36.3220777541754],"sales":{"202602":6066}},{"id":"MA010120220808816556","name":"사키","industry":"일식 회/초밥","coordinates":[127.411060571282,36.3232270351397],"sales":{"202602":1877}},{"id":"MA010120220808829746","name":"60계치킨","industry":"치킨","coordinates":[127.407257708397,36.3222036974713],"sales":{"202602":983}},{"id":"MA010120220809131646","name":"단경서예","industry":"기타 기술/직업 훈련학원","coordinates":[127.401628581094,36.329855720988],"sales":{"202602":2231}},{"id":"MA010120220809140022","name":"서울갈비집","industry":"돼지고기 구이/찜","coordinates":[127.408503591418,36.3219381044394],"sales":{"202602":2394}},{"id":"MA010120220809201669","name":"럭키공인중개사사무소","industry":"부동산 중개/대리업","coordinates":[127.404701522224,36.3232036754556],"sales":{"202602":378}},{"id":"MA010120220809207164","name":"트립박스","industry":"여행사","coordinates":[127.41045406155,36.3222468351788],"sales":{"202602":2909}},{"id":"MA010120220809265104","name":"고기랩","industry":"돼지고기 구이/찜","coordinates":[127.410813208367,36.3227772965059],"sales":{"202602":1424}},{"id":"MA010120220809274046","name":"SK청정주유소","industry":"주유소","coordinates":[127.401767780033,36.3309366658967],"sales":{"202602":53497}},{"id":"MA010120220809290951","name":"정가든","industry":"백반/한정식","coordinates":[127.408560306688,36.3221361698295],"sales":{"202602":911}},{"id":"MA010120220809325322","name":"수정삼겹살","industry":"돼지고기 구이/찜","coordinates":[127.408785005764,36.3225138964696],"sales":{"202602":375}},{"id":"MA010120220809396946","name":"인생극장","industry":"돼지고기 구이/찜","coordinates":[127.411102276538,36.3226861848598],"sales":{"202602":2529}},{"id":"MA010120220809628642","name":"부동산중개법인뉴삼성","industry":"부동산 중개/대리업","coordinates":[127.409508234855,36.3245210479906],"sales":{"202602":552}},{"id":"MA010120220809634309","name":"킥핏클럽","industry":"태권도/무술학원","coordinates":[127.411271497586,36.3231001446642],"sales":{"202602":548}},{"id":"MA010120220809651583","name":"등갈비여관","industry":"돼지고기 구이/찜","coordinates":[127.407479164452,36.3219596245949],"sales":{"202602":598}},{"id":"MA010120220809687812","name":"국제바이오재활연합","industry":"그 외 기타 교육기관","coordinates":[127.41045406155,36.3222468351788],"sales":{"202602":261}},{"id":"MA010120220809727125","name":"유메","industry":"일식 회/초밥","coordinates":[127.403651336693,36.3247121940623],"sales":{"202602":248}},{"id":"MA010120220809738614","name":"헤어나라","industry":"기타 산업용 기계/장비 대여업","coordinates":[127.409508234855,36.3245210479906],"sales":{"202602":293}},{"id":"MA010120220809752014","name":"맑음","industry":"카페","coordinates":[127.403767397097,36.3256219918487],"sales":{"202602":1406}},{"id":"MA010120220809783767","name":"이엠생활건강","industry":"건강보조식품 소매업","coordinates":[127.41045406155,36.3222468351788],"sales":{"202602":961}},{"id":"MA010120220809786544","name":"오징어와친구들","industry":"횟집","coordinates":[127.408896508752,36.3225405504381],"sales":{"202602":3189}},{"id":"MA010120220809791334","name":"그곳에가면","industry":"뷔페","coordinates":[127.405529086246,36.3217229381877],"sales":{"202602":7692}},{"id":"MA010120220809809402","name":"쿨노래연습장","industry":"노래방","coordinates":[127.406599693423,36.322016690117],"sales":{"202602":387}},{"id":"MA010120220809841140","name":"대전세종착한자동차유리","industry":"자동차 정비소","coordinates":[127.403017346762,36.3291931868142],"sales":{"202602":365}},{"id":"MA010120220809874438","name":"뜨락","industry":"꽃집","coordinates":[127.402410828676,36.3303667609279],"sales":{"202602":586}},{"id":"MA010120220809921503","name":"엘제이유통","industry":"주방/가정용품 소매업","coordinates":[127.41045406155,36.3222468351788],"sales":{"202602":1305}},{"id":"MA010120220809938223","name":"엘앤케이","industry":"임시/일용 인력 공급업","coordinates":[127.405032318152,36.3268703493753],"sales":{}},{"id":"MA010120220809943135","name":"육우촌","industry":"정육점","coordinates":[127.405222687974,36.3227693442158],"sales":{"202602":1625}},{"id":"MA010120220809954315","name":"나라헤어","industry":"미용실","coordinates":[127.403574496428,36.3249287362614],"sales":{"202602":174}},{"id":"MA010120220809971191","name":"황기족발집","industry":"족발/보쌈","coordinates":[127.407832984195,36.3214717815985],"sales":{"202602":1067}},{"id":"MA010120220810017062","name":"비욘드그룹","industry":"요가/필라테스 학원","coordinates":[127.409405285077,36.3218719370201],"sales":{"202602":1049}},{"id":"MA010120220810038142","name":"고진","industry":"경영 컨설팅업","coordinates":[127.410639378513,36.323606977627],"sales":{"202602":1702}},{"id":"MA010120220810055680","name":"장미맨숀","industry":"요리 주점","coordinates":[127.410566793673,36.322507789698],"sales":{"202602":687}},{"id":"MA010120220810102328","name":"원조청소박사","industry":"건축물 일반 청소업","coordinates":[127.41045406155,36.3222468351788],"sales":{"202602":340}},{"id":"MA010120220810157663","name":"시몬스제일가구","industry":"가구 소매업","coordinates":[127.411580753926,36.322612444041],"sales":{"202602":1354}},{"id":"MA010120220810184333","name":"한국관나이트클럽","industry":"무도 유흥 주점","coordinates":[127.41045406155,36.3222468351788],"sales":{"202602":6588}},{"id":"MA010120220810220680","name":"지에스25","industry":"편의점","coordinates":[127.404925193149,36.3276907839902],"sales":{"202602":1572}},{"id":"MA010120220810250487","name":"온애드","industry":"옥외/전시 광고 대행업","coordinates":[127.41045406155,36.3222468351788],"sales":{"202602":1176}},{"id":"MA010120220810266844","name":"삼성세무법인이진점","industry":"세무사","coordinates":[127.403667836864,36.3279113196385],"sales":{"202602":1259}},{"id":"MA010120220810270896","name":"예성칼국수","industry":"국수/칼국수","coordinates":[127.401628581094,36.329855720988],"sales":{"202602":1774}},{"id":"MA010120220810293069","name":"코아","industry":"건축 설계 및 관련 서비스업","coordinates":[127.40183023964,36.3279175115562],"sales":{"202602":1309}},{"id":"MA010120220810359525","name":"에이블애드","industry":"광고물 설계/제작업","coordinates":[127.41045406155,36.3222468351788],"sales":{"202602":368}},{"id":"MA010120220810385642","name":"아워웹","industry":"광고물 설계/제작업","coordinates":[127.409037888479,36.32189121837],"sales":{"202602":1532}},{"id":"MA010120220810416717","name":"메타서치","industry":"시장 조사 및 여론 조사업","coordinates":[127.407855805131,36.3258514292448],"sales":{}},{"id":"MA010120220810447233","name":"조이파티","industry":"전시/컨벤션/행사 대행 서비스업","coordinates":[127.402576914618,36.330176954402],"sales":{"202602":2359}},{"id":"MA010120220810537273","name":"미르당구장","industry":"당구장","coordinates":[127.410813208367,36.3227772965059],"sales":{"202602":299}},{"id":"MA010120220810539674","name":"삼남매공인중개사사무소","industry":"부동산 중개/대리업","coordinates":[127.404013612344,36.325855466133],"sales":{"202602":486}},{"id":"MA010120220810549830","name":"하나칼국수김밥","industry":"국수/칼국수","coordinates":[127.406389276345,36.3265323076901],"sales":{"202602":1570}},{"id":"MA010120220810656764","name":"라비에벨","industry":"카페","coordinates":[127.406843962433,36.3261612780373],"sales":{"202602":441}},{"id":"MA010120220811041981","name":"듀오모바일","industry":"핸드폰 소매업","coordinates":[127.409829541442,36.3220777541754],"sales":{"202602":196}},{"id":"MA010120220811078137","name":"오늘을기록하다","industry":"사진촬영업","coordinates":[127.409829541442,36.3220777541754],"sales":{"202602":162}},{"id":"MA010120220811141400","name":"코코스애드","industry":"광고 대행업","coordinates":[127.405032318152,36.3268703493753],"sales":{"202602":1744}},{"id":"MA010120220811490212","name":"메소드","industry":"미용실","coordinates":[127.411060571282,36.3232270351397],"sales":{"202602":183}},{"id":"MA010120220811651110","name":"해피파동","industry":"건강보조식품 소매업","coordinates":[127.41045406155,36.3222468351788],"sales":{"202602":697}},{"id":"MA010120220811659180","name":"킴스인테리어","industry":"인테리어 디자인업","coordinates":[127.41045406155,36.3222468351788],"sales":{"202602":636}},{"id":"MA010120220811722395","name":"본죽앤비빔밥카페","industry":"백반/한정식","coordinates":[127.410152205381,36.3220225767599],"sales":{"202602":903}},{"id":"MA010120220811747923","name":"해뜰전기용역","industry":"고용 알선업","coordinates":[127.41045406155,36.3222468351788],"sales":{}},{"id":"MA010120220811748352","name":"평생직장커피","industry":"카페","coordinates":[127.407391529613,36.3222392885889],"sales":{"202602":1129}},{"id":"MA010120220811801077","name":"궁노래연습장","industry":"노래방","coordinates":[127.410213128112,36.3230226754805],"sales":{"202602":333}},{"id":"MA010120220811802707","name":"예원떡방","industry":"빵/도넛","coordinates":[127.404856078402,36.3229418103686],"sales":{"202602":715}},{"id":"MA010120220811904023","name":"오류철물","industry":"철물/공구 소매업","coordinates":[127.403453806318,36.3252806031225],"sales":{"202602":374}},{"id":"MA010120220811920155","name":"일등푸드","industry":"횟집","coordinates":[127.410692932364,36.3232012635204],"sales":{"202602":1211}},{"id":"MA010120220811957321","name":"세이브외과의원","industry":"외과 의원","coordinates":[127.407855805131,36.3258514292448],"sales":{"202602":5824}},{"id":"MA010120220811965711","name":"제주둘레국수","industry":"국수/칼국수","coordinates":[127.403298329478,36.3296878866032],"sales":{"202602":1100}},{"id":"MA010120220812009647","name":"대박노래연습장","industry":"노래방","coordinates":[127.403603461343,36.3262263346997],"sales":{"202602":714}},{"id":"MA010120220812091374","name":"육사구이","industry":"돼지고기 구이/찜","coordinates":[127.410244553121,36.3226440728151],"sales":{"202602":1906}},{"id":"MA010120220812129277","name":"헐리업","industry":"운동용품 소매업","coordinates":[127.403298329478,36.3296878866032],"sales":{"202602":1340}},{"id":"MA010120220812132522","name":"나는가수다노래연습장","industry":"노래방","coordinates":[127.406343188677,36.3219454680902],"sales":{"202602":383}},{"id":"MA010120220812204771","name":"보람개발대전빌딩","industry":"장례식장","coordinates":[127.403625984811,36.3284341439566],"sales":{"202602":16536}},{"id":"MA010120220812220080","name":"마마김밥","industry":"김밥/만두/분식","coordinates":[127.406638819706,36.3252607982985],"sales":{"202602":913}},{"id":"MA010120220812225178","name":"제트에너지동서로점","industry":"주유소","coordinates":[127.403313637212,36.3283360687958],"sales":{"202602":21896}},{"id":"MA010120220812225475","name":"애드온컴퍼니","industry":"광고 대행업","coordinates":[127.41045406155,36.3222468351788],"sales":{"202602":3039}},{"id":"MA010120220812285799","name":"스완발레무용학원","industry":"기타 예술/스포츠 교육기관","coordinates":[127.405604545112,36.32768848057],"sales":{"202602":234}},{"id":"MA010120220812307677","name":"바다회사랑","industry":"횟집","coordinates":[127.406443647526,36.3219901854652],"sales":{"202602":1042}},{"id":"MA010120220812355176","name":"대박건어물","industry":"건어물/젓갈 소매업","coordinates":[127.404261504806,36.3264133582393],"sales":{"202602":657}},{"id":"MA010120220812384507","name":"엔피엘","industry":"부동산 중개/대리업","coordinates":[127.402519075309,36.3254279430158],"sales":{"202602":453}},{"id":"MA010120220812453309","name":"7930손님식탁","industry":"경양식","coordinates":[127.405427547622,36.325769572552],"sales":{"202602":297}},{"id":"MA010120220812542969","name":"우방스카이팰리스공인중개사사무소","industry":"부동산 중개/대리업","coordinates":[127.404625105583,36.3235013229782],"sales":{"202602":382}},{"id":"MA010120220812552968","name":"디와이테크","industry":"기타 엔지니어링 서비스업","coordinates":[127.41045406155,36.3222468351788],"sales":{"202602":11334}},{"id":"MA010120220812561079","name":"경일인테리어","industry":"인테리어 디자인업","coordinates":[127.402571548142,36.3269687804809],"sales":{"202602":813}},{"id":"MA010120220812607713","name":"반석돈가스","industry":"경양식","coordinates":[127.410213128112,36.3230226754805],"sales":{"202602":1244}},{"id":"MA010120220812614507","name":"탑프리미엄독서실","industry":"독서실/스터디 카페","coordinates":[127.407947725977,36.3221202384827],"sales":{"202602":274}},{"id":"MA010120220812653470","name":"봉안주택사업","industry":"경영 컨설팅업","coordinates":[127.41045406155,36.3222468351788],"sales":{"202602":1679}},{"id":"MA010120220812668577","name":"오류현대스크린","industry":"골프 연습장","coordinates":[127.409532638291,36.3227997143406],"sales":{"202602":425}},{"id":"MA010120220812672253","name":"삼성랜드","industry":"부동산 중개/대리업","coordinates":[127.405731917698,36.3221818508811],"sales":{"202602":362}},{"id":"MA010120220812737219","name":"칙칙폭폭휴게소","industry":"김밥/만두/분식","coordinates":[127.403283825088,36.3225506067948],"sales":{"202602":229}},{"id":"MA010120220812755136","name":"아르테","industry":"액세서리/잡화 소매업","coordinates":[127.406638819706,36.3252607982985],"sales":{"202602":2976}},{"id":"MA010120220812765552","name":"명우인테리어","industry":"인테리어 디자인업","coordinates":[127.406638819706,36.3252607982985],"sales":{"202602":1185}},{"id":"MA010120220812770051","name":"목수정","industry":"카페","coordinates":[127.408629522703,36.3225955341417],"sales":{"202602":917}},{"id":"MA010120220812770515","name":"영동식당","industry":"백반/한정식","coordinates":[127.409899378332,36.3226542687696],"sales":{"202602":569}},{"id":"MA010120220812845329","name":"비욘드필라테스Boutique문화","industry":"요가/필라테스 학원","coordinates":[127.409405285077,36.3218719370201],"sales":{"202602":1186}},{"id":"MA010120220812881253","name":"복록수","industry":"중국집","coordinates":[127.40623710398,36.3272537671018],"sales":{"202602":917}},{"id":"MA010120220812881676","name":"익수건강","industry":"건강보조식품 소매업","coordinates":[127.41045406155,36.3222468351788],"sales":{"202602":1305}},{"id":"MA010120220812910039","name":"예지장.원목가구","industry":"가구 소매업","coordinates":[127.411580753926,36.322612444041],"sales":{"202602":2493}},{"id":"MA010120220812927213","name":"연권신토익","industry":"외국어학원","coordinates":[127.41045406155,36.3222468351788],"sales":{"202602":343}},{"id":"MA010120220812982775","name":"오목돈","industry":"돼지고기 구이/찜","coordinates":[127.406041999799,36.3218473619541],"sales":{"202602":2934}},{"id":"MA010120220812985254","name":"네일162","industry":"네일숍","coordinates":[127.409037888479,36.32189121837],"sales":{"202602":114}},{"id":"MA010120220813006581","name":"민이네","industry":"기타 의류 소매업","coordinates":[127.407535642557,36.3221126323701],"sales":{"202602":363}},{"id":"MA010120220813015017","name":"로또명당황금돼지","industry":"복권 발행/판매업","coordinates":[127.407432696903,36.321590299852],"sales":{"202602":388}},{"id":"MA010120220813022081","name":"대전아이폰수리애플모아","industry":"핸드폰/통신장비 수리업","coordinates":[127.41045406155,36.3222468351788],"sales":{"202602":243}},{"id":"MA010120220813036291","name":"타비","industry":"일식 회/초밥","coordinates":[127.411058630926,36.3228575588024],"sales":{"202602":896}},{"id":"MA010120220813038299","name":"야커피","industry":"카페","coordinates":[127.40341684345,36.3289124740956],"sales":{"202602":718}},{"id":"MA010120220813041958","name":"햇님공인중개사사무소","industry":"부동산 중개/대리업","coordinates":[127.405023634974,36.323040372345],"sales":{"202602":513}},{"id":"MA010120220813162832","name":"대한ACE행정사사무소","industry":"행정사","coordinates":[127.409796461708,36.3242677303624],"sales":{"202602":641}},{"id":"MA010120220813175516","name":"곱창명가","industry":"곱창 전골/구이","coordinates":[127.409932078987,36.3225189799009],"sales":{"202602":2681}},{"id":"MA010120220813254902","name":"예은결혼정보","industry":"결혼 상담 서비스업","coordinates":[127.404625661181,36.3279170927544],"sales":{"202602":3594}},{"id":"MA010120220813283417","name":"르하임스터디카페","industry":"독서실/스터디 카페","coordinates":[127.411271497586,36.3231001446642],"sales":{"202602":76}},{"id":"MA010120220813294426","name":"설진컴퍼니","industry":"주방/가정용품 소매업","coordinates":[127.410467513253,36.3226883662953],"sales":{"202602":685}},{"id":"MA010120220813295128","name":"쏠래노래연습장","industry":"노래방","coordinates":[127.410302407037,36.32305841618],"sales":{"202602":477}},{"id":"MA010120220813306927","name":"낭만콘서트7080","industry":"일반 유흥 주점","coordinates":[127.407988418907,36.3213811333321],"sales":{"202602":419}},{"id":"MA010120220813313020","name":"화평본가","industry":"돼지고기 구이/찜","coordinates":[127.409508234855,36.3245210479906],"sales":{"202602":1175}},{"id":"MA010120220813336837","name":"에쓰제이","industry":"세탁소","coordinates":[127.401628581094,36.329855720988],"sales":{"202602":266}},{"id":"MA010120220813353387","name":"메이렌뷰티샵","industry":"피부 관리실","coordinates":[127.408629522703,36.3225955341417],"sales":{"202602":206}},{"id":"MA010120220813369931","name":"맹산막국수","industry":"국수/칼국수","coordinates":[127.403944048243,36.3253240062662],"sales":{"202602":1331}},{"id":"MA010120220813371766","name":"동방한약국","industry":"약국","coordinates":[127.403420721737,36.32534379725],"sales":{"202602":3830}},{"id":"MA010120220813371843","name":"스토리","industry":"일반 유흥 주점","coordinates":[127.410337044103,36.3232926035804],"sales":{"202602":387}},{"id":"MA010120220813428480","name":"광세족발","industry":"족발/보쌈","coordinates":[127.408503074094,36.3218389765907],"sales":{"202602":3758}},{"id":"MA010120220813461636","name":"한결같은마음으로정육식당","industry":"소고기 구이/찜","coordinates":[127.409363332822,36.3223677287491],"sales":{"202602":2398}},{"id":"MA010120220813461650","name":"지우커뮤니케이션","industry":"광고 대행업","coordinates":[127.404160901872,36.3263416042291],"sales":{"202602":1307}},{"id":"MA010120220813462827","name":"스킨독스","industry":"화장품 소매업","coordinates":[127.41045406155,36.3222468351788],"sales":{"202602":532}},{"id":"MA010120220813464559","name":"화인카페,청어람인재개발원","industry":"카페","coordinates":[127.407855805131,36.3258514292448],"sales":{"202602":2281}},{"id":"MA010120220813482068","name":"대전결혼정보사백년의약속","industry":"결혼 상담 서비스업","coordinates":[127.41045406155,36.3222468351788],"sales":{"202602":4518}},{"id":"MA010120220813503444","name":"컨택보이스","industry":"경영 컨설팅업","coordinates":[127.41045406155,36.3222468351788],"sales":{"202602":2826}},{"id":"MA010120220813513211","name":"한국금거래소골드쉘","industry":"시계/귀금속 소매업","coordinates":[127.411580753926,36.322612444041],"sales":{"202602":539}},{"id":"MA010120220813559719","name":"넛팅","industry":"카페","coordinates":[127.403955298409,36.3231881760778],"sales":{"202602":194}},{"id":"MA010120220813573778","name":"오니케이크","industry":"빵/도넛","coordinates":[127.402271992547,36.3293579096609],"sales":{"202602":4937}},{"id":"MA010120220813658918","name":"다방경복궁","industry":"카페","coordinates":[127.409829541442,36.3220777541754],"sales":{"202602":2880}},{"id":"MA010120220813667189","name":"지마트","industry":"슈퍼마켓","coordinates":[127.404713543819,36.3233748586206],"sales":{"202602":2814}},{"id":"MA010120220813680098","name":"사나이창","industry":"돼지고기 구이/찜","coordinates":[127.410804484262,36.3232369273136],"sales":{"202602":1411}},{"id":"MA010120220813701722","name":"한국의료기연합","industry":"의료기기 소매업","coordinates":[127.404949938404,36.3281683242549],"sales":{"202602":3979}},{"id":"MA010120220813730025","name":"손님식탁딜리버리","industry":"백반/한정식","coordinates":[127.405427547622,36.325769572552],"sales":{"202602":1287}},{"id":"MA010120220813737986","name":"써브웨이대전","industry":"토스트/샌드위치/샐러드","coordinates":[127.409829541442,36.3220777541754],"sales":{"202602":1169}},{"id":"MA010120220813744897","name":"오류옥천가","industry":"돼지고기 구이/찜","coordinates":[127.406599693423,36.322016690117],"sales":{"202602":1157}},{"id":"MA010120220813781294","name":"대한열쇠","industry":"철물/공구 소매업","coordinates":[127.406041999799,36.3218473619541],"sales":{"202602":1272}},{"id":"MA010120220813810196","name":"신정통춘천닭갈비","industry":"닭/오리고기 구이/찜","coordinates":[127.409721104875,36.3226368564089],"sales":{"202602":278}},{"id":"MA010120220813812308","name":"비전슬랩앤슬립대전","industry":"침구류/커튼 소매업","coordinates":[127.408399479031,36.32546206643],"sales":{"202602":554}},{"id":"MA010120220813838132","name":"삼성떡집","industry":"떡/한과","coordinates":[127.406638819706,36.3252607982985],"sales":{"202602":291}},{"id":"MA010120220813939757","name":"잘임스국수앤덮밥","industry":"김밥/만두/분식","coordinates":[127.409829541442,36.3220777541754],"sales":{"202602":821}},{"id":"MA010120220813942356","name":"홍게간장","industry":"반찬/식료품 소매업","coordinates":[127.407833688471,36.3216069559568],"sales":{"202602":1263}},{"id":"MA010120220813972994","name":"올리브영","industry":"화장품 소매업","coordinates":[127.404673891782,36.3221674139083],"sales":{"202602":1038}},{"id":"MA010120220814009296","name":"뉴베이스","industry":"핸드폰 소매업","coordinates":[127.409829541442,36.3220777541754],"sales":{"202602":88}},{"id":"MA010120220814052064","name":"카덴","industry":"자동차 세차장","coordinates":[127.40338768355,36.325416002991],"sales":{"202602":687}},{"id":"MA010120220814064801","name":"오디션2노래연습장","industry":"노래방","coordinates":[127.410467513253,36.3226883662953],"sales":{"202602":540}},{"id":"MA010120220814141407","name":"계탄집","industry":"돼지고기 구이/찜","coordinates":[127.405529086246,36.3217229381877],"sales":{"202602":2626}},{"id":"MA010120220814253022","name":"달님노래연습장","industry":"노래방","coordinates":[127.406230144052,36.3216214280902],"sales":{"202602":804}},{"id":"MA010120220814253028","name":"비앤비7080","industry":"요리 주점","coordinates":[127.404673891782,36.3221674139083],"sales":{"202602":470}},{"id":"MA010120220814268962","name":"미라클핏","industry":"헬스장","coordinates":[127.404856078402,36.3229418103686],"sales":{"202602":421}},{"id":"MA010120220814350516","name":"버블타운","industry":"자동차 세차장","coordinates":[127.400976425378,36.3308221703535],"sales":{"202602":449}},{"id":"MA010120220814361055","name":"진짜배기명태촌","industry":"해산물 구이/찜","coordinates":[127.408428271943,36.3224430216625],"sales":{"202602":4303}},{"id":"MA010120220814375083","name":"팡이제로클리닝","industry":"산업설비, 운송장비 및 공공장소 청소업","coordinates":[127.41045406155,36.3222468351788],"sales":{"202602":703}},{"id":"MA010120220814391026","name":"피부이야기.피부와이야기하다","industry":"피부 관리실","coordinates":[127.408228055936,36.3224887645232],"sales":{"202602":395}},{"id":"MA0101202209A0000224","name":"코스모연세치과","industry":"치과의원","coordinates":[127.405604545112,36.32768848057],"sales":{"202602":3162}},{"id":"MA0101202209A0002184","name":"신쭈꾸황","industry":"백반/한정식","coordinates":[127.403955298409,36.3231881760778],"sales":{"202602":490}},{"id":"MA0101202209A0012631","name":"크라운호프대전","industry":"생맥주 전문","coordinates":[127.410457700222,36.3229407298683],"sales":{"202602":542}},{"id":"MA0101202209A0013550","name":"본우리집밥삼성카드고객서비스","industry":"백반/한정식","coordinates":[127.405304968462,36.3279057794073],"sales":{"202602":1352}},{"id":"MA0101202209A0038819","name":"서대전역3층맛있는한끼","industry":"김밥/만두/분식","coordinates":[127.403305679576,36.3224694270018],"sales":{"202602":586}},{"id":"MA0101202209A0057746","name":"피씨카페비트(BIT)","industry":"PC방","coordinates":[127.410566793673,36.322507789698],"sales":{"202602":1655}},{"id":"MA0101202209A0090440","name":"퍼스트뷰티","industry":"피부 관리실","coordinates":[127.406531519499,36.3217555802601],"sales":{"202602":225}},{"id":"MA0101202209A0092754","name":"대전로또","industry":"복권 발행/판매업","coordinates":[127.408931822638,36.3250366927828],"sales":{"202602":458}},{"id":"MA0101202210A0041553","name":"지에스25대전로또점","industry":"편의점","coordinates":[127.408931822638,36.3250366927828],"sales":{"202602":2705}},{"id":"MA0101202210A0069702","name":"닭이오","industry":"치킨","coordinates":[127.406343188677,36.3219454680902],"sales":{"202602":649}},{"id":"MA0101202210A0083622","name":"미성미용실","industry":"미용실","coordinates":[127.410465008662,36.3222107504592],"sales":{"202602":328}},{"id":"MA0101202210A0098405","name":"소나무포레스트","industry":"경영 컨설팅업","coordinates":[127.404625105583,36.3235013229782],"sales":{"202602":3254}},{"id":"MA0101202211A0024579","name":"비앤","industry":"광고 대행업","coordinates":[127.405032318152,36.3268703493753],"sales":{"202602":1800}},{"id":"MA0101202211A0031335","name":"모아1101","industry":"횟집","coordinates":[127.403955298409,36.3231881760778],"sales":{"202602":1372}},{"id":"MA0101202211A0048377","name":"엠케이파트너스","industry":"광고 대행업","coordinates":[127.410465008662,36.3222107504592],"sales":{"202602":1537}},{"id":"MA0101202211A0054752","name":"피엠푸드","industry":"피자","coordinates":[127.406638819706,36.3252607982985],"sales":{"202602":1905}},{"id":"MA0101202211A0058872","name":"보은달","industry":"백반/한정식","coordinates":[127.411102276538,36.3226861848598],"sales":{"202602":1568}},{"id":"MA0101202211A0071424","name":"에이아이앤비","industry":"화장품 소매업","coordinates":[127.403955298409,36.3231881760778],"sales":{"202602":483}},{"id":"MA0101202211A0084096","name":"뉴동신공인중개사사무소","industry":"부동산 중개/대리업","coordinates":[127.410079540365,36.3230321456389],"sales":{"202602":864}},{"id":"MA0101202211A0085600","name":"돈짝대전","industry":"돼지고기 구이/찜","coordinates":[127.406230144052,36.3216214280902],"sales":{"202602":1120}},{"id":"MA0101202212A0017753","name":"아름다운미의원","industry":"피부/비뇨기과 의원","coordinates":[127.407129633239,36.3211317314545],"sales":{"202602":7471}},{"id":"MA0101202212A0018472","name":"태양에스티","industry":"채소/과일 소매업","coordinates":[127.410465008662,36.3222107504592],"sales":{"202602":2294}},{"id":"MA0101202212A0052365","name":"디그리","industry":"카페","coordinates":[127.408071209895,36.3223090644289],"sales":{"202602":990}},{"id":"MA0101202212A0068340","name":"아이키플러스","industry":"요가/필라테스 학원","coordinates":[127.403944048243,36.3253240062662],"sales":{"202602":817}},{"id":"MA0101202212A0074923","name":"3D제작소","industry":"액세서리/잡화 소매업","coordinates":[127.410465008662,36.3222107504592],"sales":{"202602":2056}},{"id":"MA0101202212A0082675","name":"행복한우정육식당","industry":"돼지고기 구이/찜","coordinates":[127.406296445844,36.3215220731173],"sales":{"202602":556}},{"id":"MA0101202301A0009448","name":"포토아이브","industry":"사진촬영업","coordinates":[127.408629522703,36.3225955341417],"sales":{"202602":167}},{"id":"MA0101202301A0014007","name":"한솔인텍","industry":"컴퓨터/소프트웨어 소매업","coordinates":[127.40183023964,36.3279175115562],"sales":{"202602":379}},{"id":"MA0101202301A0017995","name":"용인대엘리트복싱체육관","industry":"태권도/무술학원","coordinates":[127.409829541442,36.3220777541754],"sales":{"202602":305}},{"id":"MA0101202301A0021294","name":"유춘길태양광발전소","industry":"기타 사무 지원 서비스업","coordinates":[127.410465008662,36.3222107504592],"sales":{"202602":177}},{"id":"MA0101202301A0033368","name":"디저트테이블냠냠","industry":"카페","coordinates":[127.404827711259,36.3282228089481],"sales":{"202602":1767}},{"id":"MA0101202301A0039006","name":"고반식당","industry":"돼지고기 구이/찜","coordinates":[127.410758756874,36.3230117899428],"sales":{"202602":444}},{"id":"MA0101202301A0092584","name":"힐링타이","industry":"마사지/안마","coordinates":[127.411060571282,36.3232270351397],"sales":{"202602":482}},{"id":"MA0101202301A0102914","name":"킹카노래연습장","industry":"노래방","coordinates":[127.409185060129,36.3223503155832],"sales":{"202602":529}},{"id":"MA0101202302A0004871","name":"먹새통","industry":"요리 주점","coordinates":[127.411102276538,36.3226861848598],"sales":{"202602":2549}},{"id":"MA0101202302A0007719","name":"스타컴퍼니","industry":"핸드폰 소매업","coordinates":[127.407826402444,36.3223459470569],"sales":{"202602":235}},{"id":"MA0101202302A0055429","name":"이영란튀김호떡","industry":"그 외 기타 간이 음식점","coordinates":[127.406686628555,36.3216018523022],"sales":{"202602":727}},{"id":"MA0101202302A0070289","name":"동남상회","industry":"슈퍼마켓","coordinates":[127.407110501443,36.3217355861759],"sales":{"202602":6109}},{"id":"MA0101202302A0090447","name":"교반","industry":"백반/한정식","coordinates":[127.403318653171,36.3293093235321],"sales":{"202602":434}},{"id":"MA0101202302A0104913","name":"다감","industry":"광고 대행업","coordinates":[127.402895441433,36.3293107508641],"sales":{"202602":2054}},{"id":"MA0101202303A0003387","name":"대길로공인중개사사무소","industry":"부동산 중개/대리업","coordinates":[127.410465008662,36.3222107504592],"sales":{"202602":601}},{"id":"MA0101202303A0043617","name":"서대전역프로방스","industry":"빵/도넛","coordinates":[127.403305679576,36.3224694270018],"sales":{"202602":964}},{"id":"MA0101202303A0057526","name":"어반헤어","industry":"미용실","coordinates":[127.407855805131,36.3258514292448],"sales":{"202602":296}},{"id":"MA0101202303A0057935","name":"홍루이젠대전","industry":"반찬/식료품 소매업","coordinates":[127.406995767183,36.3210871283988],"sales":{"202602":2156}},{"id":"MA0101202303A0061366","name":"비비큐","industry":"치킨","coordinates":[127.410692932364,36.3232012635204],"sales":{"202602":692}},{"id":"MA0101202303A0073236","name":"현대옥","industry":"국/탕/찌개류","coordinates":[127.409829541442,36.3220777541754],"sales":{"202602":1913}},{"id":"MA0101202303A0102910","name":"코코마쥬","industry":"피부 관리실","coordinates":[127.403955298409,36.3231881760778],"sales":{"202602":237}},{"id":"MA0101202303A0105806","name":"케이식당","industry":"요리 주점","coordinates":[127.410400648812,36.3226795841048],"sales":{"202602":819}},{"id":"MA0101202305A0007640","name":"리즈","industry":"기타 의류 소매업","coordinates":[127.409561378855,36.3219074494226],"sales":{"202602":182}},{"id":"MA0101202305A0130615","name":"금실청과","industry":"채소/과일 소매업","coordinates":[127.406719287526,36.321457552631],"sales":{"202602":2496}},{"id":"MA0101202305A0131465","name":"까망연탄","industry":"돼지고기 구이/찜","coordinates":[127.410078501686,36.3228338900153],"sales":{"202602":2072}},{"id":"MA0101202305A0153883","name":"가장맛있는족발대전","industry":"족발/보쌈","coordinates":[127.408304974982,36.3222902425852],"sales":{"202602":2412}},{"id":"MA0101202305A0198518","name":"삼소부동산공인중개사사무소","industry":"부동산 중개/대리업","coordinates":[127.409508234855,36.3245210479906],"sales":{"202602":349}},{"id":"MA0101202306A0027874","name":"서대전생갈비","industry":"돼지고기 구이/찜","coordinates":[127.410302407037,36.32305841618],"sales":{"202602":1244}},{"id":"MA0101202306A0042507","name":"종로전집","industry":"요리 주점","coordinates":[127.410012345236,36.3229602818987],"sales":{"202602":628}},{"id":"MA0101202306A0044510","name":"비어탭","industry":"생맥주 전문","coordinates":[127.410592516833,36.3231655613694],"sales":{"202602":607}},{"id":"MA0101202306A0049483","name":"아띠몽","industry":"빵/도넛","coordinates":[127.403955298409,36.3231881760778],"sales":{"202602":778}},{"id":"MA0101202306A0053497","name":"까불이네전통과자","industry":"슈퍼마켓","coordinates":[127.407812120616,36.3217422063002],"sales":{"202602":2446}},{"id":"MA0101202306A0060912","name":"청솔건기","industry":"건설기계/장비 대여업","coordinates":[127.410465008662,36.3222107504592],"sales":{}},{"id":"MA0101202306A0104789","name":"행정사사무소파트너","industry":"행정사","coordinates":[127.410465008662,36.3222107504592],"sales":{"202602":203}},{"id":"MA0101202307A0003511","name":"스타","industry":"요리 주점","coordinates":[127.410758756874,36.3230117899428],"sales":{"202602":621}},{"id":"MA0101202307A0008024","name":"글로마드","industry":"건축 설계 및 관련 서비스업","coordinates":[127.403172941645,36.3291295796488],"sales":{"202602":828}},{"id":"MA0101202307A0008521","name":"매머드익스프레스대전","industry":"카페","coordinates":[127.406001313274,36.3268850854269],"sales":{"202602":727}},{"id":"MA0101202307A0013424","name":"이순신소국밥","industry":"국/탕/찌개류","coordinates":[127.410400648812,36.3226795841048],"sales":{"202602":3524}},{"id":"MA0101202307A0014963","name":"건설인안전기술원","industry":"직원 훈련기관","coordinates":[127.410465008662,36.3222107504592],"sales":{"202602":1450}},{"id":"MA0101202307A0023285","name":"제이에스유통","industry":"액세서리/잡화 소매업","coordinates":[127.410465008662,36.3222107504592],"sales":{"202602":855}},{"id":"MA0101202307A0038421","name":"씨유서대전","industry":"편의점","coordinates":[127.404560201668,36.3217172095196],"sales":{"202602":2288}},{"id":"MA0101202307A0080566","name":"한양고깃집","industry":"돼지고기 구이/찜","coordinates":[127.410192225173,36.3232840888592],"sales":{"202602":920}},{"id":"MA0101202307A0091758","name":"정관장서대전","industry":"건강보조식품 소매업","coordinates":[127.408691022984,36.3215769924065],"sales":{"202602":3062}},{"id":"MA0101202307A0099950","name":"바른보쌈1990대전","industry":"족발/보쌈","coordinates":[127.407110501443,36.3217355861759],"sales":{"202602":2731}},{"id":"MA0101202308A0013621","name":"140키즈수영장","industry":"수영장","coordinates":[127.401254814421,36.3286403867767],"sales":{"202602":1390}},{"id":"MA0101202308A0032791","name":"컴인워시","industry":"자동차 세차장","coordinates":[127.404967853753,36.3208687212967],"sales":{"202602":339}},{"id":"MA0101202308A0074303","name":"더엘르","industry":"요가/필라테스 학원","coordinates":[127.409829541442,36.3220777541754],"sales":{"202602":1208}},{"id":"MA0101202308A0095849","name":"바비드","industry":"화장품 소매업","coordinates":[127.410400648812,36.3226795841048],"sales":{"202602":368}},{"id":"MA0101202308A0097830","name":"30초커피대흥침례교회점","industry":"카페","coordinates":[127.405921626258,36.3265519203301],"sales":{"202602":1013}},{"id":"MA0101202309A0000009","name":"호박꽃마차대전","industry":"요리 주점","coordinates":[127.411404422175,36.3229645105273],"sales":{"202602":1487}},{"id":"MA0101202309A0024255","name":"디저트39","industry":"카페","coordinates":[127.408691022984,36.3215769924065],"sales":{"202602":1226}},{"id":"MA0101202309A0043279","name":"사라요가","industry":"요가/필라테스 학원","coordinates":[127.410192225173,36.3232840888592],"sales":{"202602":722}},{"id":"MA0101202309A0061462","name":"러스티","industry":"카페","coordinates":[127.404673891782,36.3221674139083],"sales":{"202602":650}},{"id":"MA0101202309A0075668","name":"갈비탕","industry":"백반/한정식","coordinates":[127.402816418995,36.3269409201591],"sales":{"202602":2965}},{"id":"MA0101202309A0087157","name":"브루잉풀","industry":"생맥주 전문","coordinates":[127.410192225173,36.3232840888592],"sales":{"202602":190}},{"id":"MA0101202310A0018954","name":"세무법인인화서","industry":"세무사","coordinates":[127.409829541442,36.3220777541754],"sales":{"202602":1080}},{"id":"MA0101202310A0058014","name":"오류동소선생","industry":"돼지고기 구이/찜","coordinates":[127.409185060129,36.3223503155832],"sales":{"202602":5705}},{"id":"MA0101202310A0064953","name":"로또노래연습장","industry":"노래방","coordinates":[127.408783405635,36.3222075013359],"sales":{"202602":722}},{"id":"MA0101202310A0069723","name":"본우리집밥코스트코","industry":"백반/한정식","coordinates":[127.403480619256,36.3240008397308],"sales":{"202602":4150}},{"id":"MA0101202310A0070651","name":"글로리네일","industry":"네일숍","coordinates":[127.404407586229,36.3266651938535],"sales":{"202602":72}},{"id":"MA0101202310A0080947","name":"불닭발땡초동대문엽기떡볶이","industry":"김밥/만두/분식","coordinates":[127.404560201668,36.3217172095196],"sales":{"202602":339}},{"id":"MA0101202311A0002575","name":"키","industry":"요리 주점","coordinates":[127.410205911778,36.3237706780262],"sales":{"202602":1381}},{"id":"MA0101202311A0039702","name":"센트럴약국","industry":"약국","coordinates":[127.409037888479,36.32189121837],"sales":{"202602":6973}},{"id":"MA0101202311A0053676","name":"에그2000","industry":"피자","coordinates":[127.408379542876,36.3216411394545],"sales":{"202602":811}},{"id":"MA0101202311A0087169","name":"시하감성","industry":"여성 의류 소매업","coordinates":[127.405413490236,36.3273556930452],"sales":{"202602":375}},{"id":"MA0101202311A0095320","name":"탕화쿵푸마라탕오류","industry":"마라탕/훠궈","coordinates":[127.408706064401,36.3223249189814],"sales":{"202602":1427}},{"id":"MA0101202406A0022283","name":"얌얌샌드밀","industry":"피자","coordinates":[127.402925372923,36.3286347668744],"sales":{"202602":628}},{"id":"MA0101202406A0025731","name":"할리스커피","industry":"카페","coordinates":[127.411060571282,36.3232270351397],"sales":{"202602":1203}},{"id":"MA0101202406A0070189","name":"파트너","industry":"일반 유흥 주점","coordinates":[127.410813208367,36.3227772965059],"sales":{"202602":463}},{"id":"MA0101202406A0082195","name":"오룡역3번출구빽스텔레콤","industry":"핸드폰 소매업","coordinates":[127.403859908851,36.3284423655579],"sales":{"202602":352}},{"id":"MA0101202406A0097601","name":"문밀원","industry":"백반/한정식","coordinates":[127.403716522195,36.3287132032056],"sales":{"202602":540}},{"id":"MA0101202406A0123685","name":"삼성건강원","industry":"건강보조식품 소매업","coordinates":[127.405293581227,36.3257069444278],"sales":{"202602":780}},{"id":"MA0101202406A0123777","name":"국민순대국","industry":"국/탕/찌개류","coordinates":[127.406796537244,36.3213221129898],"sales":{"202602":1244}},{"id":"MA0101202406A0147948","name":"예당어죽매운탕","industry":"백반/한정식","coordinates":[127.409198457588,36.3227828352599],"sales":{"202602":3246}},{"id":"MA0101202406A0159277","name":"한신우동","industry":"국수/칼국수","coordinates":[127.410990677977,36.3226415097184],"sales":{"202602":489}},{"id":"MA0101202406A0177130","name":"프라임PT","industry":"헬스장","coordinates":[127.405330176931,36.3220210017291],"sales":{"202602":1028}},{"id":"MA0101202406A0184398","name":"필노래연습장","industry":"노래방","coordinates":[127.409198457588,36.3227828352599],"sales":{"202602":930}},{"id":"MA0101202406A0195012","name":"도담공인중개사무소","industry":"부동산 중개/대리업","coordinates":[127.404536667062,36.3236277872695],"sales":{"202602":920}},{"id":"MA0101202406A0224785","name":"세이노래연습장","industry":"노래방","coordinates":[127.406686628555,36.3216018523022],"sales":{"202602":232}},{"id":"MA0101202406A0233036","name":"아이스크림할인점","industry":"슈퍼마켓","coordinates":[127.406638819706,36.3252607982985],"sales":{"202602":2651}},{"id":"MA0101202406A0252008","name":"대전펜싱클럽","industry":"테니스장","coordinates":[127.40371245772,36.3257663658893],"sales":{"202602":287}},{"id":"MA0101202406A0254697","name":"든든한국밥","industry":"국/탕/찌개류","coordinates":[127.406189563158,36.3266771749762],"sales":{"202602":1489}},{"id":"MA0101202406A0263398","name":"공임나라대전","industry":"자동차 정비소","coordinates":[127.403313637212,36.3283360687958],"sales":{"202602":323}},{"id":"MA0101202406A0266342","name":"모즈뷰티왁싱","industry":"피부 관리실","coordinates":[127.403955298409,36.3231881760778],"sales":{"202602":503}},{"id":"MA0101202406A0268096","name":"아르데뷰티","industry":"화장품 소매업","coordinates":[127.41045406155,36.3222468351788],"sales":{"202602":203}},{"id":"MA0101202406A0288496","name":"휴대폰성지","industry":"핸드폰 소매업","coordinates":[127.407988418907,36.3213811333321],"sales":{"202602":87}},{"id":"MA0101202406A0290442","name":"2층노래연습장","industry":"노래방","coordinates":[127.410947174082,36.3228399184783],"sales":{"202602":1045}},{"id":"MA0101202406A0310071","name":"이마트24대전오류","industry":"편의점","coordinates":[127.406638819706,36.3252607982985],"sales":{"202602":6479}},{"id":"MA0101202406A0322495","name":"메이크마이데이","industry":"카페","coordinates":[127.403504485399,36.3264699868811],"sales":{"202602":1072}},{"id":"MA0101202406A0328516","name":"인생노래연습장","industry":"노래방","coordinates":[127.410402869551,36.3231031301957],"sales":{"202602":1232}},{"id":"MA0101202406A0369308","name":"경원야채","industry":"채소/과일 소매업","coordinates":[127.407826402444,36.3223459470569],"sales":{"202602":1632}},{"id":"MA0101202406A0397825","name":"다인","industry":"화장품 소매업","coordinates":[127.403603461343,36.3262263346997],"sales":{"202602":183}},{"id":"MA0101202406A0410661","name":"총각손칼국수","industry":"국수/칼국수","coordinates":[127.404988827405,36.3227701367932],"sales":{"202602":497}},{"id":"MA0101202406A0411951","name":"뮤엠교육남대전지사","industry":"서점","coordinates":[127.403955298409,36.3231881760778],"sales":{"202602":6127}},{"id":"MA0101202406A0443921","name":"머리부터발끝까지","industry":"액세서리/잡화 소매업","coordinates":[127.41045406155,36.3222468351788],"sales":{"202602":2020}},{"id":"MA0101202406A0450736","name":"고기어때","industry":"돼지고기 구이/찜","coordinates":[127.408725889809,36.3218562384789],"sales":{"202602":1863}},{"id":"MA0101202406A0454981","name":"대장집","industry":"백반/한정식","coordinates":[127.406811654159,36.3220880631983],"sales":{"202602":747}},{"id":"MA0101202406A0464576","name":"송돈가","industry":"돼지고기 구이/찜","coordinates":[127.408670632834,36.3219375334588],"sales":{"202602":597}},{"id":"MA0101202406A0480862","name":"케이뷰티","industry":"화장품 소매업","coordinates":[127.41045406155,36.3222468351788],"sales":{"202602":345}},{"id":"MA0101202406A0488465","name":"공예다","industry":"문구/회화용품 소매업","coordinates":[127.41045406155,36.3222468351788],"sales":{"202602":2494}},{"id":"MA0101202406A0505839","name":"농장부라더스","industry":"백반/한정식","coordinates":[127.405585933922,36.3219480399223],"sales":{"202602":548}},{"id":"MA0101202406A0522715","name":"이화수전통육개장","industry":"국/탕/찌개류","coordinates":[127.408423475829,36.321523836162],"sales":{"202602":2427}},{"id":"MA0101202406A0527685","name":"씨오에이치에스","industry":"경영 컨설팅업","coordinates":[127.41045406155,36.3222468351788],"sales":{"202602":7393}},{"id":"MA0101202406A0579901","name":"이에이치개발","industry":"부동산 중개/대리업","coordinates":[127.41045406155,36.3222468351788],"sales":{"202602":287}},{"id":"MA0101202406A0590950","name":"풍경인","industry":"기타 교육지원 서비스업","coordinates":[127.403848654995,36.326261553626],"sales":{"202602":433}},{"id":"MA0101202408A0014683","name":"제이콥수학영어학원","industry":"입시·교과학원","coordinates":[127.405731917698,36.3221818508811],"sales":{"202602":913}},{"id":"MA0101202408A0031041","name":"써니영어학원","industry":"입시·교과학원","coordinates":[127.406638819706,36.3252607982985],"sales":{"202602":367}},{"id":"MA0101202408A0049818","name":"365모두한의원","industry":"한의원","coordinates":[127.409405285077,36.3218719370201],"sales":{"202602":798}},{"id":"MA0101202408A0063020","name":"프라임삼성정육점","industry":"정육점","coordinates":[127.408004956681,36.3224174319855],"sales":{"202602":2703}},{"id":"MA0101202409A0004041","name":"세븐일레븐대전오류SJ점","industry":"편의점","coordinates":[127.401628581094,36.329855720988],"sales":{"202602":1041}},{"id":"MA0101202409A0028511","name":"히스피","industry":"카페","coordinates":[127.409037888479,36.32189121837],"sales":{"202602":1288}},{"id":"MA0101202409A0034480","name":"미씨","industry":"기타 의류 소매업","coordinates":[127.406638819706,36.3252607982985],"sales":{"202602":379}},{"id":"MA0101202409A0049312","name":"봄앤드림","industry":"액세서리/잡화 소매업","coordinates":[127.405032318152,36.3268703493753],"sales":{"202602":2338}},{"id":"MA0101202409A0054915","name":"문라잇SMP","industry":"화장품 소매업","coordinates":[127.406638819706,36.3252607982985],"sales":{"202602":564}},{"id":"MA0101202409A0059956","name":"마른5","industry":"건어물/젓갈 소매업","coordinates":[127.408729889564,36.3226222263343],"sales":{"202602":3331}},{"id":"MA0101202409A0079701","name":"썬","industry":"요리 주점","coordinates":[127.408670632834,36.3219375334588],"sales":{"202602":383}},{"id":"MA0101202409A0080278","name":"귀족볶음밥대전","industry":"백반/한정식","coordinates":[127.403767397097,36.3256219918487],"sales":{"202602":859}},{"id":"MA0101202409A0087020","name":"헬스트론","industry":"의료기기 소매업","coordinates":[127.410639378513,36.323606977627],"sales":{"202602":215}},{"id":"MA0101202409A0125794","name":"참새","industry":"백반/한정식","coordinates":[127.403859908851,36.3284423655579],"sales":{"202602":747}},{"id":"MA0101202409A0129442","name":"제주602","industry":"돼지고기 구이/찜","coordinates":[127.405188439635,36.3226072482171],"sales":{"202602":985}},{"id":"MA0101202409A0146540","name":"일등약국","industry":"약국","coordinates":[127.411060571282,36.3232270351397],"sales":{"202602":4455}},{"id":"MA0101202409A0150898","name":"금빛로또방","industry":"복권 발행/판매업","coordinates":[127.411404422175,36.3229645105273],"sales":{"202602":606}},{"id":"MA0101202409A0159360","name":"스몰즈뮤직스튜디오","industry":"기타 개인/가정용품 대여업","coordinates":[127.404625661181,36.3279170927544],"sales":{"202602":434}},{"id":"MA0101202409A0161797","name":"노모어피자","industry":"피자","coordinates":[127.408824843762,36.3216125819259],"sales":{"202602":620}},{"id":"MA0101202409A0163958","name":"군자대한곱창","industry":"곱창 전골/구이","coordinates":[127.410337044103,36.3232926035804],"sales":{"202602":1167}},{"id":"MA0101202409A0170114","name":"샤인옵틱","industry":"안경렌즈 소매업","coordinates":[127.405032318152,36.3268703493753],"sales":{"202602":5459}},{"id":"MA0101202409A0213489","name":"조선명가","industry":"백반/한정식","coordinates":[127.40623710398,36.3272537671018],"sales":{"202602":597}},{"id":"MA0101202409A0218938","name":"카페드피오르테","industry":"백반/한정식","coordinates":[127.408580368122,36.3217125474454],"sales":{"202602":1111}},{"id":"MA0101202409A0219571","name":"쿵쿵따노래연습장","industry":"노래방","coordinates":[127.408852623025,36.3226668655047],"sales":{"202602":485}},{"id":"MA0101202409A0233150","name":"왕가한우","industry":"소고기 구이/찜","coordinates":[127.408580368122,36.3217125474454],"sales":{"202602":2117}},{"id":"MA0101202409A0237092","name":"이게김치찌개&김치찜","industry":"국/탕/찌개류","coordinates":[127.402271992547,36.3293579096609],"sales":{"202602":1547}},{"id":"MA0101202409A0241021","name":"오류동꼬마김밥","industry":"김밥/만두/분식","coordinates":[127.405413490236,36.3273556930452],"sales":{"202602":2041}},{"id":"MA0101202409A0241883","name":"헌터독","industry":"전자 게임장","coordinates":[127.410566793673,36.322507789698],"sales":{"202602":2729}},{"id":"MA0101202409A0242748","name":"머무르다시설유지","industry":"사업시설 유지·관리 서비스업","coordinates":[127.404182291076,36.3261703081171],"sales":{"202602":1320}},{"id":"MA0101202409A0250510","name":"비드인폼","industry":"기타 교육지원 서비스업","coordinates":[127.41045406155,36.3222468351788],"sales":{"202602":1393}},{"id":"MA0101202409A0254182","name":"뮤엠영어삼성영어교습소","industry":"입시·교과학원","coordinates":[127.405034258278,36.322941206737],"sales":{"202602":616}},{"id":"MA0101202409A0261049","name":"행복정육점","industry":"정육점","coordinates":[127.404536667062,36.3236277872695],"sales":{"202602":1474}},{"id":"MA0101202410A0213682","name":"늘푸른케어","industry":"고용 알선업","coordinates":[127.41045406155,36.3222468351788],"sales":{}},{"id":"MA0101202410A0295432","name":"서울삼성치과","industry":"치과의원","coordinates":[127.409829541442,36.3220777541754],"sales":{"202602":5842}},{"id":"MA0101202410A0358672","name":"더사랑하라","industry":"꽃집","coordinates":[127.407832984195,36.3214717815985],"sales":{"202602":427}},{"id":"MA0101202410A0389669","name":"나누미취업정보","industry":"고용 알선업","coordinates":[127.41045406155,36.3222468351788],"sales":{}},{"id":"MA0101202410A0432008","name":"소생한의원","industry":"한의원","coordinates":[127.411404422175,36.3229645105273],"sales":{"202602":1185}},{"id":"MA0101202410A0442566","name":"중부정형외과，신경외과의원","industry":"외과 의원","coordinates":[127.411060571282,36.3232270351397],"sales":{"202602":11568}},{"id":"MA0101202410A0442584","name":"세계영상의학과의원","industry":"방사선 진단/병리 검사 의원","coordinates":[127.411580753926,36.322612444041],"sales":{"202602":18614}},{"id":"MA0101202410A0442664","name":"시사저널중부지사","industry":"서점","coordinates":[127.41045406155,36.3222468351788],"sales":{"202602":3243}},{"id":"MA0101202410A0442721","name":"한주식품","industry":"정육점","coordinates":[127.40766711707,36.3216976420025],"sales":{"202602":1748}},{"id":"MA0101202410A0442784","name":"제일신경과의원","industry":"내과/소아과 의원","coordinates":[127.409829541442,36.3220777541754],"sales":{"202602":3440}},{"id":"MA0101202410A0442838","name":"조병옥치과의원","industry":"치과의원","coordinates":[127.409405285077,36.3218719370201],"sales":{"202602":2089}},{"id":"MA0101202410A0442874","name":"나이팅게일간호학원","industry":"기타 기술/직업 훈련학원","coordinates":[127.411404422175,36.3229645105273],"sales":{"202602":1049}},{"id":"MA0101202410A0442889","name":"은혜기독교","industry":"서점","coordinates":[127.402022921298,36.3307375489889],"sales":{"202602":1987}},{"id":"MA0101202410A0442928","name":"류진희산부인과","industry":"산부인과 의원","coordinates":[127.409829541442,36.3220777541754],"sales":{"202602":4068}},{"id":"MA0101202410A0442939","name":"그린여성인력","industry":"고용 알선업","coordinates":[127.41045406155,36.3222468351788],"sales":{}},{"id":"MA0101202410A0442997","name":"두룡인력공사","industry":"고용 알선업","coordinates":[127.404536667062,36.3236277872695],"sales":{}},{"id":"MA0101202410A0443065","name":"비전탑학원","industry":"입시·교과학원","coordinates":[127.409405285077,36.3218719370201],"sales":{"202602":505}},{"id":"MA0101202410A0443069","name":"해달별연합한의원","industry":"한의원","coordinates":[127.410152205381,36.3220225767599],"sales":{"202602":4740}},{"id":"MA0101202410A0443076","name":"상쾌한내과","industry":"내과/소아과 의원","coordinates":[127.409561378855,36.3219074494226],"sales":{"202602":3557}},{"id":"MA0101202410A0443107","name":"참이비인후과의원","industry":"이비인후과 의원","coordinates":[127.409829541442,36.3220777541754],"sales":{"202602":2741}},{"id":"MA0101202410A0443240","name":"온누리인력센터","industry":"고용 알선업","coordinates":[127.41045406155,36.3222468351788],"sales":{}},{"id":"MA0101202410A0443320","name":"영동청과","industry":"채소/과일 소매업","coordinates":[127.407544291961,36.3216349783455],"sales":{"202602":1553}},