[{"id":"MA010120220800114164","name":"물고기자리","industry":"돼지고기 구이/찜","coordinates":[127.395109902437,36.3071406943399],"sales":{"202602":413}},{"id":"MA010120220800115081","name":"반하다","industry":"여성 의류 소매업","coordinates":[127.387812035556,36.3061372437454],"sales":{"202602":271}},{"id":"MA010120220800236006","name":"돈피꼬","industry":"치킨","coordinates":[127.391943288287,36.3062409248198],"sales":{"202602":1100}},{"id":"MA010120220800309784","name":"니니","industry":"기타 의류 소매업","coordinates":[127.389037522717,36.3062864630115],"sales":{"202602":142}},{"id":"MA010120220800607439","name":"바이크앤피플","industry":"기타 의류 소매업","coordinates":[127.381442170698,36.2853133705724],"sales":{"202602":545}},{"id":"MA010120220800634341","name":"라이브노래연습장","industry":"노래방","coordinates":[127.394529776292,36.3113331004535],"sales":{"202602":941}},{"id":"MA010120220800636213","name":"목화상사","industry":"전기용품/조명장치 소매업","coordinates":[127.385554696872,36.2999354014325],"sales":{"202602":785}},{"id":"MA010120220800660046","name":"정타이어","industry":"타이어 소매업","coordinates":[127.382348272717,36.2953586776899],"sales":{"202602":241}},{"id":"MA010120220800757327","name":"수노래연습장","industry":"노래방","coordinates":[127.384852746054,36.3043534551629],"sales":{"202602":421}},{"id":"MA010120220800810921","name":"사계절추어탕","industry":"국/탕/찌개류","coordinates":[127.386418408055,36.3035012941581],"sales":{"202602":546}},{"id":"MA010120220800834921","name":"그집엔","industry":"백반/한정식","coordinates":[127.385773026838,36.3058374388674],"sales":{"202602":1103}},{"id":"MA010120220800851971","name":"에스카이기획","industry":"전시/컨벤션/행사 대행 서비스업","coordinates":[127.380735459442,36.2910651786589],"sales":{"202602":678}},{"id":"MA010120220800913280","name":"산마을식당","industry":"요리 주점","coordinates":[127.384698867028,36.3047594821779],"sales":{"202602":76}},{"id":"MA010120220801148441","name":"남양유업대전중부가정","industry":"우유 소매업","coordinates":[127.390569226608,36.3120219908516],"sales":{}},{"id":"MA010120220801165583","name":"호수약국","industry":"약국","coordinates":[127.386024574713,36.3049174217297],"sales":{"202602":21535}},{"id":"MA010120220801501092","name":"터미널식당","industry":"백반/한정식","coordinates":[127.389482686776,36.3129627633444],"sales":{"202602":1341}},{"id":"MA010120220801651684","name":"한라종합기계공구","industry":"철물/공구 소매업","coordinates":[127.385836395031,36.3006193912672],"sales":{"202602":876}},{"id":"MA010120220801690585","name":"김밥삼형제","industry":"김밥/만두/분식","coordinates":[127.394726304694,36.3061416504804],"sales":{"202602":798}},{"id":"MA010120220801862766","name":"명월축산도매센터","industry":"정육점","coordinates":[127.379684532999,36.2878332692165],"sales":{"202602":3317}},{"id":"MA010120220801985087","name":"한림모터스","industry":"자동차 정비소","coordinates":[127.385845205659,36.2956268109444],"sales":{"202602":1211}},{"id":"MA010120220802079363","name":"에어컨8282","industry":"가전제품 수리업","coordinates":[127.385944351757,36.2999341442628],"sales":{"202602":499}},{"id":"MA010120220802173725","name":"예산떡집","industry":"떡/한과","coordinates":[127.38855773693,36.3060807516049],"sales":{"202602":1578}},{"id":"MA010120220802342686","name":"박지현헤어","industry":"미용실","coordinates":[127.385530344756,36.3062978242485],"sales":{"202602":533}},{"id":"MA010120220802396015","name":"랑이랑북","industry":"중고 상품 소매업","coordinates":[127.385695977546,36.3060179237595],"sales":{"202602":202}},{"id":"MA010120220802505511","name":"중앙헤어","industry":"미용실","coordinates":[127.389011987469,36.3056286837014],"sales":{"202602":164}},{"id":"MA010120220802508634","name":"창","industry":"마사지/안마","coordinates":[127.386679372253,36.3044917503302],"sales":{"202602":315}},{"id":"MA010120220802510176","name":"위아래복집","industry":"복 요리 전문","coordinates":[127.384405237214,36.2948384079199],"sales":{"202602":4494}},{"id":"MA010120220802652470","name":"아궁이","industry":"백반/한정식","coordinates":[127.39134764211,36.3073603407503],"sales":{"202602":669}},{"id":"MA010120220802684700","name":"슈가플래닛","industry":"광고 대행업","coordinates":[127.392007363307,36.3123687439858],"sales":{"202602":663}},{"id":"MA010120220802872131","name":"푸른수산","industry":"수산물 소매업","coordinates":[127.388323970409,36.3060905229481],"sales":{"202602":5343}},{"id":"MA010120220802903606","name":"하민상회","industry":"슈퍼마켓","coordinates":[127.394377372163,36.3076027153494],"sales":{"202602":7843}},{"id":"MA010120220802945582","name":"경인개발","industry":"장례식장","coordinates":[127.390269115247,36.2942516667572],"sales":{"202602":15409}},{"id":"MA010120220802959232","name":"소망공인중개사사무소","industry":"부동산 중개/대리업","coordinates":[127.393330814234,36.3098320797767],"sales":{"202602":348}},{"id":"MA010120220802988395","name":"써니미용실","industry":"미용실","coordinates":[127.387838588046,36.3025053955387],"sales":{"202602":103}},{"id":"MA010120220802995041","name":"정인모터스","industry":"자동차 정비소","coordinates":[127.375061738473,36.2825038315705],"sales":{"202602":692}},{"id":"MA010120220803003712","name":"영희옷수선","industry":"의류/이불 수선업","coordinates":[127.385564278822,36.3064058565853],"sales":{"202602":26}},{"id":"MA010120220803032383","name":"옵티스트","industry":"시각 디자인업","coordinates":[127.386792658972,36.3071408573778],"sales":{"202602":1111}},{"id":"MA010120220803033784","name":"초간편의신","industry":"반찬/식료품 소매업","coordinates":[127.388847127972,36.3060617870858],"sales":{"202602":2864}},{"id":"MA010120220803045835","name":"대전시민햇빛발전협동조합","industry":"그 외 기타 교육기관","coordinates":[127.392918570368,36.3097793645621],"sales":{"202602":362}},{"id":"MA010120220803062813","name":"한일유통경영원","industry":"건강보조식품 소매업","coordinates":[127.395956828318,36.3116888544839],"sales":{"202602":1687}},{"id":"MA010120220803082068","name":"십이월구","industry":"피자","coordinates":[127.385573771253,36.3060723888387],"sales":{"202602":1007}},{"id":"MA010120220803107774","name":"국민방충망국민간판","industry":"명함/간판/광고물 제작","coordinates":[127.382680259849,36.2926720891706],"sales":{"202602":606}},{"id":"MA010120220803111715","name":"늘솜베이커리","industry":"빵/도넛","coordinates":[127.387817056265,36.3049026088369],"sales":{"202602":832}},{"id":"MA010120220803123901","name":"임진강참숯민물장어","industry":"해산물 구이/찜","coordinates":[127.384765143005,36.2955852322934],"sales":{"202602":1225}},{"id":"MA010120220803125951","name":"일오삼돼지갈비","industry":"백반/한정식","coordinates":[127.39441836852,36.3068996589219],"sales":{"202602":1095}},{"id":"MA010120220803132027","name":"자연산잡어횟집","industry":"횟집","coordinates":[127.39425417149,36.3074589327466],"sales":{"202602":401}},{"id":"MA010120220803134388","name":"시영엔지니어링","industry":"기타 엔지니어링 서비스업","coordinates":[127.389302492041,36.3103138795986],"sales":{"202602":39245}},{"id":"MA010120220803150379","name":"씨에스와이","industry":"의료기기 소매업","coordinates":[127.379881408996,36.2894097164015],"sales":{"202602":707}},{"id":"MA010120220803185036","name":"달노래연습장","industry":"노래방","coordinates":[127.384174464048,36.2954519541643],"sales":{"202602":247}},{"id":"MA010120220803196619","name":"염가네영양탕","industry":"백반/한정식","coordinates":[127.389600465177,36.305302342118],"sales":{"202602":589}},{"id":"MA010120220803216669","name":"찬스","industry":"백반/한정식","coordinates":[127.387077244263,36.306148636844],"sales":{"202602":1485}},{"id":"MA010120220803245207","name":"구초이스","industry":"스포츠/레크리에이션 용품 대여업","coordinates":[127.387880380124,36.3086963766033],"sales":{"202602":422}},{"id":"MA010120220803255210","name":"지에스지엠대전하나로","industry":"기타 의류 소매업","coordinates":[127.37845261556,36.2885941693581],"sales":{"202602":439}},{"id":"MA010120220803282780","name":"써니노래연습장","industry":"노래방","coordinates":[127.383674522705,36.2956608315637],"sales":{"202602":898}},{"id":"MA010120220803284180","name":"제이에스귀금속","industry":"시계/귀금속 소매업","coordinates":[127.387573497224,36.3051827649363],"sales":{"202602":1327}},{"id":"MA010120220803305539","name":"계룡종합카","industry":"자동차 정비소","coordinates":[127.383780549776,36.2945790714875],"sales":{"202602":907}},{"id":"MA010120220803323657","name":"다올정육","industry":"정육점","coordinates":[127.386329051837,36.3057004661867],"sales":{"202602":2776}},{"id":"MA010120220803369718","name":"또바기협동조합","industry":"사진촬영업","coordinates":[127.382719734046,36.2961955895553],"sales":{"202602":275}},{"id":"MA010120220803397329","name":"대흥","industry":"주방/가정용품 소매업","coordinates":[127.382649944396,36.2933030146576],"sales":{"202602":423}},{"id":"MA010120220803506493","name":"유가본가설렁탕","industry":"국/탕/찌개류","coordinates":[127.384429535567,36.3043277812842],"sales":{"202602":1552}},{"id":"MA010120220803514891","name":"물이야기","industry":"가전제품 수리업","coordinates":[127.390254887096,36.3048045579114],"sales":{"202602":273}},{"id":"MA010120220803546390","name":"하우광고디자인","industry":"광고물 설계/제작업","coordinates":[127.390747061956,36.3052625528718],"sales":{"202602":471}},{"id":"MA010120220803678399","name":"카페마크","industry":"피자","coordinates":[127.388750757327,36.2956173993759],"sales":{"202602":428}},{"id":"MA010120220803686697","name":"게버","industry":"기타 의류 소매업","coordinates":[127.37845261556,36.2885941693581],"sales":{"202602":743}},{"id":"MA010120220803716845","name":"강연우동태찌개","industry":"일식 면 요리","coordinates":[127.375851332502,36.2846822205655],"sales":{"202602":360}},{"id":"MA010120220803827417","name":"배스킨라빈스대전","industry":"아이스크림/빙수","coordinates":[127.386024574713,36.3049174217297],"sales":{"202602":1278}},{"id":"MA010120220803854922","name":"노상치킨","industry":"치킨","coordinates":[127.385829317521,36.3059634226247],"sales":{"202602":1293}},{"id":"MA010120220803925762","name":"행복낙지","industry":"해산물 구이/찜","coordinates":[127.385311403632,36.3025315904802],"sales":{"202602":639}},{"id":"MA010120220803960321","name":"우신로스타","industry":"가전제품 수리업","coordinates":[127.380856762911,36.2931194912271],"sales":{"202602":299}},{"id":"MA010120220804074033","name":"다커뮤니케이션즈","industry":"여행사","coordinates":[127.387884555992,36.3117874130741],"sales":{"202602":403}},{"id":"MA010120220804076016","name":"알리미술","industry":"미술학원","coordinates":[127.390782090292,36.3122826375247],"sales":{"202602":278}},{"id":"MA010120220804229960","name":"공현미","industry":"골프 연습장","coordinates":[127.385720046375,36.2973394622841],"sales":{"202602":195}},{"id":"MA010120220804253570","name":"화이트헤어","industry":"미용실","coordinates":[127.392656244018,36.3085365969911],"sales":{"202602":137}},{"id":"MA010120220804332704","name":"흑염소토속마을","industry":"기타 한식 음식점","coordinates":[127.387129305686,36.3054185112926],"sales":{"202602":1030}},{"id":"MA010120220804399779","name":"라온","industry":"경양식","coordinates":[127.37845261556,36.2885941693581],"sales":{"202602":20762}},{"id":"MA010120220804438600","name":"명품상담교육센터","industry":"슈퍼마켓","coordinates":[127.3923173422,36.307564434188],"sales":{"202602":4094}},{"id":"MA010120220804537865","name":"중고야","industry":"중고 상품 소매업","coordinates":[127.400809771934,36.2699749327582],"sales":{"202602":294}},{"id":"MA010120220804542728","name":"롱다리치킨산성한밭가든점","industry":"치킨","coordinates":[127.384876961685,36.3047498971648],"sales":{"202602":975}},{"id":"MA010120220804578945","name":"전통실내포장마차","industry":"요리 주점","coordinates":[127.38706611058,36.3038957189535],"sales":{"202602":1083}},{"id":"MA010120220804700788","name":"행복가득주유소","industry":"주유소","coordinates":[127.389912165434,36.3052923141389],"sales":{"202602":20986}},{"id":"MA010120220804720459","name":"두번째스무살","industry":"무도 유흥 주점","coordinates":[127.382649944396,36.2933030146576],"sales":{"202602":6588}},{"id":"MA010120220804756617","name":"와글와글분식","industry":"김밥/만두/분식","coordinates":[127.385530344756,36.3062978242485],"sales":{"202602":229}},{"id":"MA010120220804772849","name":"프린스컴퍼니","industry":"광고 대행업","coordinates":[127.389047033136,36.3037180647476],"sales":{"202602":978}},{"id":"MA010120220804779460","name":"수에스테틱","industry":"피부 관리실","coordinates":[127.387997159678,36.3052985443502],"sales":{"202602":194}},{"id":"MA010120220804791639","name":"머리하는미용실","industry":"미용실","coordinates":[127.385564278822,36.3064058565853],"sales":{"202602":347}},{"id":"MA010120220804819525","name":"온천이용원","industry":"미용실","coordinates":[127.385721263197,36.306630645549],"sales":{"202602":134}},{"id":"MA010120220804868445","name":"크린크린","industry":"산업설비, 운송장비 및 공공장소 청소업","coordinates":[127.395059411584,36.3059603139743],"sales":{"202602":458}},{"id":"MA010120220804905940","name":"남대전공인중개사사무소","industry":"부동산 중개/대리업","coordinates":[127.393951874784,36.3071264922954],"sales":{"202602":826}},{"id":"MA010120220804924027","name":"오토셀럽","industry":"자동차 세차장","coordinates":[127.3871237842,36.306554017771],"sales":{"202602":1577}},{"id":"MA010120220804945540","name":"유림식당","industry":"백반/한정식","coordinates":[127.390027167802,36.2948472370373],"sales":{"202602":1565}},{"id":"MA010120220804966138","name":"안영한우","industry":"정육점","coordinates":[127.377468993339,36.2854431323712],"sales":{"202602":3658}},{"id":"MA010120220804966568","name":"운정중기","industry":"건설기계/장비 대여업","coordinates":[127.383674522705,36.2956608315637],"sales":{}},{"id":"MA010120220804969607","name":"대진쇼파","industry":"가구 소매업","coordinates":[127.388620160333,36.3119292129184],"sales":{"202602":380}},{"id":"MA010120220804973551","name":"십자약국","industry":"약국","coordinates":[127.388737810393,36.3109555554035],"sales":{"202602":32514}},{"id":"MA010120220804978110","name":"대포한우","industry":"소고기 구이/찜","coordinates":[127.383991349149,36.3012471469895],"sales":{"202602":1091}},{"id":"MA010120220804979456","name":"이화수육개장","industry":"국/탕/찌개류","coordinates":[127.382325355906,36.2929435795628],"sales":{"202602":2185}},{"id":"MA010120220804980003","name":"마성소국밥","industry":"국/탕/찌개류","coordinates":[127.378655970182,36.2869083106774],"sales":{"202602":885}},{"id":"MA010120220805001946","name":"뜨개실","industry":"침구류/커튼 소매업","coordinates":[127.387604461163,36.3069399682859],"sales":{"202602":365}},{"id":"MA010120220805002848","name":"산성꽃집","industry":"꽃집","coordinates":[127.388699793784,36.3055395809831],"sales":{"202602":438}},{"id":"MA010120220805036654","name":"로드나인","industry":"자동차 정비소","coordinates":[127.381001263042,36.2907849650068],"sales":{"202602":1110}},{"id":"MA010120220805036658","name":"이선","industry":"주유소","coordinates":[127.385628415197,36.3013410080448],"sales":{"202602":18029}},{"id":"MA010120220805051582","name":"하나축산","industry":"정육점","coordinates":[127.384162328614,36.3043286401841],"sales":{"202602":1768}},{"id":"MA010120220805075945","name":"로드카페사정점","industry":"카페","coordinates":[127.382719734046,36.2961955895553],"sales":{"202602":1296}},{"id":"MA010120220805076886","name":"시골막국수","industry":"국수/칼국수","coordinates":[127.383411025173,36.2941386771695],"sales":{"202602":1449}},{"id":"MA010120220805101361","name":"동일모터스","industry":"자동차 정비소","coordinates":[127.394753023669,36.3070247197297],"sales":{"202602":1011}},{"id":"MA010120220805111475","name":"우드앤라이프","industry":"운동용품 소매업","coordinates":[127.397336766465,36.2544410338096],"sales":{"202602":1333}},{"id":"MA010120220805175367","name":"새봄마트","industry":"슈퍼마켓","coordinates":[127.385928311913,36.3034578180946],"sales":{"202602":11083}},{"id":"MA010120220805226301","name":"마카롱헤어","industry":"미용실","coordinates":[127.385260693067,36.3058030436924],"sales":{"202602":92}},{"id":"MA010120220805240768","name":"닥터클린","industry":"건축물 일반 청소업","coordinates":[127.382719734046,36.2961955895553],"sales":{"202602":438}},{"id":"MA010120220805264063","name":"굿초이스","industry":"자동차 대여업","coordinates":[127.388511229464,36.3101722647685],"sales":{"202602":11984}},{"id":"MA010120220805304779","name":"메디플러스","industry":"전기용품/조명장치 소매업","coordinates":[127.380289533723,36.2909314201247],"sales":{"202602":1239}},{"id":"MA010120220805332532","name":"아름인테리어","industry":"인테리어 디자인업","coordinates":[127.385328116752,36.3059289918122],"sales":{"202602":793}},{"id":"MA010120220805333575","name":"자람사진관","industry":"사진촬영업","coordinates":[127.384050197034,36.3041667877159],"sales":{"202602":132}},{"id":"MA010120220805335028","name":"경일모터스","industry":"자동차 정비소","coordinates":[127.387567209708,36.3106619665451],"sales":{"202602":6733}},{"id":"MA010120220805335607","name":"오율","industry":"광고 대행업","coordinates":[127.378672254618,36.2902786884372],"sales":{"202602":1071}},{"id":"MA010120220805366888","name":"풍전삼계탕민물장어","industry":"횟집","coordinates":[127.382649944396,36.2933030146576],"sales":{"202602":1185}},{"id":"MA010120220805372103","name":"한밭이용원","industry":"미용실","coordinates":[127.385170824706,36.3056411205824],"sales":{"202602":207}},{"id":"MA010120220805374386","name":"365스킨샵","industry":"화장품 소매업","coordinates":[127.385277365401,36.2956106183652],"sales":{"202602":644}},{"id":"MA010120220805398356","name":"옛날다방","industry":"카페","coordinates":[127.388293411074,36.3111552593909],"sales":{"202602":351}},{"id":"MA010120220805409155","name":"앗싸대패삼겹살","industry":"돼지고기 구이/찜","coordinates":[127.384852746054,36.3043534551629],"sales":{"202602":3758}},{"id":"MA010120220805414517","name":"퓨로클린","industry":"건축물 일반 청소업","coordinates":[127.386792658972,36.3071408573778],"sales":{"202602":486}},{"id":"MA010120220805495501","name":"완도수산야채막회","industry":"횟집","coordinates":[127.394544848908,36.3054843871641],"sales":{"202602":1748}},{"id":"MA010120220805612844","name":"삼현","industry":"자동차 세차장","coordinates":[127.386851128024,36.3099613648861],"sales":{"202602":1468}},{"id":"MA010120220805626079","name":"최에덴헤어","industry":"미용실","coordinates":[127.384698867028,36.3047594821779],"sales":{"202602":219}},{"id":"MA010120220805738023","name":"거성공인중개사사무소","industry":"부동산 중개/대리업","coordinates":[127.385044277739,36.2980175274821],"sales":{"202602":716}},{"id":"MA010120220805738126","name":"목포팥칼국수","industry":"국수/칼국수","coordinates":[127.386003981528,36.302997971052],"sales":{"202602":571}},{"id":"MA010120220805738147","name":"비앤비가구","industry":"가구 소매업","coordinates":[127.393058108395,36.3109594524201],"sales":{"202602":1308}},{"id":"MA010120220805738176","name":"탑골산마루","industry":"백반/한정식","coordinates":[127.394003174587,36.3040442833104],"sales":{"202602":1017}},{"id":"MA010120220805738247","name":"머리사랑미용실","industry":"미용실","coordinates":[127.389072952435,36.3089358202107],"sales":{"202602":256}},{"id":"MA010120220805738258","name":"프라임컴","industry":"전시/컨벤션/행사 대행 서비스업","coordinates":[127.39556991942,36.3100409751935],"sales":{"202602":1004}},{"id":"MA010120220805738583","name":"청양","industry":"백반/한정식","coordinates":[127.389115575306,36.2704371089122],"sales":{"202602":788}},{"id":"MA010120220805739588","name":"신한전자","industry":"가전제품 소매업","coordinates":[127.375444104361,36.2833227103076],"sales":{"202602":2734}},{"id":"MA010120220805739716","name":"계룡카건물","industry":"자동차 정비소","coordinates":[127.383780549776,36.2945790714875],"sales":{"202602":1022}},{"id":"MA010120220805739802","name":"대우세탁소","industry":"세탁소","coordinates":[127.385648732163,36.3032063893223],"sales":{"202602":79}},{"id":"MA010120220805739830","name":"계룡카세차장","industry":"자동차 세차장","coordinates":[127.382580957759,36.3042526046923],"sales":{"202602":450}},{"id":"MA010120220805739903","name":"돌담","industry":"돼지고기 구이/찜","coordinates":[127.382087061456,36.2851671221854],"sales":{"202602":445}},{"id":"MA010120220805739966","name":"산성약국","industry":"약국","coordinates":[127.389011987469,36.3056286837014],"sales":{"202602":15922}},{"id":"MA010120220805740277","name":"만능카센타","industry":"자동차 부품 소매업","coordinates":[127.39292891438,36.3051833073836],"sales":{"202602":1033}},{"id":"MA010120220805740280","name":"아세아상사","industry":"자동차 부품 소매업","coordinates":[127.380420489617,36.2903902931947],"sales":{"202602":2950}},{"id":"MA010120220805740286","name":"현대떡방앗간","industry":"떡/한과","coordinates":[127.388398555828,36.3054143945959],"sales":{"202602":1440}},{"id":"MA010120220805740388","name":"일광세탁","industry":"세탁소","coordinates":[127.385033822504,36.302685685685],"sales":{"202602":61}},{"id":"MA010120220805740463","name":"한밭스토아","industry":"슈퍼마켓","coordinates":[127.389873169089,36.3131146911428],"sales":{"202602":910}},{"id":"MA010120220805740979","name":"공명열쇠","industry":"철물/공구 소매업","coordinates":[127.387863331472,36.3052539195197],"sales":{"202602":614}},{"id":"MA010120220805740988","name":"태평우리소고기국밥","industry":"돼지고기 구이/찜","coordinates":[127.389958495145,36.3056526355971],"sales":{"202602":1473}},{"id":"MA010120220805741323","name":"제일쇼파","industry":"그 외 기타 개인/가정용품 수리업","coordinates":[127.385574567839,36.301710666393],"sales":{"202602":140}},{"id":"MA010120220805741665","name":"한밭레저","industry":"수상/해양 레저업","coordinates":[127.388172404913,36.2844896585766],"sales":{"202602":934}},{"id":"MA010120220805741928","name":"업소명없음","industry":"자동차 정비소","coordinates":[127.380630809123,36.2901463042059],"sales":{"202602":211}},{"id":"MA010120220805741961","name":"새연여행사","industry":"여행사","coordinates":[127.373159904976,36.289836414135],"sales":{"202602":629}},{"id":"MA010120220805742002","name":"산성사","industry":"건설기계/장비 대여업","coordinates":[127.380862325748,36.2942639765231],"sales":{}},{"id":"MA010120220805742028","name":"온누리건강원","industry":"건강보조식품 소매업","coordinates":[127.394382847886,36.3109010186559],"sales":{"202602":3906}},{"id":"MA010120220805742039","name":"제일카센타","industry":"자동차 정비소","coordinates":[127.387584483279,36.3096525880635],"sales":{"202602":1922}},{"id":"MA010120220805742464","name":"가재울식당","industry":"돼지고기 구이/찜","coordinates":[127.387659177376,36.3044975891437],"sales":{"202602":907}},{"id":"MA010120220805742501","name":"행복한식당","industry":"백반/한정식","coordinates":[127.388848261011,36.310774960067],"sales":{"202602":1004}},{"id":"MA010120220805742541","name":"이앤에스글로벌","industry":"환경 관련 엔지니어링 서비스업","coordinates":[127.392698503667,36.3103027724187],"sales":{}},{"id":"MA010120220805742770","name":"제일종합전기","industry":"전기용품/조명장치 소매업","coordinates":[127.38815091989,36.3071184315955],"sales":{"202602":1136}},{"id":"MA010120220805743428","name":"전주콩나물해장국","industry":"국/탕/찌개류","coordinates":[127.388670287384,36.3108115860496],"sales":{"202602":736}},{"id":"MA010120220805743478","name":"나드리철물","industry":"철물/공구 소매업","coordinates":[127.390688291606,36.3046409297263],"sales":{"202602":1160}},{"id":"MA010120220805743942","name":"대우식당","industry":"백반/한정식","coordinates":[127.392656244018,36.3085365969911],"sales":{"202602":2392}},{"id":"MA010120220805744690","name":"한국타이어대원판매","industry":"타이어 소매업","coordinates":[127.384602612457,36.301028898491],"sales":{"202602":846}},{"id":"MA010120220805745106","name":"모나리자","industry":"화장품 소매업","coordinates":[127.387100491899,36.3063468214788],"sales":{"202602":1141}},{"id":"MA010120220805745523","name":"은진이용원","industry":"미용실","coordinates":[127.384819900368,36.3067326802299],"sales":{"202602":341}},{"id":"MA010120220805745922","name":"신앙촌상회","industry":"기타 의류 소매업","coordinates":[127.386428385646,36.3032669546304],"sales":{"202602":534}},{"id":"MA010120220805746048","name":"북도건강원","industry":"건강보조식품 소매업","coordinates":[127.387653708118,36.3056421074448],"sales":{"202602":3613}},{"id":"MA010120220805746184","name":"영화카건설기계","industry":"자동차 정비소","coordinates":[127.383170378033,36.3041155398121],"sales":{"202602":7807}},{"id":"MA010120220805746349","name":"하나로주유소","industry":"주유소","coordinates":[127.38013647204,36.289210645299],"sales":{"202602":14539}},{"id":"MA010120220805746590","name":"라면땡기는날","industry":"김밥/만두/분식","coordinates":[127.37845261556,36.2885941693581],"sales":{"202602":1038}},{"id":"MA010120220805746847","name":"밀레니엄이동통신","industry":"핸드폰 소매업","coordinates":[127.392951250024,36.3096350682412],"sales":{"202602":205}},{"id":"MA010120220805746983","name":"이브자리","industry":"침구류/커튼 소매업","coordinates":[127.38879415433,36.3110905492664],"sales":{"202602":1775}},{"id":"MA010120220805747336","name":"에어컨마을","industry":"가전제품 수리업","coordinates":[127.391409743721,36.3108747426419],"sales":{"202602":468}},{"id":"MA010120220805747660","name":"만다린","industry":"중국집","coordinates":[127.391597507044,36.3061158925521],"sales":{"202602":2302}},{"id":"MA010120220805747971","name":"종합오토바이","industry":"모터사이클 및 부품 소매업","coordinates":[127.392333098138,36.3107095034266],"sales":{"202602":992}},{"id":"MA010120220805748095","name":"한밭골식당","industry":"백반/한정식","coordinates":[127.385642793082,36.3065227569301],"sales":{"202602":366}},{"id":"MA010120220805748217","name":"끼미헤어샵","industry":"미용실","coordinates":[127.385695977546,36.3060179237595],"sales":{"202602":369}},{"id":"MA010120220805748472","name":"산서휴게소","industry":"슈퍼마켓","coordinates":[127.400875688044,36.2719843571571],"sales":{"202602":4702}},{"id":"MA010120220805748602","name":"그린세탁소","industry":"세탁소","coordinates":[127.394826503047,36.310557105651],"sales":{"202602":163}},{"id":"MA010120220805748672","name":"신세계커텐홈패션","industry":"침구류/커튼 소매업","coordinates":[127.394377372163,36.3076027153494],"sales":{"202602":927}},{"id":"MA010120220805748738","name":"복순대식당","industry":"국/탕/찌개류","coordinates":[127.388793069102,36.3063863881815],"sales":{"202602":707}},{"id":"MA010120220805748753","name":"황토우렁이마을식당","industry":"백반/한정식","coordinates":[127.38818498014,36.3094974389656],"sales":{"202602":1159}},{"id":"MA010120220805748758","name":"머리하는남자맨","industry":"미용실","coordinates":[127.386441208578,36.3036093622805],"sales":{"202602":154}},{"id":"MA010120220805748971","name":"한밭세탁소","industry":"세탁소","coordinates":[127.384819900368,36.3067326802299],"sales":{"202602":136}},{"id":"MA010120220805749052","name":"한우종가","industry":"소고기 구이/찜","coordinates":[127.394467624905,36.3078367246308],"sales":{"202602":933}},{"id":"MA010120220805749269","name":"부부장식","industry":"벽지/장판/마루 소매업","coordinates":[127.386428385646,36.3032669546304],"sales":{"202602":337}},{"id":"MA010120220805749652","name":"미래","industry":"자동차 정비소","coordinates":[127.384602612457,36.301028898491],"sales":{"202602":372}},{"id":"MA010120220805749702","name":"웰빙이용원","industry":"미용실","coordinates":[127.384869893887,36.2965131136455],"sales":{"202602":105}},{"id":"MA010120220805750323","name":"영지건축인테리어","industry":"인테리어 디자인업","coordinates":[127.391575184702,36.3105587876568],"sales":{"202602":1070}},{"id":"MA010120220805750565","name":"선광방제","industry":"소독, 구충 및 방제 서비스업","coordinates":[127.389202577752,36.3081333472067],"sales":{"202602":1545}},{"id":"MA010120220805750643","name":"궁중칼국수","industry":"국수/칼국수","coordinates":[127.379785151257,36.2879230681272],"sales":{"202602":888}},{"id":"MA010120220805750716","name":"혜미미용실","industry":"미용실","coordinates":[127.38585325418,36.3017818618827],"sales":{"202602":97}},{"id":"MA010120220805750961","name":"유노헤어크리닉","industry":"미용실","coordinates":[127.392890457085,36.310833838251],"sales":{"202602":109}},{"id":"MA010120220805750964","name":"남부식당","industry":"백반/한정식","coordinates":[127.385383834642,36.303675858063],"sales":{"202602":1176}},{"id":"MA010120220805751082","name":"호호식당","industry":"요리 주점","coordinates":[127.392656244018,36.3085365969911],"sales":{"202602":296}},{"id":"MA010120220805751100","name":"희라식당","industry":"백반/한정식","coordinates":[127.388824962792,36.3105677642922],"sales":{"202602":711}},{"id":"MA010120220805751107","name":"만년공구철물","industry":"철물/공구 소매업","coordinates":[127.38525601161,36.3003238726595],"sales":{"202602":1221}},{"id":"MA010120220805751451","name":"내고향식당","industry":"백반/한정식","coordinates":[127.384316828626,36.3040487772836],"sales":{"202602":710}},{"id":"MA010120220805751882","name":"애견＆만들기","industry":"애완동물/애완용품 소매업","coordinates":[127.393247667344,36.3110128998496],"sales":{"202602":371}},{"id":"MA010120220805752114","name":"뷰티헤어샵","industry":"미용실","coordinates":[127.387122179218,36.3039766437734],"sales":{"202602":75}},{"id":"MA010120220805752261","name":"디아망헤어","industry":"미용실","coordinates":[127.384162328614,36.3043286401841],"sales":{"202602":340}},{"id":"MA010120220805752483","name":"서부카서비스","industry":"자동차 정비소","coordinates":[127.388192529673,36.3110204099211],"sales":{"202602":702}},{"id":"MA010120220805752671","name":"이복희헤어샵","industry":"미용실","coordinates":[127.393330814234,36.3098320797767],"sales":{"202602":165}},{"id":"MA010120220805752899","name":"대전송어장","industry":"횟집","coordinates":[127.395201256696,36.2700656916839],"sales":{"202602":3402}},{"id":"MA010120220805752948","name":"팬시아","industry":"문구/회화용품 소매업","coordinates":[127.386040283305,36.3058455880084],"sales":{"202602":1100}},{"id":"MA010120220805753058","name":"김판순김치찌개","industry":"백반/한정식","coordinates":[127.380411787753,36.2931839905877],"sales":{"202602":404}},{"id":"MA010120220805754333","name":"한밭전기열쇠","industry":"철물/공구 소매업","coordinates":[127.387370995145,36.3047598658983],"sales":{"202602":494}},{"id":"MA010120220805754337","name":"한밭레이저잉크","industry":"컴퓨터/소프트웨어 소매업","coordinates":[127.384819900368,36.3067326802299],"sales":{"202602":311}},{"id":"MA010120220805754518","name":"처갓집양념치킨산성","industry":"치킨","coordinates":[127.384819900368,36.3067326802299],"sales":{"202602":493}},{"id":"MA010120220805754812","name":"삼창미용실","industry":"미용실","coordinates":[127.39178800483,36.313036336492],"sales":{"202602":265}},{"id":"MA010120220805754833","name":"안영철물건재","industry":"철물/공구 소매업","coordinates":[127.380944465548,36.2905508381478],"sales":{"202602":1078}},{"id":"MA010120220805754951","name":"그린파크","industry":"여관/모텔","coordinates":[127.388274091001,36.3117501013173],"sales":{"202602":1400}},{"id":"MA010120220805754957","name":"삐까삐까미용실","industry":"미용실","coordinates":[127.394844364577,36.3096829015191],"sales":{"202602":296}},{"id":"MA010120220805754958","name":"청원스크린골프","industry":"골프 연습장","coordinates":[127.380568074049,36.293273611618],"sales":{"202602":199}},{"id":"MA010120220805755993","name":"하나로컴퓨터세탁소","industry":"세탁소","coordinates":[127.392656244018,36.3085365969911],"sales":{"202602":355}},{"id":"MA010120220805756266","name":"아오지탄광촌","industry":"돼지고기 구이/찜","coordinates":[127.394273362748,36.3112708637702],"sales":{"202602":1047}},{"id":"MA010120220805756434","name":"산성의류","industry":"기타 의류 소매업","coordinates":[127.387667339777,36.3061467248412],"sales":{"202602":648}},{"id":"MA010120220805757283","name":"진지방","industry":"국/탕/찌개류","coordinates":[127.391401167992,36.3136143589807],"sales":{"202602":1189}},{"id":"MA010120220805757667","name":"스피드카센타","industry":"자동차 정비소","coordinates":[127.389947438507,36.3101405532897],"sales":{"202602":493}},{"id":"MA010120220805758208","name":"아크리스","industry":"여관/모텔","coordinates":[127.387992107423,36.3110210605623],"sales":{"202602":198}},{"id":"MA010120220805758480","name":"뉴마스타자동차써비스","industry":"자동차 정비소","coordinates":[127.385693122986,36.296393307149],"sales":{"202602":1071}},{"id":"MA010120220805758524","name":"준미용실","industry":"미용실","coordinates":[127.384916492119,36.3037314345102],"sales":{"202602":229}},{"id":"MA010120220805758668","name":"아우토반","industry":"자동차 부품 소매업","coordinates":[127.392394540311,36.3051940742788],"sales":{"202602":2054}},{"id":"MA010120220805758698","name":"하나더세탁소","industry":"세탁소","coordinates":[127.385328116752,36.3059289918122],"sales":{"202602":201}},{"id":"MA010120220805759034","name":"영성공구철물건재","industry":"철물/공구 소매업","coordinates":[127.38545875667,36.3008008458092],"sales":{"202602":2759}},{"id":"MA010120220805759141","name":"창조광고기획","industry":"옥외/전시 광고 대행업","coordinates":[127.391138363215,36.3055856986177],"sales":{"202602":1113}},{"id":"MA010120220805759544","name":"선경상사","industry":"자동차 부품 소매업","coordinates":[127.387403925933,36.3091665356159],"sales":{"202602":1067}},{"id":"MA010120220805759621","name":"한밭부동산종합관리","industry":"건축물 일반 청소업","coordinates":[127.381775233518,36.2919900826559],"sales":{"202602":292}},{"id":"MA010120220805759704","name":"뷰티헤어클럽","industry":"미용실","coordinates":[127.38660397213,36.3050056677029],"sales":{"202602":73}},{"id":"MA010120220805759901","name":"장터소머리국밥","industry":"국/탕/찌개류","coordinates":[127.379986344772,36.2880936539821],"sales":{"202602":1053}},{"id":"MA010120220805759990","name":"평화하우징","industry":"가구 소매업","coordinates":[127.393514388358,36.306479082722],"sales":{"202602":1177}},{"id":"MA010120220805760269","name":"금산상회","industry":"슈퍼마켓","coordinates":[127.398843865035,36.2773081462691],"sales":{"202602":3617}},{"id":"MA010120220805760651","name":"토방식당","industry":"백반/한정식","coordinates":[127.389084022003,36.2708066981058],"sales":{"202602":819}},{"id":"MA010120220805760730","name":"명성이용원","industry":"미용실","coordinates":[127.39210604183,36.312062019051],"sales":{"202602":147}},{"id":"MA010120220805760731","name":"정미용실","industry":"미용실","coordinates":[127.385978384267,36.3023221672189],"sales":{"202602":163}},{"id":"MA010120220805760737","name":"선이미용실","industry":"미용실","coordinates":[127.387812035556,36.3061372437454],"sales":{"202602":169}},{"id":"MA010120220805760751","name":"우성식품","industry":"슈퍼마켓","coordinates":[127.393164884181,36.3100489089463],"sales":{"202602":1177}},{"id":"MA010120220805760752","name":"형제돗자리","industry":"주방/가정용품 소매업","coordinates":[127.385957982497,36.3027007295165],"sales":{"202602":1228}},{"id":"MA010120220805760763","name":"청솔광고사","industry":"명함/간판/광고물 제작","coordinates":[127.387629377633,36.3097245369735],"sales":{"202602":337}},{"id":"MA010120220805760777","name":"산성이용원","industry":"미용실","coordinates":[127.389458553855,36.3103494185172],"sales":{"202602":143}},{"id":"MA010120220805760789","name":"광고디자인이색","industry":"옥외/전시 광고 대행업","coordinates":[127.391452570066,36.3105321537965],"sales":{"202602":963}},{"id":"MA010120220805760797","name":"산성공주슈퍼","industry":"슈퍼마켓","coordinates":[127.388646944898,36.3105953785772],"sales":{"202602":8424}},{"id":"MA010120220805760813","name":"한일지업사","industry":"벽지/장판/마루 소매업","coordinates":[127.390270735587,36.3057507466824],"sales":{"202602":102}},{"id":"MA010120220805760820","name":"산성식당","industry":"백반/한정식","coordinates":[127.391632530859,36.3064402030724],"sales":{"202602":2525}},{"id":"MA010120220805760829","name":"선일농장","industry":"돼지고기 구이/찜","coordinates":[127.392529593505,36.3010391833714],"sales":{"202602":605}},{"id":"MA010120220805760832","name":"풍년떡방앗간전통떡","industry":"떡/한과","coordinates":[127.389814966684,36.3058964226391],"sales":{"202602":697}},{"id":"MA010120220805760847","name":"극동오토바이","industry":"모터사이클 수리업","coordinates":[127.388251940609,36.3050363745847],"sales":{"202602":480}},{"id":"MA010120220805760873","name":"한빛미용실","industry":"미용실","coordinates":[127.387939705503,36.3049382581826],"sales":{"202602":469}},{"id":"MA010120220805760881","name":"산성이용원","industry":"미용실","coordinates":[127.385955629174,36.3022231106558],"sales":{"202602":76}},{"id":"MA010120220805760886","name":"비단골건강원","industry":"건강보조식품 소매업","coordinates":[127.394377372163,36.3076027153494],"sales":{"202602":730}},{"id":"MA010120220805760943","name":"성금당","industry":"시계/귀금속 소매업","coordinates":[127.388924322948,36.3103962167536],"sales":{"202602":2310}},{"id":"MA010120220805760947","name":"종윤카센타","industry":"자동차 정비소","coordinates":[127.38785081891,36.2959807951497],"sales":{"202602":2045}},{"id":"MA010120220805760957","name":"옛날해장국","industry":"국/탕/찌개류","coordinates":[127.395087279482,36.3114844599342],"sales":{"202602":1550}},{"id":"MA010120220805760965","name":"산성보성당","industry":"시계/귀금속 소매업","coordinates":[127.386009799225,36.3041785004588],"sales":{"202602":1905}},{"id":"MA010120220805760966","name":"금옥사","industry":"시계/귀금속 소매업","coordinates":[127.392221888351,36.3107369037615],"sales":{"202602":2152}},{"id":"MA010120220805760969","name":"쌍방울","industry":"기타 의류 소매업","coordinates":[127.387100491899,36.3063468214788],"sales":{"202602":984}},{"id":"MA010120220805760986","name":"작은편의점","industry":"슈퍼마켓","coordinates":[127.383750340388,36.3043209514753],"sales":{"202602":1853}},{"id":"MA010120220805760994","name":"신진콜렉션","industry":"기타 의류 소매업","coordinates":[127.388157007044,36.3061000769617],"sales":{"202602":1013}},{"id":"MA010120220805761333","name":"성신공인중개사사무소","industry":"부동산 중개/대리업","coordinates":[127.392656244018,36.3085365969911],"sales":{"202602":624}},{"id":"MA010120220805761568","name":"임실치즈피자","industry":"피자","coordinates":[127.387573497224,36.3051827649363],"sales":{"202602":1850}},{"id":"MA010120220805761585","name":"형제자전차","industry":"자전거 소매업","coordinates":[127.385323297511,36.3004227858847],"sales":{"202602":755}},{"id":"MA010120220805761590","name":"산성종합유통","industry":"슈퍼마켓","coordinates":[127.38881466586,36.3062511407473],"sales":{"202602":17824}},{"id":"MA010120220805761618","name":"신천목욕탕","industry":"목욕탕/사우나","coordinates":[127.384607585029,36.304309185002],"sales":{"202602":1481}},{"id":"MA010120220805761628","name":"그린파워","industry":"가전제품 소매업","coordinates":[127.389290751066,36.3124316921207],"sales":{"202602":2481}},{"id":"MA010120220805761637","name":"미성자동차","industry":"자동차 정비소","coordinates":[127.380688831135,36.2906327588436],"sales":{"202602":618}},{"id":"MA010120220805761857","name":"맥스원","industry":"요리 주점","coordinates":[127.394529776292,36.3113331004535],"sales":{"202602":224}},{"id":"MA010120220805761873","name":"헤어스타일","industry":"미용실","coordinates":[127.392677183702,36.3104920903728],"sales":{"202602":237}},{"id":"MA010120220805762082","name":"사정공구철물","industry":"철물/공구 소매업","coordinates":[127.384701066035,36.2984061408191],"sales":{"202602":1085}},{"id":"MA010120220805762121","name":"산성방앗간","industry":"반찬/식료품 소매업","coordinates":[127.387077244263,36.306148636844],"sales":{"202602":494}},{"id":"MA010120220805762233","name":"신화카오디오","industry":"자동차 부품 소매업","coordinates":[127.389947438507,36.3101405532897],"sales":{"202602":751}},{"id":"MA010120220805762408","name":"백고을농장","industry":"백반/한정식","coordinates":[127.394578467345,36.2988966375664],"sales":{"202602":998}},{"id":"MA010120220805762424","name":"대영밧데리","industry":"자동차 정비소","coordinates":[127.384602612457,36.301028898491],"sales":{"202602":1033}},{"id":"MA010120220805762748","name":"현대자동차","industry":"자동차 정비소","coordinates":[127.381304406084,36.2913156971841],"sales":{"202602":473}},{"id":"MA010120220805763162","name":"세덴","industry":"자동차 정비소","coordinates":[127.389601732789,36.3100335387386],"sales":{"202602":1431}},{"id":"MA010120220805763361","name":"２５시할인낚시","industry":"장난감 소매업","coordinates":[127.391294326355,36.3056032118877],"sales":{"202602":1872}},{"id":"MA010120220805763555","name":"드림로또","industry":"복권 발행/판매업","coordinates":[127.385876896855,36.302061152023],"sales":{"202602":519}},{"id":"MA010120220805763634","name":"비아트미용실","industry":"미용실","coordinates":[127.394778603228,36.3098903902368],"sales":{"202602":334}},{"id":"MA010120220805763761","name":"옥천식당","industry":"백반/한정식","coordinates":[127.39210604183,36.312062019051],"sales":{"202602":2988}},{"id":"MA010120220805763873","name":"서울떡집","industry":"떡/한과","coordinates":[127.387100491899,36.3063468214788],"sales":{"202602":1980}},{"id":"MA010120220805764320","name":"최가네","industry":"백반/한정식","coordinates":[127.40663312864,36.2318890495403],"sales":{"202602":584}},{"id":"MA010120220805764826","name":"대가열쇠도장","industry":"철물/공구 소매업","coordinates":[127.388820699684,36.3052237743152],"sales":{"202602":440}},{"id":"MA010120220805764956","name":"피자2001산성","industry":"피자","coordinates":[127.386428385646,36.3032669546304],"sales":{"202602":1184}},{"id":"MA010120220805765020","name":"프로포즈","industry":"미용실","coordinates":[127.385829317521,36.3059634226247],"sales":{"202602":116}},{"id":"MA010120220805765146","name":"경일모터스","industry":"자동차 정비소","coordinates":[127.387567209708,36.3106619665451],"sales":{"202602":5033}},{"id":"MA010120220805765163","name":"조희헤어","industry":"미용실","coordinates":[127.38645731423,36.3001037119671],"sales":{"202602":121}},{"id":"MA010120220805765377","name":"산서조경","industry":"조경 유지·관리 서비스업","coordinates":[127.409287359608,36.2694685931692],"sales":{}},{"id":"MA010120220805765499","name":"거북이주유소","industry":"주유소","coordinates":[127.389805023369,36.3106096316947],"sales":{"202602":37710}},{"id":"MA010120220805765558","name":"플러스메디칼","industry":"의료기기 소매업","coordinates":[127.390631778504,36.3134005923364],"sales":{"202602":1409}},{"id":"MA010120220805765563","name":"푸른주택서비스-은빛나라","industry":"건축물 일반 청소업","coordinates":[127.39134764211,36.3073603407503],"sales":{"202602":297}},{"id":"MA010120220805765566","name":"명성음향","industry":"가전제품 수리업","coordinates":[127.389884086619,36.3108346690266],"sales":{"202602":102}},{"id":"MA010120220805765567","name":"진모터스","industry":"자동차 정비소","coordinates":[127.385031373475,36.2976570959501],"sales":{"202602":989}},{"id":"MA010120220805765714","name":"영인전기설계감리","industry":"기타 엔지니어링 서비스업","coordinates":[127.391283436307,36.310109152594],"sales":{"202602":24503}},{"id":"MA010120220805765855","name":"아이큐안경콘택트","industry":"안경렌즈 소매업","coordinates":[127.386531639735,36.3061413902832],"sales":{"202602":2176}},{"id":"MA010120220805766239","name":"장어명가앤더바사삭","industry":"해산물 구이/찜","coordinates":[127.386179018753,36.3091434632579],"sales":{"202602":1136}},{"id":"MA010120220805766279","name":"서울동물병원","industry":"동물병원","coordinates":[127.387515777573,36.3047684085173],"sales":{"202602":1953}},{"id":"MA010120220805766463","name":"위드","industry":"기타 의류 소매업","coordinates":[127.384819900368,36.3067326802299],"sales":{"202602":515}},{"id":"MA010120220805766518","name":"JM카서비스","industry":"자동차 정비소","coordinates":[127.389526212381,36.3105204224125],"sales":{"202602":210}},{"id":"MA010120220805766527","name":"상설할인매장","industry":"기타 의류 소매업","coordinates":[127.39328668398,36.3099133312209],"sales":{"202602":479}},{"id":"MA010120220805767086","name":"안영이용원","industry":"미용실","coordinates":[127.380989474157,36.2906498249816],"sales":{"202602":211}},{"id":"MA010120220805767087","name":"형제공업사","industry":"자동차 정비소","coordinates":[127.380533512703,36.2907413953054],"sales":{"202602":1624}},{"id":"MA010120220805767377","name":"프로방스","industry":"여관/모텔","coordinates":[127.388349709701,36.3112812418018],"sales":{"202602":4100}},{"id":"MA010120220805767526","name":"태양정보통신","industry":"핸드폰 소매업","coordinates":[127.386547680907,36.3048796842936],"sales":{"202602":45}},{"id":"MA010120220805767736","name":"참맛","industry":"돼지고기 구이/찜","coordinates":[127.38488922129,36.3027131867422],"sales":{"202602":932}},{"id":"MA010120220805767945","name":"진미식당","industry":"백반/한정식","coordinates":[127.392105274698,36.3119088209051],"sales":{"202602":794}},{"id":"MA010120220805768009","name":"샬롬건강센타","industry":"마사지/안마","coordinates":[127.39149860857,36.306377559015],"sales":{"202602":542}},{"id":"MA010120220805768390","name":"낚시티비","industry":"장난감 소매업","coordinates":[127.385018231359,36.2995135744441],"sales":{"202602":801}},{"id":"MA010120220805768680","name":"식품잡화문구","industry":"문구/회화용품 소매업","coordinates":[127.389782989177,36.3084198341658],"sales":{"202602":4820}},{"id":"MA010120220805768758","name":"한국홍삼약초영농조합","industry":"건강보조식품 소매업","coordinates":[127.393641156226,36.3051178817115],"sales":{"202602":1339}},{"id":"MA010120220805768832","name":"토토공인중개사","industry":"부동산 중개/대리업","coordinates":[127.382422592491,36.2946194697599],"sales":{"202602":478}},{"id":"MA010120220805768881","name":"행복한마트","industry":"슈퍼마켓","coordinates":[127.394094530971,36.3067114788367],"sales":{"202602":4897}},{"id":"MA010120220805768915","name":"백제건강원","industry":"건강보조식품 소매업","coordinates":[127.385586366466,36.3018458056587],"sales":{"202602":1103}},{"id":"MA010120220805769013","name":"이화이용원","industry":"미용실","coordinates":[127.392378141843,36.306365663776],"sales":{"202602":81}},{"id":"MA010120220805769070","name":"1등공인중개사사무소","industry":"부동산 중개/대리업","coordinates":[127.387997159678,36.3052985443502],"sales":{"202602":385}},{"id":"MA010120220805769114","name":"프리지아","industry":"기타 의류 소매업","coordinates":[127.390985819104,36.306253071762],"sales":{"202602":1025}},{"id":"MA010120220805769306","name":"우남컴퓨터세탁","industry":"세탁소","coordinates":[127.382422592491,36.2946194697599],"sales":{"202602":81}},{"id":"MA010120220805769336","name":"동물원주유소","industry":"주유소","coordinates":[127.383687387957,36.2937412699897],"sales":{"202602":9661}},{"id":"MA010120220805769857","name":"베네치아","industry":"여관/모텔","coordinates":[127.3877351199,36.3108416582097],"sales":{"202602":998}},{"id":"MA010120220805770044","name":"삼성컴퓨터랜드","industry":"컴퓨터/노트북/프린터 수리업","coordinates":[127.384350273596,36.3040576815873],"sales":{"202602":577}},{"id":"MA010120220805770271","name":"샘마트","industry":"슈퍼마켓","coordinates":[127.395988227134,36.311292231144],"sales":{"202602":3540}},{"id":"MA010120220805770495","name":"순자식당","industry":"백반/한정식","coordinates":[127.38639125117,36.3025100818386],"sales":{"202602":386}},{"id":"MA010120220805770767","name":"산성골","industry":"돼지고기 구이/찜","coordinates":[127.386722226689,36.3018962079588],"sales":{"202602":1561}},{"id":"MA010120220805770776","name":"영아트갤러리","industry":"예술품 소매업","coordinates":[127.384050197034,36.3041667877159],"sales":{"202602":318}},{"id":"MA010120220805770970","name":"금복슈퍼","industry":"슈퍼마켓","coordinates":[127.385759163663,36.2962398930012],"sales":{"202602":3893}},{"id":"MA010120220805771101","name":"레쓰헤어","industry":"미용실","coordinates":[127.384041847463,36.2956506404738],"sales":{"202602":280}},{"id":"MA010120220805771192","name":"대청갈비","industry":"돼지고기 구이/찜","coordinates":[127.390815618116,36.305613789529],"sales":{"202602":3195}},{"id":"MA010120220805771439","name":"머리사랑","industry":"미용실","coordinates":[127.385043569099,36.2978733405316],"sales":{"202602":126}},{"id":"MA010120220805771650","name":"충청시스템에어컨ENG","industry":"가전제품 수리업","coordinates":[127.389214008062,36.3059524514855],"sales":{"202602":420}},{"id":"MA010120220805771683","name":"J.K전진카센타","industry":"자동차 정비소","coordinates":[127.384998179858,36.2999642302308],"sales":{"202602":712}},{"id":"MA010120220805771783","name":"명인춘천닭갈비","industry":"닭/오리고기 구이/찜","coordinates":[127.388040132077,36.3049829913477],"sales":{"202602":2115}},{"id":"MA010120220805771951","name":"신진철비금고","industry":"의류/이불 수선업","coordinates":[127.392951250024,36.3096350682412],"sales":{"202602":49}},{"id":"MA010120220805772399","name":"마이카센타","industry":"자동차 정비소","coordinates":[127.389367282517,36.309908137263],"sales":{"202602":1404}},{"id":"MA010120220805772579","name":"천수카센타","industry":"자동차 정비소","coordinates":[127.395611335336,36.311626915693],"sales":{"202602":1314}},{"id":"MA010120220805773000","name":"가정식백반","industry":"백반/한정식","coordinates":[127.388293411074,36.3111552593909],"sales":{"202602":2292}},{"id":"MA010120220805773276","name":"지성모터스","industry":"자동차 정비소","coordinates":[127.378287345539,36.2912531854805],"sales":{"202602":2473}},{"id":"MA010120220805773470","name":"GS25대전안영","industry":"편의점","coordinates":[127.379868100783,36.2912571859061],"sales":{"202602":1508}},{"id":"MA010120220805773521","name":"화진유통","industry":"기타 의류 소매업","coordinates":[127.38727070882,36.3069951207644],"sales":{"202602":1392}},{"id":"MA010120220805774375","name":"한밭공인중개사사무소","industry":"부동산 중개/대리업","coordinates":[127.383750340388,36.3043209514753],"sales":{"202602":351}},{"id":"MA010120220805774980","name":"제삿날","industry":"그 외 기타 간이 음식점","coordinates":[127.389094370277,36.3087645261274],"sales":{"202602":463}},{"id":"MA010120220805775083","name":"산성카서비스","industry":"자동차 정비소","coordinates":[127.389525352416,36.3058703311582],"sales":{"202602":7419}},{"id":"MA010120220805775364","name":"스위트하우스","industry":"침구류/커튼 소매업","coordinates":[127.38888933667,36.3055930354694],"sales":{"202602":408}},{"id":"MA010120220805775464","name":"안경매니져","industry":"안경렌즈 소매업","coordinates":[127.38717210346,36.3050669119014],"sales":{"202602":613}},{"id":"MA010120220805775685","name":"산수미용실","industry":"미용실","coordinates":[127.387232900966,36.3083560267984],"sales":{"202602":167}},{"id":"MA010120220805776085","name":"행복마트","industry":"복권 발행/판매업","coordinates":[127.390557653439,36.3052361363334],"sales":{"202602":153}},{"id":"MA010120220805776228","name":"광명산업","industry":"중고 상품 소매업","coordinates":[127.394377372163,36.3076027153494],"sales":{"202602":275}},{"id":"MA010120220805776319","name":"박인순헤어샵","industry":"미용실","coordinates":[127.392678215006,36.3062565368038],"sales":{"202602":182}},{"id":"MA010120220805776866","name":"경복복지의료기","industry":"기타 개인/가정용품 대여업","coordinates":[127.389527548543,36.3063119028571],"sales":{"202602":482}},{"id":"MA010120220805777099","name":"명천카서비스","industry":"자동차 정비소","coordinates":[127.392547182892,36.3067706403818],"sales":{"202602":1316}},{"id":"MA010120220805777299","name":"행복예스머리방","industry":"미용실","coordinates":[127.384038577406,36.3040676950422],"sales":{"202602":96}},{"id":"MA010120220805778034","name":"삼익공인중개사사무소","industry":"부동산 중개/대리업","coordinates":[127.384819900368,36.3067326802299],"sales":{"202602":342}},{"id":"MA010120220805778245","name":"헤어샴푸","industry":"미용실","coordinates":[127.388497770253,36.3097036944972],"sales":{"202602":107}},{"id":"MA010120220805778341","name":"송원칼국수","industry":"국수/칼국수","coordinates":[127.389387094351,36.2959758019037],"sales":{"202602":1731}},{"id":"MA010120220805778463","name":"도담건축인테리어","industry":"건축 설계 및 관련 서비스업","coordinates":[127.388750757327,36.2956173993759],"sales":{"202602":439}},{"id":"MA010120220805778735","name":"SIM테크","industry":"자동차 정비소","coordinates":[127.394476080944,36.3073049999676],"sales":{"202602":1856}},{"id":"MA010120220805778967","name":"오렌지헤어","industry":"미용실","coordinates":[127.37845261556,36.2885941693581],"sales":{"202602":89}},{"id":"MA010120220805779419","name":"하나로플라워수족관","industry":"애완동물/애완용품 소매업","coordinates":[127.37845261556,36.2885941693581],"sales":{"202602":206}},{"id":"MA010120220805780226","name":"건강드림약국","industry":"약국","coordinates":[127.38717210346,36.3050669119014],"sales":{"202602":3515}},{"id":"MA010120220805780782","name":"춘천집닭갈비","industry":"닭/오리고기 구이/찜","coordinates":[127.385997244518,36.303890162831],"sales":{"202602":1589}},{"id":"MA010120220805781420","name":"뉴상아공인중개사사무소","industry":"부동산 중개/대리업","coordinates":[127.385728752138,36.3036296866537],"sales":{"202602":364}},{"id":"MA010120220805781473","name":"산성마을공인중개사사무소","industry":"부동산 중개/대리업","coordinates":[127.387997159678,36.3052985443502],"sales":{"202602":566}},{"id":"MA010120220805781689","name":"열린카","industry":"자동차 정비소","coordinates":[127.386698002737,36.3014997661923],"sales":{"202602":185}},{"id":"MA010120220805782170","name":"산성건재","industry":"철물/공구 소매업","coordinates":[127.384746792089,36.2986493129937],"sales":{"202602":614}},{"id":"MA010120220805782782","name":"두리하나건강","industry":"건강보조식품 소매업","coordinates":[127.386009799225,36.3041785004588],"sales":{"202602":603}},{"id":"MA010120220805783132","name":"활주로세탁소","industry":"세탁소","coordinates":[127.393247667344,36.3110128998496],"sales":{"202602":152}},{"id":"MA010120220805783347","name":"JK특장차","industry":"기타 운송장비 대여업","coordinates":[127.379732208948,36.2930780086974],"sales":{"202602":845}},{"id":"MA010120220805783560","name":"참그린세차장","industry":"자동차 세차장","coordinates":[127.379109339862,36.2862850568095],"sales":{"202602":1684}},{"id":"MA010120220805784383","name":"민성머리방","industry":"미용실","coordinates":[127.394803015261,36.3058980782656],"sales":{"202602":132}},{"id":"MA010120220805784582","name":"드림미용실","industry":"미용실","coordinates":[127.395750939118,36.306201345761],"sales":{"202602":100}},{"id":"MA010120220805784625","name":"대전집","industry":"전/부침개","coordinates":[127.390174439105,36.3132398734591],"sales":{"202602":977}},{"id":"MA010120220805784654","name":"뷰티샵","industry":"화장품 소매업","coordinates":[127.384350273596,36.3040576815873],"sales":{"202602":1683}},{"id":"MA010120220805785120","name":"휠사랑","industry":"자동차 세차장","coordinates":[127.378836484627,36.2897104222535],"sales":{"202602":1573}},{"id":"MA010120220805785246","name":"복코찜이","industry":"백반/한정식","coordinates":[127.381775233518,36.2919900826559],"sales":{"202602":447}},{"id":"MA010120220805785390","name":"예원공인중개사사무소","industry":"부동산 중개/대리업","coordinates":[127.387370995145,36.3047598658983],"sales":{"202602":184}},{"id":"MA010120220805785639","name":"수자네식당","industry":"백반/한정식","coordinates":[127.390662352001,36.3061369756206],"sales":{"202602":1153}},{"id":"MA010120220805785679","name":"폰스토리","industry":"핸드폰 소매업","coordinates":[127.386428385646,36.3032669546304],"sales":{"202602":149}},{"id":"MA010120220805785902","name":"듀바코","industry":"치킨","coordinates":[127.38811998824,36.3053702401843],"sales":{"202602":747}},{"id":"MA010120220805785905","name":"부산헤어갤러리","industry":"미용실","coordinates":[127.394117251612,36.3112263195126],"sales":{"202602":157}},{"id":"MA010120220805786036","name":"기능장정비센터","industry":"자동차 정비소","coordinates":[127.382580957759,36.3042526046923],"sales":{"202602":816}},{"id":"MA010120220805786107","name":"카드레스스킨","industry":"자동차 정비소","coordinates":[127.395956828318,36.3116888544839],"sales":{"202602":3268}},{"id":"MA010120220805786215","name":"산성모바일","industry":"핸드폰 소매업","coordinates":[127.386498949633,36.3062856849962],"sales":{"202602":256}},{"id":"MA010120220805786365","name":"최가네","industry":"돼지고기 구이/찜","coordinates":[127.376168964431,36.2859248569499],"sales":{"202602":728}},{"id":"MA010120220805786509","name":"성현모터스","industry":"자동차 정비소","coordinates":[127.394528936543,36.3067460933126],"sales":{"202602":395}},{"id":"MA010120220805786523","name":"조마루감자탕문화","industry":"국/탕/찌개류","coordinates":[127.394061809252,36.306846763859],"sales":{"202602":413}},{"id":"MA010120220805786879","name":"닥터펫에이스동물병원","industry":"동물병원","coordinates":[127.38837459025,36.305072023481],"sales":{"202602":1551}},{"id":"MA010120220805787239","name":"산성애견","industry":"애완동물/애완용품 소매업","coordinates":[127.386859869558,36.3049687926722],"sales":{"202602":250}},{"id":"MA010120220805787474","name":"황금식당","industry":"백반/한정식","coordinates":[127.395012785534,36.3055459246832],"sales":{"202602":3503}},{"id":"MA010120220805787608","name":"안경나라","industry":"안경렌즈 소매업","coordinates":[127.386547680907,36.3048796842936],"sales":{"202602":2015}},{"id":"MA010120220805787952","name":"필터탑스","industry":"가전제품 수리업","coordinates":[127.380277158372,36.2883811084748],"sales":{"202602":602}},{"id":"MA010120220805787956","name":"한길에어컨","industry":"가전제품 수리업","coordinates":[127.394529776292,36.3113331004535],"sales":{"202602":159}},{"id":"MA010120220805787975","name":"참스민","industry":"김밥/만두/분식","coordinates":[127.392885709747,36.3098876142396],"sales":{"202602":663}},{"id":"MA010120220805787982","name":"흑염소요리토속마을식당","industry":"기타 한식 음식점","coordinates":[127.385994345325,36.3010424370913],"sales":{"202602":1054}},{"id":"MA010120220805788008","name":"창녕식당","industry":"백반/한정식","coordinates":[127.392645716911,36.30643687978],"sales":{"202602":2088}},{"id":"MA010120220805788037","name":"사람사랑상사","industry":"그 외 기타 상품 전문 소매업","coordinates":[127.389683652141,36.3130702500547],"sales":{"202602":1057}},{"id":"MA010120220805788121","name":"정문공인중개사사무소","industry":"부동산 중개/대리업","coordinates":[127.378098496721,36.291334889337],"sales":{"202602":593}},{"id":"MA010120220805788806","name":"북어마당","industry":"백반/한정식","coordinates":[127.390687361869,36.3066866144559],"sales":{"202602":592}},{"id":"MA010120220805788841","name":"사랑자동차외형복원","industry":"자동차 세차장","coordinates":[127.385078207443,36.2981255601321],"sales":{"202602":784}},{"id":"MA010120220805789336","name":"숲속마을","industry":"슈퍼마켓","coordinates":[127.394374492479,36.2981853765183],"sales":{"202602":4427}},{"id":"MA010120220805789473","name":"사나래","industry":"요리 주점","coordinates":[127.385530344756,36.3062978242485],"sales":{"202602":235}},{"id":"MA010120220805789765","name":"하얀세탁소","industry":"세탁소","coordinates":[127.38836725469,36.3058380515582],"sales":{"202602":73}},{"id":"MA010120220805790188","name":"김숙헤어","industry":"미용실","coordinates":[127.39566004714,36.3058411741427],"sales":{"202602":309}},{"id":"MA010120220805790859","name":"장터골가든2","industry":"돼지고기 구이/찜","coordinates":[127.389258833082,36.2970486270504],"sales":{"202602":1038}},{"id":"MA010120220805791057","name":"미리몰","industry":"액세서리/잡화 소매업","coordinates":[127.391237849394,36.3121279461651],"sales":{"202602":319}},{"id":"MA010120220805791322","name":"삼덕건강원","industry":"건강보조식품 소매업","coordinates":[127.390409776783,36.3068407220607],"sales":{"202602":1073}},{"id":"MA010120220805791400","name":"안영자동차정비사업소","industry":"자동차 정비소","coordinates":[127.37635201503,36.2823195407483],"sales":{"202602":853}},{"id":"MA010120220805792578","name":"버스폰통신","industry":"핸드폰 소매업","coordinates":[127.388511229464,36.3101722647685],"sales":{"202602":101}},{"id":"MA010120220805792582","name":"한마당슈퍼","industry":"슈퍼마켓","coordinates":[127.389042965432,36.3118647550826],"sales":{"202602":8809}},{"id":"MA010120220805792946","name":"바른자세케어","industry":"의료기기 소매업","coordinates":[127.38717210346,36.3050669119014],"sales":{"202602":809}},{"id":"MA010120220805793422","name":"안영셀프주유소","industry":"주유소","coordinates":[127.381562104374,36.2916573249735],"sales":{"202602":87608}},{"id":"MA010120220805793520","name":"동해양푼이동태탕","industry":"국/탕/찌개류","coordinates":[127.384698867028,36.3047594821779],"sales":{"202602":1881}},{"id":"MA010120220805794054","name":"산성열쇠","industry":"철물/공구 소매업","coordinates":[127.384819900368,36.3067326802299],"sales":{"202602":486}},{"id":"MA010120220805794469","name":"신세계장의상사","industry":"그 외 기타 상품 전문 소매업","coordinates":[127.392850933047,36.3051745518382],"sales":{"202602":652}},{"id":"MA010120220805794504","name":"하이파이브유소년스포츠클럽","industry":"요가/필라테스 학원","coordinates":[127.385484177231,36.2969166670504],"sales":{"202602":465}},{"id":"MA010120220805794645","name":"아수라다웍스","industry":"자동차 부품 소매업","coordinates":[127.379335738764,36.2916644087058],"sales":{"202602":188}},{"id":"MA010120220805794861","name":"애니카랜드","industry":"자동차 정비소","coordinates":[127.39198466671,36.3056099622614],"sales":{"202602":1298}},{"id":"MA010120220805795147","name":"현대비뇨기과의원","industry":"피부/비뇨기과 의원","coordinates":[127.386024574713,36.3049174217297],"sales":{"202602":6037}},{"id":"MA010120220805795274","name":"한마음슈퍼","industry":"슈퍼마켓","coordinates":[127.40741578032,36.2498110671212],"sales":{"202602":4459}},{"id":"MA010120220805795691","name":"투썸플레이스대전","industry":"카페","coordinates":[127.386919322101,36.3057346045797],"sales":{"202602":242}},{"id":"MA010120220805796106","name":"정관장홍삼대전농협","industry":"건강보조식품 소매업","coordinates":[127.37845261556,36.2885941693581],"sales":{"202602":940}},{"id":"MA010120220805796182","name":"이숙경미용실","industry":"미용실","coordinates":[127.387077244263,36.306148636844],"sales":{"202602":245}},{"id":"MA010120220805796336","name":"수리바이크","industry":"자전거 소매업","coordinates":[127.387191790696,36.3067971164972],"sales":{"202602":307}},{"id":"MA010120220805796350","name":"한일아이엔티","industry":"건강보조식품 소매업","coordinates":[127.395956828318,36.3116888544839],"sales":{"202602":925}},{"id":"MA010120220805796647","name":"산성행운공인중개사사무소","industry":"부동산 중개/대리업","coordinates":[127.385957982497,36.3027007295165],"sales":{"202602":593}},{"id":"MA010120220805797080","name":"후생사","industry":"슈퍼마켓","coordinates":[127.396594149078,36.3100105463494],"sales":{"202602":5825}},{"id":"MA010120220805797119","name":"마셔주","industry":"요리 주점","coordinates":[127.394117251612,36.3112263195126],"sales":{"202602":111}},{"id":"MA010120220805797196","name":"진안건강원","industry":"건강보조식품 소매업","coordinates":[127.385937835999,36.3008713948934],"sales":{"202602":1645}},{"id":"MA010120220805797202","name":"엠브이피노래연습장","industry":"노래방","coordinates":[127.389433638085,36.3053389329102],"sales":{"202602":305}},{"id":"MA010120220805797563","name":"누리광고","industry":"명함/간판/광고물 제작","coordinates":[127.388586443955,36.3051344177916],"sales":{"202602":352}},{"id":"MA010120220805797866","name":"사천성앤평양냉면","industry":"냉면/밀면","coordinates":[127.386357967901,36.3093050976417],"sales":{"202602":3645}},{"id":"MA010120220805797870","name":"안영IC주유소","industry":"주유소","coordinates":[127.378968775441,36.2871416277227],"sales":{"202602":21782}},{"id":"MA010120220805797962","name":"중앙프로덕션/아치렌탈","industry":"사진촬영업","coordinates":[127.392938951249,36.3071838966835],"sales":{"202602":354}},{"id":"MA010120220805798332","name":"일월한일온수매트","industry":"가전제품 소매업","coordinates":[127.38920100104,36.312296807291],"sales":{"202602":3530}},{"id":"MA010120220805798791","name":"웰빙매점","industry":"슈퍼마켓","coordinates":[127.384869893887,36.2965131136455],"sales":{"202602":9507}},{"id":"MA010120220805798940","name":"형수네식당","industry":"백반/한정식","coordinates":[127.384404991152,36.2993262993241],"sales":{"202602":748}},{"id":"MA010120220805800759","name":"에이드커피","industry":"카페","coordinates":[127.385253645222,36.3043701876228],"sales":{"202602":457}},{"id":"MA010120220805804303","name":"지브로케이크","industry":"백반/한정식","coordinates":[127.388497770253,36.3097036944972],"sales":{"202602":2144}},{"id":"MA010120220805804400","name":"동양카센타","industry":"자동차 정비소","coordinates":[127.388924322948,36.3103962167536],"sales":{"202602":262}},{"id":"MA010120220805804620","name":"침산동버드나무집식당","industry":"백반/한정식","coordinates":[127.387414114657,36.2706949647662],"sales":{"202602":765}},{"id":"MA010120220805806806","name":"금맥을캐다","industry":"복권 발행/판매업","coordinates":[127.388839319117,36.3112165676552],"sales":{"202602":356}},{"id":"MA010120220805806838","name":"가마치통닭","industry":"치킨","coordinates":[127.393764511814,36.3097225103911],"sales":{"202602":713}},{"id":"MA010120220805809729","name":"대창기업주","industry":"자동차 정비소","coordinates":[127.388082881099,36.3113632145541],"sales":{"202602":1865}},{"id":"MA010120220805810548","name":"대전개인택시충전소주","industry":"가스 충전소","coordinates":[127.376389214326,36.2831124667056],"sales":{"202602":18558}},{"id":"MA010120220805811306","name":"덕성엔지니어링","industry":"기타 엔지니어링 서비스업","coordinates":[127.386837456217,36.3094477360258],"sales":{"202602":30955}},{"id":"MA010120220805815696","name":"세이푸드","industry":"백반/한정식","coordinates":[127.398506087915,36.2874926583213],"sales":{"202602":970}},{"id":"MA010120220805815793","name":"세븐대전산성로점주","industry":"편의점","coordinates":[127.392674555344,36.3055265920009],"sales":{"202602":1810}},{"id":"MA010120220805815889","name":"정림스토아주","industry":"슈퍼마켓","coordinates":[127.386286294402,36.3060610769345],"sales":{"202602":7322}},{"id":"MA010120220805816477","name":"운정건기","industry":"건설기계/장비 대여업","coordinates":[127.383674522705,36.2956608315637],"sales":{}},{"id":"MA010120220805816737","name":"안영한우","industry":"정육점","coordinates":[127.377468993339,36.2854431323712],"sales":{"202602":2532}},{"id":"MA010120220805817521","name":"대한위생주","industry":"건축물 일반 청소업","coordinates":[127.388646944898,36.3105953785772],"sales":{"202602":968}},{"id":"MA010120220805817708","name":"무창주","industry":"건축 설계 및 관련 서비스업","coordinates":[127.383780549776,36.2945790714875],"sales":{"202602":282}},{"id":"MA010120220805817989","name":"무수천하마을영농조합","industry":"채소/과일 소매업","coordinates":[127.406968541657,36.2772717620464],"sales":{"202602":1877}},{"id":"MA010120220805818188","name":"감성주","industry":"핸드폰 소매업","coordinates":[127.386919322101,36.3057346045797],"sales":{"202602":170}},{"id":"MA010120220805818291","name":"에스앤제이글로벌","industry":"여행사","coordinates":[127.386792658972,36.3071408573778],"sales":{"202602":218}},{"id":"MA010120220805818419","name":"디와이정보","industry":"핸드폰 소매업","coordinates":[127.386547680907,36.3048796842936],"sales":{"202602":189}},{"id":"MA010120220805824286","name":"김선영헤어라인","industry":"미용실","coordinates":[127.39493675757,36.3059246719684],"sales":{"202602":66}},{"id":"MA010120220805824352","name":"태경모터스","industry":"자동차 정비소","coordinates":[127.378765496182,36.2865384781214],"sales":{"202602":1316}},{"id":"MA010120220805824678","name":"웰빙사우나","industry":"목욕탕/사우나","coordinates":[127.384869893887,36.2965131136455],"sales":{"202602":2276}},{"id":"MA010120220805825326","name":"시티뱅크공인중개사사무소","industry":"부동산 중개/대리업","coordinates":[127.384961813859,36.2993605550865],"sales":{"202602":191}},{"id":"MA010120220805827941","name":"토속집","industry":"백반/한정식","coordinates":[127.393425358777,36.2998376669761],"sales":{"202602":1446}},{"id":"MA010120220805828703","name":"중구재활용센타","industry":"중고 상품 소매업","coordinates":[127.392078673635,36.3110437749274],"sales":{"202602":188}},{"id":"MA010120220805828805","name":"미성컴퓨터","industry":"컴퓨터/노트북/프린터 수리업","coordinates":[127.389947438507,36.3101405532897],"sales":{"202602":235}},{"id":"MA010120220805840026","name":"용수타","industry":"중국집","coordinates":[127.385832851922,36.302160424196],"sales":{"202602":967}},{"id":"MA010120220805841834","name":"하나로안경원","industry":"안경렌즈 소매업","coordinates":[127.37845261556,36.2885941693581],"sales":{"202602":787}},{"id":"MA010120220805849101","name":"중부할인마트","industry":"슈퍼마켓","coordinates":[127.39230169411,36.3066633044459],"sales":{"202602":4823}},{"id":"MA010120220805849169","name":"금영건강원","industry":"건강보조식품 소매업","coordinates":[127.385260693067,36.3058030436924],"sales":{"202602":241}},{"id":"MA010120220805854343","name":"태양OA","industry":"컴퓨터/노트북/프린터 수리업","coordinates":[127.394377372163,36.3076027153494],"sales":{"202602":366}},{"id":"MA010120220805859305","name":"육모정식당","industry":"백반/한정식","coordinates":[127.380197052986,36.287930771034],"sales":{"202602":560}},{"id":"MA010120220805862960","name":"진우전기감리","industry":"기타 엔지니어링 서비스업","coordinates":[127.38656435965,36.3014911865456],"sales":{"202602":18399}},{"id":"MA010120220805873157","name":"대전종합중기","industry":"건설기계/장비 대여업","coordinates":[127.383559433819,36.2971661763919],"sales":{}},{"id":"MA010120220805913454","name":"피싱로드","industry":"장난감 소매업","coordinates":[127.385211080582,36.300242911019],"sales":{"202602":584}},{"id":"MA010120220805922127","name":"충무사","industry":"행정사","coordinates":[127.384968672834,36.3075522762684],"sales":{"202602":422}},{"id":"MA010120220805930308","name":"맘스터치","industry":"버거","coordinates":[127.386032688218,36.3043045919966],"sales":{"202602":3267}},{"id":"MA010120220805941028","name":"해인산업","industry":"건축물 일반 청소업","coordinates":[127.394726304694,36.3061416504804],"sales":{"202602":393}},{"id":"MA010120220806037914","name":"대전척수장애인협회소시얼허브센터","industry":"반찬/식료품 소매업","coordinates":[127.388541968136,36.2961677996029],"sales":{"202602":394}},{"id":"MA010120220806047647","name":"산성하나약국","industry":"약국","coordinates":[127.386009799225,36.3041785004588],"sales":{"202602":26707}},{"id":"MA010120220806053264","name":"크로바관광여행사","industry":"여행사","coordinates":[127.398506087915,36.2874926583213],"sales":{"202602":583}},{"id":"MA010120220806053417","name":"뉴히딩크모텔","industry":"여관/모텔","coordinates":[127.387579414686,36.3108782103432],"sales":{"202602":770}},{"id":"MA010120220806169471","name":"안마를찾는사람들안마원","industry":"마사지/안마","coordinates":[127.394308798224,36.30725148096],"sales":{"202602":374}},{"id":"MA010120220806170197","name":"대일건설기계매매상사","industry":"건설기계/장비 대여업","coordinates":[127.384041847463,36.2956506404738],"sales":{}},{"id":"MA010120220806170381","name":"웅진광고기획","industry":"명함/간판/광고물 제작","coordinates":[127.388798577516,36.3097387638186],"sales":{"202602":355}},{"id":"MA010120220806170421","name":"하진모터스","industry":"자동차 정비소","coordinates":[127.38771662992,36.3048578754824],"sales":{"202602":597}},{"id":"MA010120220806170502","name":"태영쇼파수리","industry":"그 외 기타 개인/가정용품 수리업","coordinates":[127.393154473644,36.3101931320813],"sales":{"202602":455}},{"id":"MA010120220806170734","name":"골드노래연습장","industry":"노래방","coordinates":[127.392923272867,36.3107165769304],"sales":{"202602":515}},{"id":"MA010120220806171280","name":"월드세정산업","industry":"산업설비, 운송장비 및 공공장소 청소업","coordinates":[127.393812357567,36.3103802146278],"sales":{"202602":338}},{"id":"MA010120220806172068","name":"선화상사","industry":"신발 소매업","coordinates":[127.38855773693,36.3060807516049],"sales":{"202602":2323}},{"id":"MA010120220806172183","name":"블루","industry":"가방 소매업","coordinates":[127.37845261556,36.2885941693581],"sales":{"202602":389}},{"id":"MA010120220806173150","name":"달빛오포차","industry":"요리 주점","coordinates":[127.388686781704,36.3051611270689],"sales":{"202602":218}},{"id":"MA010120220806173321","name":"장터골가든1","industry":"돼지고기 구이/찜","coordinates":[127.389258833082,36.2970486270504],"sales":{"202602":529}},{"id":"MA010120220806173675","name":"두린산업","industry":"사업시설 유지·관리 서비스업","coordinates":[127.386792658972,36.3071408573778],"sales":{"202602":720}},{"id":"MA010120220806174640","name":"우성통신","industry":"핸드폰 소매업","coordinates":[127.392390847927,36.3111238569262],"sales":{"202602":310}},{"id":"MA010120220806175103","name":"오토반장카클리닉","industry":"자동차 정비소","coordinates":[127.380260317553,36.289498630451],"sales":{"202602":1015}},{"id":"MA010120220806175844","name":"드보라피부관리실","industry":"피부 관리실","coordinates":[127.392656244018,36.3085365969911],"sales":{"202602":534}},{"id":"MA010120220806176710","name":"에프엠디자인","industry":"명함/간판/광고물 제작","coordinates":[127.385721263197,36.306630645549],"sales":{"202602":452}},{"id":"MA010120220806177264","name":"사거리노래연습장","industry":"노래방","coordinates":[127.392390847927,36.3111238569262],"sales":{"202602":329}},{"id":"MA010120220806179265","name":"백제모터스","industry":"자동차 정비소","coordinates":[127.385727997715,36.3034764881752],"sales":{"202602":2932}},{"id":"MA010120220806180269","name":"카리스마","industry":"여관/모텔","coordinates":[127.388057441134,36.3107234588841],"sales":{"202602":366}},{"id":"MA010120220806181789","name":"씨엔씨","industry":"전시/컨벤션/행사 대행 서비스업","coordinates":[127.379018424884,36.2905028876778],"sales":{"202602":1093}},{"id":"MA010120220806183099","name":"예림매대","industry":"기타 개인/가정용품 대여업","coordinates":[127.400809771934,36.2699749327582],"sales":{"202602":168}},{"id":"MA010120220806183552","name":"미르헤어샵","industry":"미용실","coordinates":[127.393608494645,36.3096959887518],"sales":{"202602":157}},{"id":"MA010120220806184338","name":"황토의향기","industry":"미용실","coordinates":[127.385734338408,36.3025031912409],"sales":{"202602":162}},{"id":"MA010120220806185385","name":"코오롱침구","industry":"침구류/커튼 소매업","coordinates":[127.379566016836,36.2886447113764],"sales":{"202602":868}},{"id":"MA010120220806186233","name":"오복공인중개사사무소","industry":"부동산 중개/대리업","coordinates":[127.385005609633,36.2969452445006],"sales":{"202602":532}},{"id":"MA010120220806186236","name":"초원건축사사무소","industry":"건축 설계 및 관련 서비스업","coordinates":[127.385211080582,36.300242911019],"sales":{"202602":492}},{"id":"MA010120220806187055","name":"중앙약국","industry":"약국","coordinates":[127.385253645222,36.3043701876228],"sales":{"202602":14874}},{"id":"MA010120220806187215","name":"유아교구사","industry":"문구/회화용품 소매업","coordinates":[127.39342033765,36.3054880929099],"sales":{"202602":2768}},{"id":"MA010120220806191209","name":"오버테이크","industry":"자동차 부품 소매업","coordinates":[127.379490802506,36.2892036843292],"sales":{"202602":175}},{"id":"MA010120220806192308","name":"당디숯불갈비","industry":"돼지고기 구이/찜","coordinates":[127.388511229464,36.3101722647685],"sales":{"202602":1070}},{"id":"MA010120220806192680","name":"국민의류신발","industry":"기타 의류 소매업","coordinates":[127.386367739859,36.3022578268624],"sales":{"202602":453}},{"id":"MA010120220806193268","name":"GS25산성스타","industry":"편의점","coordinates":[127.392656244018,36.3085365969911],"sales":{"202602":1645}},{"id":"MA010120220806193379","name":"탑할인마트","industry":"슈퍼마켓","coordinates":[127.394734746997,36.3100257121403],"sales":{"202602":9495}},{"id":"MA010120220806194791","name":"머리하는날","industry":"미용실","coordinates":[127.38181088981,36.2947385784668],"sales":{"202602":193}},{"id":"MA010120220806196688","name":"투투노래연습장","industry":"노래방","coordinates":[127.385997244518,36.303890162831],"sales":{"202602":152}},{"id":"MA010120220806197658","name":"장터아구찜","industry":"해산물 구이/찜","coordinates":[127.392193991138,36.3118364354561],"sales":{"202602":672}},{"id":"MA010120220806198040","name":"산천허브에스테틱","industry":"마사지/안마","coordinates":[127.387516756795,36.2959638546565],"sales":{"202602":361}},{"id":"MA010120220806199068","name":"우진모터스","industry":"자동차 정비소","coordinates":[127.379192900081,36.2920523708032],"sales":{"202602":1062}},{"id":"MA010120220806199119","name":"교차로알뜰생활센타","industry":"중고 상품 소매업","coordinates":[127.387880380124,36.3086963766033],"sales":{"202602":104}},{"id":"MA010120220806200438","name":"업","industry":"카페","coordinates":[127.389052942469,36.2959408423385],"sales":{"202602":419}},{"id":"MA010120220806202566","name":"골드뱅크","industry":"시계/귀금속 소매업","coordinates":[127.387997159678,36.3052985443502],"sales":{"202602":2705}},{"id":"MA010120220806204482","name":"정림밀레니엄이동통신","industry":"핸드폰 소매업","coordinates":[127.385418118812,36.3061179498072],"sales":{"202602":282}},{"id":"MA010120220806204916","name":"흥일종합개발","industry":"건축물 일반 청소업","coordinates":[127.392645716911,36.30643687978],"sales":{"202602":413}},{"id":"MA010120220806207610","name":"디지털랜드","industry":"가전제품 소매업","coordinates":[127.386024574713,36.3049174217297],"sales":{"202602":1960}},{"id":"MA010120220806214293","name":"바다로간쏘가리","industry":"운동용품 소매업","coordinates":[127.394539253356,36.3065838466707],"sales":{"202602":333}},{"id":"MA010120220806215443","name":"드림원정보","industry":"그 외 기타 상품 전문 소매업","coordinates":[127.387232900966,36.3083560267984],"sales":{"202602":1085}},{"id":"MA010120220806216318","name":"24시열쇠.CCTV","industry":"철물/공구 소매업","coordinates":[127.37845261556,36.2885941693581],"sales":{"202602":935}},{"id":"MA010120220806217336","name":"선진애드","industry":"옥외/전시 광고 대행업","coordinates":[127.380108104114,36.2902470971892],"sales":{"202602":348}},{"id":"MA010120220806218221","name":"김우석모터스","industry":"자동차 정비소","coordinates":[127.390925201911,36.3052619705144],"sales":{"202602":1480}},{"id":"MA010120220806218333","name":"월드산업","industry":"세탁소","coordinates":[127.389301617066,36.2966970264903],"sales":{"202602":104}},{"id":"MA010120220806219148","name":"안영찌개촌","industry":"백반/한정식","coordinates":[127.380289533723,36.2909314201247],"sales":{"202602":1804}},{"id":"MA010120220806219705","name":"세광세탁소","industry":"세탁소","coordinates":[127.38464508318,36.3028761851968],"sales":{"202602":441}},{"id":"MA010120220806221795","name":"피자델파파","industry":"그 외 기타 간이 음식점","coordinates":[127.388743805211,36.3121631178306],"sales":{"202602":572}},{"id":"MA010120220806222688","name":"더끌리오","industry":"미용실","coordinates":[127.392260061647,36.3094661138057],"sales":{"202602":148}},{"id":"MA010120220806223643","name":"디자인대성","industry":"명함/간판/광고물 제작","coordinates":[127.385697166694,36.3017373064164],"sales":{"202602":490}},{"id":"MA010120220806227828","name":"나지오메디칼","industry":"화장품 소매업","coordinates":[127.378917891307,36.2904311115793],"sales":{"202602":1858}},{"id":"MA010120220806228069","name":"김가영후에스테틱","industry":"피부 관리실","coordinates":[127.384819900368,36.3067326802299],"sales":{"202602":218}},{"id":"MA010120220806229436","name":"행복복지용구사업소","industry":"기타 개인/가정용품 대여업","coordinates":[127.385736592052,36.2984388517881],"sales":{"202602":355}},{"id":"MA010120220806229829","name":"씨앤씨운동화빨래방","industry":"셀프 빨래방","coordinates":[127.384893909489,36.2991354780747],"sales":{"202602":376}},{"id":"MA010120220806230693","name":"풍전한정식1954무한등심","industry":"소고기 구이/찜","coordinates":[127.382649944396,36.2933030146576],"sales":{"202602":1632}},{"id":"MA010120220806233555","name":"세종안전컨설팅","industry":"건물 및 토목 엔지니어링 서비스업","coordinates":[127.382886368772,36.2961229614155],"sales":{"202602":391}},{"id":"MA010120220806234246","name":"성리안미용실","industry":"미용실","coordinates":[127.383800312299,36.3031582664501],"sales":{"202602":238}},{"id":"MA010120220806235823","name":"다이애나귀금속","industry":"시계/귀금속 소매업","coordinates":[127.37845261556,36.2885941693581],"sales":{"202602":2046}},{"id":"MA010120220806245986","name":"기술사사무소한빛기술단주","industry":"기타 엔지니어링 서비스업","coordinates":[127.393184944999,36.3051734538248],"sales":{"202602":23588}},{"id":"MA010120220806246530","name":"정림스토아주","industry":"슈퍼마켓","coordinates":[127.386286294402,36.3060610769345],"sales":{"202602":2491}},{"id":"MA010120220806246934","name":"대상종합개발주","industry":"임시/일용 인력 공급업","coordinates":[127.386498949633,36.3062856849962],"sales":{}},{"id":"MA010120220806247728","name":"나래엔지니어링주","industry":"기타 엔지니어링 서비스업","coordinates":[127.379658647841,36.2893833883643],"sales":{"202602":34154}},{"id":"MA010120220806248359","name":"청운의전","industry":"장례식장","coordinates":[127.389814966684,36.3058964226391],"sales":{"202602":15934}},{"id":"MA010120220806253949","name":"유명관광이벤트주","industry":"여행사","coordinates":[127.378541939778,36.2909549890614],"sales":{"202602":295}},{"id":"MA010120220806256467","name":"쌍용자동차남대전사업소","industry":"자동차 정비소","coordinates":[127.387888905534,36.3104176043974],"sales":{"202602":1961}},{"id":"MA010120220806281524","name":"대성로스타","industry":"가전제품 소매업","coordinates":[127.375984600026,36.2846187186745],"sales":{"202602":1142}},{"id":"MA010120220806287172","name":"아름터개발","industry":"사업시설 유지·관리 서비스업","coordinates":[127.386792658972,36.3071408573778],"sales":{"202602":724}},{"id":"MA010120220806354520","name":"씨유","industry":"편의점","coordinates":[127.395851280625,36.3062280489972],"sales":{"202602":2849}},{"id":"MA010120220806396505","name":"이가축산","industry":"정육점","coordinates":[127.392918570368,36.3097793645621],"sales":{"202602":5995}},{"id":"MA010120220806421543","name":"이조","industry":"백반/한정식","coordinates":[127.394660318867,36.3063040809325],"sales":{"202602":1418}},{"id":"MA010120220806437476","name":"풍미식당","industry":"백반/한정식","coordinates":[127.394215371474,36.306386655235],"sales":{"202602":400}},{"id":"MA010120220806446633","name":"블루에어컨","industry":"가전제품 수리업","coordinates":[127.39167093501,36.307440388325],"sales":{"202602":276}},{"id":"MA010120220806560875","name":"이장네","industry":"백반/한정식","coordinates":[127.388839319117,36.3112165676552],"sales":{"202602":690}},{"id":"MA010120220806567823","name":"조아애견카페","industry":"애완동물/애완용품 소매업","coordinates":[127.405070205112,36.2717539394983],"sales":{"202602":286}},{"id":"MA010120220806576061","name":"에스에이치비즈","industry":"경영 컨설팅업","coordinates":[127.394753023669,36.3070247197297],"sales":{"202602":2798}},{"id":"MA010120220806606253","name":"한일전기온수매트판매수리","industry":"가전제품 소매업","coordinates":[127.38933618629,36.3126117802304],"sales":{"202602":3093}},{"id":"MA010120220806633883","name":"DS렌터카","industry":"사업/무형 재산권 중개업","coordinates":[127.396321472523,36.3023333876382],"sales":{}},{"id":"MA010120220806635915","name":"뉴성신공인중개사사무소","industry":"부동산 중개/대리업","coordinates":[127.392656244018,36.3085365969911],"sales":{"202602":500}},{"id":"MA010120220806662385","name":"미경이네퓨전마차","industry":"백반/한정식","coordinates":[127.394819003405,36.3112780747696],"sales":{"202602":433}},{"id":"MA010120220806678014","name":"시은물류","industry":"슈퍼마켓","coordinates":[127.379141832388,36.2907007569229],"sales":{"202602":1631}},{"id":"MA010120220806680476","name":"카페베네대전하나로마트","industry":"카페","coordinates":[127.37845261556,36.2885941693581],"sales":{"202602":1017}},{"id":"MA010120220806684917","name":"성심라이프대전,충남지사","industry":"장례식장","coordinates":[127.389814966684,36.3058964226391],"sales":{"202602":7112}},{"id":"MA010120220806740088","name":"리진","industry":"마사지/안마","coordinates":[127.388620160333,36.3119292129184],"sales":{"202602":619}},{"id":"MA010120220806751215","name":"별밤노래연습장","industry":"노래방","coordinates":[127.383984234817,36.3043382241281],"sales":{"202602":368}},{"id":"MA010120220806797508","name":"미니스톱","industry":"편의점","coordinates":[127.390851942619,36.3061994386388],"sales":{"202602":2294}},{"id":"MA010120220806829380","name":"가든공인중개사사무소","industry":"부동산 중개/대리업","coordinates":[127.385695977546,36.3060179237595],"sales":{"202602":296}},{"id":"MA010120220806834266","name":"힐스타운","industry":"목욕탕/사우나","coordinates":[127.385028314766,36.3038302044423],"sales":{"202602":4013}},{"id":"MA010120220806905526","name":"농협유통하나로주유소","industry":"주유소","coordinates":[127.37845261556,36.2885941693581],"sales":{"202602":9515}},{"id":"MA010120220807031005","name":"배드민턴창고","industry":"운동용품 소매업","coordinates":[127.390557653439,36.3052361363334],"sales":{"202602":1144}},{"id":"MA010120220807041859","name":"오케이가든공인중개사사무소","industry":"부동산 중개/대리업","coordinates":[127.385695977546,36.3060179237595],"sales":{"202602":142}},{"id":"MA010120220807046061","name":"한국효문화진흥원","industry":"기타 오락관련 서비스업","coordinates":[127.383203103605,36.2857673446826],"sales":{"202602":483}},{"id":"MA010120220807071085","name":"서피니아S&S","industry":"기타 의류 소매업","coordinates":[127.380735459442,36.2910651786589],"sales":{"202602":1476}},{"id":"MA010120220807072997","name":"다올","industry":"자동차 부품 소매업","coordinates":[127.39430938805,36.3073686325442],"sales":{"202602":637}},{"id":"MA010120220807081358","name":"사계절","industry":"펜션","coordinates":[127.38464508318,36.3028761851968],"sales":{"202602":185}},{"id":"MA010120220807112761","name":"으능정","industry":"중국집","coordinates":[127.37845261556,36.2885941693581],"sales":{"202602":1532}},{"id":"MA010120220807124656","name":"웰빙순대","industry":"국/탕/찌개류","coordinates":[127.385357286591,36.2960158931676],"sales":{"202602":1534}},{"id":"MA010120220807166165","name":"위드컴퍼니","industry":"임시/일용 인력 공급업","coordinates":[127.386792658972,36.3071408573778],"sales":{}},{"id":"MA010120220807168544","name":"계동치킨","industry":"치킨","coordinates":[127.38645731423,36.3001037119671],"sales":{"202602":705}},{"id":"MA010120220807203822","name":"예쁘니까,설렘.쏭#","industry":"여성 의류 소매업","coordinates":[127.393852635058,36.309532972163],"sales":{"202602":137}},{"id":"MA010120220807225645","name":"통영굴마을","industry":"해산물 구이/찜","coordinates":[127.379610847716,36.2910056713981],"sales":{"202602":3720}},{"id":"MA010120220807242113","name":"여우나라헤어뷰티","industry":"미용실","coordinates":[127.388651773188,36.3093246979787],"sales":{"202602":128}},{"id":"MA010120220807242117","name":"춘향골찐빵","industry":"빵/도넛","coordinates":[127.384839107951,36.2970449106408],"sales":{"202602":3059}},{"id":"MA010120220807282432","name":"강연우동태찌개","industry":"일식 면 요리","coordinates":[127.375984600026,36.2846187186745],"sales":{"202602":3330}},{"id":"MA010120220807366518","name":"대전씽씽","industry":"모터사이클 수리업","coordinates":[127.388064943864,36.3122374178899],"sales":{"202602":606}},{"id":"MA010120220807368859","name":"웰빙탁구장","industry":"탁구장","coordinates":[127.394766610539,36.3075113125995],"sales":{"202602":146}},{"id":"MA010120220807370582","name":"집밥먹으러가자","industry":"백반/한정식","coordinates":[127.389873169089,36.3131146911428],"sales":{"202602":1191}},{"id":"MA010120220807389957","name":"세원안영하나로클럽","industry":"치킨","coordinates":[127.37845261556,36.2885941693581],"sales":{"202602":858}},{"id":"MA010120220807391818","name":"유정커피스토리","industry":"카페","coordinates":[127.383967056286,36.2962907206298],"sales":{"202602":1332}},{"id":"MA010120220807489840","name":"더블루","industry":"전시/컨벤션/행사 대행 서비스업","coordinates":[127.392094851309,36.3098271280601],"sales":{"202602":1171}},{"id":"MA010120220807724742","name":"하이노래연습장","industry":"노래방","coordinates":[127.388820699684,36.3052237743152],"sales":{"202602":566}},{"id":"MA010120220807752395","name":"한밭건강원","industry":"건강보조식품 소매업","coordinates":[127.387077244263,36.306148636844],"sales":{"202602":1481}},{"id":"MA010120220807753397","name":"은영이네옷수선","industry":"의류/이불 수선업","coordinates":[127.394490437838,36.3079447910642],"sales":{"202602":37}},{"id":"MA010120220807781591","name":"옥식당","industry":"돼지고기 구이/찜","coordinates":[127.385617461283,36.3036390574804],"sales":{"202602":819}},{"id":"MA010120220807787300","name":"우리셋셀프주유소","industry":"주유소","coordinates":[127.376785803401,36.2845711376221],"sales":{"202602":11139}},{"id":"MA010120220807797221","name":"요런요치킨","industry":"치킨","coordinates":[127.394033621368,36.3078832149138],"sales":{"202602":280}},{"id":"MA010120220807820314","name":"나들행복마트","industry":"슈퍼마켓","coordinates":[127.390557653439,36.3052361363334],"sales":{"202602":2550}},{"id":"MA010120220807886422","name":"또봉이통닭사정오월드점","industry":"치킨","coordinates":[127.385425100842,36.2962229466687],"sales":{"202602":595}},{"id":"MA010120220807933317","name":"동네미술관","industry":"기타 의류 소매업","coordinates":[127.391842948066,36.3062142182955],"sales":{"202602":222}},{"id":"MA010120220808007961","name":"별빛율설공방","industry":"꽃집","coordinates":[127.392394540311,36.3051940742788],"sales":{"202602":188}},{"id":"MA010120220808022004","name":"비엠","industry":"건축물 일반 청소업","coordinates":[127.394061809252,36.306846763859],"sales":{"202602":324}},{"id":"MA010120220808026672","name":"동창돼지한마리","industry":"돼지고기 구이/찜","coordinates":[127.385253645222,36.3043701876228],"sales":{"202602":1339}},{"id":"MA010120220808033268","name":"도원춘","industry":"중국집","coordinates":[127.386533641103,36.3065469154394],"sales":{"202602":1446}},{"id":"MA010120220808044395","name":"중앙코맥스","industry":"사업시설 유지·관리 서비스업","coordinates":[127.384289633031,36.2962356133148],"sales":{"202602":890}},{"id":"MA010120220808057782","name":"락쿤","industry":"피부 관리실","coordinates":[127.387515777573,36.3047684085173],"sales":{"202602":235}},{"id":"MA010120220808076901","name":"대갈탕과꼬주냉면","industry":"냉면/밀면","coordinates":[127.391281436786,36.3052517933364],"sales":{"202602":935}},{"id":"MA010120220808085328","name":"스마트정수산업","industry":"기타 개인/가정용품 대여업","coordinates":[127.391525967028,36.307395804122],"sales":{"202602":340}},{"id":"MA010120220808090191","name":"국제능력평가원","industry":"기타 기술/직업 훈련학원","coordinates":[127.382886368772,36.2961229614155],"sales":{"202602":456}},{"id":"MA010120220808090517","name":"주안예복","industry":"장례식장","coordinates":[127.378483103884,36.2902973109791],"sales":{"202602":21706}},{"id":"MA010120220808108319","name":"만만공인중개사사무소","industry":"부동산 중개/대리업","coordinates":[127.388924322948,36.3103962167536],"sales":{"202602":730}},{"id":"MA010120220808127540","name":"리헤어","industry":"미용실","coordinates":[127.384961813859,36.2993605550865],"sales":{"202602":107}},{"id":"MA010120220808143765","name":"염색이야기","industry":"미용실","coordinates":[127.386859869558,36.3049687926722],"sales":{"202602":197}},{"id":"MA010120220808181549","name":"이에스지컨설팅","industry":"환경 관련 엔지니어링 서비스업","coordinates":[127.392698503667,36.3103027724187],"sales":{}},{"id":"MA010120220808203899","name":"라이크스포츠","industry":"운동용품 소매업","coordinates":[127.410590914323,36.2995005840318],"sales":{"202602":588}},{"id":"MA010120220808216034","name":"김밥천국","industry":"김밥/만두/분식","coordinates":[127.393485880691,36.3096693569691],"sales":{"202602":1484}},{"id":"MA010120220808224859","name":"현우건축인테리어","industry":"인테리어 디자인업","coordinates":[127.394171334756,36.3064859303584],"sales":{"202602":849}},{"id":"MA010120220808235351","name":"신성냉난방","industry":"가전제품 소매업","coordinates":[127.427643241253,36.2825256160391],"sales":{"202602":1276}},{"id":"MA010120220808259093","name":"중앙건어물","industry":"건어물/젓갈 소매업","coordinates":[127.387122893339,36.3063737843844],"sales":{"202602":2720}},{"id":"MA010120220808283506","name":"대전조공사","industry":"임시/일용 인력 공급업","coordinates":[127.384174464048,36.2954519541643],"sales":{}},{"id":"MA010120220808292005","name":"모란푸드","industry":"돼지고기 구이/찜","coordinates":[127.37830304009,36.2898923479481],"sales":{"202602":2610}},{"id":"MA010120220808297292","name":"고목나무","industry":"카페","coordinates":[127.38025510823,36.2930132640781],"sales":{"202602":407}},{"id":"MA010120220808328132","name":"다이소대전","industry":"그 외 기타 종합 소매업","coordinates":[127.385928400714,36.3034758414448],"sales":{"202602":1726}},{"id":"MA010120220808350616","name":"신화팬시","industry":"장난감 소매업","coordinates":[127.398506087915,36.2874926583213],"sales":{"202602":1261}},{"id":"MA010120220808354220","name":"신양평해장국","industry":"국/탕/찌개류","coordinates":[127.380989474157,36.2906498249816],"sales":{"202602":1726}},{"id":"MA010120220808424287","name":"불닭발땡초동대문엽기떡볶이대전","industry":"김밥/만두/분식","coordinates":[127.386032688218,36.3043045919966],"sales":{"202602":296}},{"id":"MA010120220808425918","name":"산성맥반석구이김","industry":"반찬/식료품 소매업","coordinates":[127.38855773693,36.3060807516049],"sales":{"202602":1416}},{"id":"MA010120220808428941","name":"삼창종합인테리어","industry":"벽지/장판/마루 소매업","coordinates":[127.391170189347,36.3052701810062],"sales":{"202602":358}},{"id":"MA010120220808435305","name":"네일그대와","industry":"네일숍","coordinates":[127.388275905638,36.3053787457295],"sales":{"202602":127}},{"id":"MA010120220808513683","name":"명승미용실","industry":"미용실","coordinates":[127.389392980618,36.3128368903338],"sales":{"202602":267}},{"id":"MA010120220808513739","name":"크레용","industry":"기념품점","coordinates":[127.394583335061,36.3064935830772],"sales":{"202602":377}},{"id":"MA010120220808515794","name":"아라당","industry":"슈퍼마켓","coordinates":[127.392656244018,36.3085365969911],"sales":{"202602":6167}},{"id":"MA010120220808516098","name":"방일해장국","industry":"국/탕/찌개류","coordinates":[127.385131997396,36.3000088583719],"sales":{"202602":1602}},{"id":"MA010120220808520916","name":"티에스","industry":"기타 산업용 기계/장비 대여업","coordinates":[127.385639642666,36.3058829282678],"sales":{"202602":347}},{"id":"MA010120220808523794","name":"카페브람스","industry":"카페","coordinates":[127.410590914323,36.2995005840318],"sales":{"202602":602}},{"id":"MA010120220808532408","name":"해피청인","industry":"건축물 일반 청소업","coordinates":[127.386792658972,36.3071408573778],"sales":{"202602":460}},{"id":"MA010120220808567772","name":"문수지쥬얼리","industry":"시계/귀금속 소매업","coordinates":[127.385937835999,36.3008713948934],"sales":{"202602":1191}},{"id":"MA010120220808572876","name":"영인전기설계감리","industry":"건축 설계 및 관련 서비스업","coordinates":[127.391283436307,36.310109152594],"sales":{"202602":608}},{"id":"MA010120220808625731","name":"츄리닝","industry":"기타 의류 소매업","coordinates":[127.387375249949,36.2988661215207],"sales":{"202602":279}},{"id":"MA010120220808631016","name":"다원씽크","industry":"백반/한정식","coordinates":[127.379166747661,36.2728391848251],"sales":{"202602":2494}},{"id":"MA010120220808645666","name":"제이케이산업안전","industry":"그 외 기타 상품 전문 소매업","coordinates":[127.383780549776,36.2945790714875],"sales":{"202602":1974}},{"id":"MA010120220808654975","name":"화통미용실","industry":"미용실","coordinates":[127.387438164593,36.3070846963272],"sales":{"202602":226}},{"id":"MA010120220808660228","name":"참공인중개사사무소","industry":"부동산 중개/대리업","coordinates":[127.384162328614,36.3043286401841],"sales":{"202602":277}},{"id":"MA010120220808669708","name":"미장원by.선미","industry":"미용실","coordinates":[127.387370995145,36.3047598658983],"sales":{"202602":222}},{"id":"MA010120220808687069","name":"디자인신한","industry":"명함/간판/광고물 제작","coordinates":[127.391452570066,36.3105321537965],"sales":{"202602":483}},{"id":"MA010120220808690487","name":"제이미디어","industry":"사진촬영업","coordinates":[127.386792658972,36.3071408573778],"sales":{"202602":520}},{"id":"MA010120220808690584","name":"캠핑BORN","industry":"그 외 기타 종합 소매업","coordinates":[127.384943482455,36.2956297174202],"sales":{"202602":843}},{"id":"MA010120220808704373","name":"루비염색방","industry":"미용실","coordinates":[127.392919815009,36.3055888688883],"sales":{"202602":105}},{"id":"MA010120220808716709","name":"우리할인마트","industry":"슈퍼마켓","coordinates":[127.39208063038,36.3047625370797],"sales":{"202602":2286}},{"id":"MA010120220808731172","name":"바른시스템공조환경","industry":"가전제품 수리업","coordinates":[127.38706611058,36.3038957189535],"sales":{"202602":636}},{"id":"MA010120220808746332","name":"라인속눈썹","industry":"피부 관리실","coordinates":[127.388157007044,36.3061000769617],"sales":{"202602":163}},{"id":"MA010120220808754333","name":"안영셀프세차장","industry":"자동차 세차장","coordinates":[127.380201004587,36.2910398437176],"sales":{"202602":2337}},{"id":"MA010120220808754687","name":"쩐구제크린샵","industry":"기타 의류 소매업","coordinates":[127.385078207443,36.2981255601321],"sales":{"202602":726}},{"id":"MA010120220808796922","name":"바디프로","industry":"건강보조식품 소매업","coordinates":[127.386792658972,36.3071408573778],"sales":{"202602":1632}},{"id":"MA010120220808834147","name":"뉴스타공인중개사사무소","industry":"부동산 중개/대리업","coordinates":[127.385530344756,36.3062978242485],"sales":{"202602":251}},{"id":"MA010120220808907618","name":"가람당구클럽","industry":"당구장","coordinates":[127.384852746054,36.3043534551629],"sales":{"202602":137}},{"id":"MA010120220808984975","name":"아이메디","industry":"여행사","coordinates":[127.380238867478,36.2873719037462],"sales":{"202602":800}},{"id":"MA010120220809011189","name":"숨음악학원","industry":"음악학원","coordinates":[127.385328116752,36.3059289918122],"sales":{"202602":147}},{"id":"MA010120220809080970","name":"힐커피","industry":"카페","coordinates":[127.394215371474,36.306386655235],"sales":{"202602":281}},{"id":"MA010120220809138235","name":"동행플러스","industry":"전시/컨벤션/행사 대행 서비스업","coordinates":[127.396166608651,36.3113366991544],"sales":{"202602":1784}},{"id":"MA010120220809263870","name":"정인테리어","industry":"인테리어 디자인업","coordinates":[127.393878439165,36.3102358080354],"sales":{"202602":1787}},{"id":"MA010120220809278924","name":"청원골","industry":"백반/한정식","coordinates":[127.380568074049,36.293273611618],"sales":{"202602":357}},{"id":"MA010120220809292739","name":"착한도배","industry":"벽지/장판/마루 소매업","coordinates":[127.385633515073,36.300115383713],"sales":{"202602":107}},{"id":"MA010120220809306257","name":"디에스쿡","industry":"피자","coordinates":[127.389285155911,36.3068263656975],"sales":{"202602":1337}},{"id":"MA010120220809322534","name":"금강석유","industry":"가정용 연료 소매업","coordinates":[127.389729010349,36.3109973871901],"sales":{"202602":4807}},{"id":"MA010120220809372129","name":"레츠크린","industry":"건축물 일반 청소업","coordinates":[127.395253916873,36.3069960293371],"sales":{"202602":672}},{"id":"MA010120220809378611","name":"서대전인력","industry":"임시/일용 인력 공급업","coordinates":[127.388497770253,36.3097036944972],"sales":{}},{"id":"MA010120220809419287","name":"산일냉열","industry":"가전제품 소매업","coordinates":[127.380405727216,36.2896423574038],"sales":{"202602":1648}},{"id":"MA010120220809531693","name":"임대","industry":"가정용 연료 소매업","coordinates":[127.385383834642,36.303675858063],"sales":{"202602":4579}},{"id":"MA010120220809577071","name":"오토플러스","industry":"침구류/커튼 소매업","coordinates":[127.386792658972,36.3071408573778],"sales":{"202602":338}},{"id":"MA010120220809579474","name":"알프스다이빙","industry":"수상/해양 레저업","coordinates":[127.382011506966,36.2925030027213],"sales":{"202602":1336}},{"id":"MA010120220809609477","name":"동신상용모터스","industry":"자동차 정비소","coordinates":[127.387507166943,36.3097790040221],"sales":{"202602":991}},{"id":"MA010120220809636341","name":"효마트","industry":"슈퍼마켓","coordinates":[127.3923173422,36.307564434188],"sales":{"202602":5173}},{"id":"MA010120220809677617","name":"신옛날양푼이동태대구찌개","industry":"백반/한정식","coordinates":[127.384451324649,36.2974246549397],"sales":{"202602":1086}},{"id":"MA010120220809742513","name":"만향","industry":"중국집","coordinates":[127.394592133746,36.3104497378045],"sales":{"202602":4157}},{"id":"MA010120220809757463","name":"아파트오피스텔원룸입주이사청소스마트홈케어","industry":"건축물 일반 청소업","coordinates":[127.386793193283,36.2959752093727],"sales":{"202602":456}},{"id":"MA010120220809780067","name":"크레인PC대전","industry":"PC방","coordinates":[127.386919322101,36.3057346045797],"sales":{"202602":1838}},{"id":"MA010120220809783987","name":"신정종합건축인테리어업","industry":"인테리어 디자인업","coordinates":[127.393110433483,36.3102924067721],"sales":{"202602":1542}},{"id":"MA010120220809809802","name":"수정인테리어","industry":"인테리어 디자인업","coordinates":[127.389552174368,36.3090243777211],"sales":{"202602":2288}},{"id":"MA010120220809840999","name":"김밥친구","industry":"김밥/만두/분식","coordinates":[127.384041847463,36.2956506404738],"sales":{"202602":488}},{"id":"MA010120220809852350","name":"스마트기획","industry":"핸드폰 소매업","coordinates":[127.382325355906,36.2929435795628],"sales":{"202602":243}},{"id":"MA010120220809873425","name":"블라썸배팅센타","industry":"운동용품 소매업","coordinates":[127.382293798142,36.2956021713279],"sales":{"202602":387}},{"id":"MA010120220809893426","name":"부곡상사","industry":"철물/공구 소매업","coordinates":[127.384778374301,36.3028126735557],"sales":{"202602":380}},{"id":"MA010120220809921703","name":"친구식당","industry":"돼지고기 구이/찜","coordinates":[127.386441208578,36.3036093622805],"sales":{"202602":1913}},{"id":"MA010120220809941390","name":"칼짬뽕","industry":"중국집","coordinates":[127.395432953464,36.3115824468583],"sales":{"202602":1798}},{"id":"MA010120220809965420","name":"쿡노래연습장","industry":"노래방","coordinates":[127.383086620842,36.2960952844919],"sales":{"202602":406}},{"id":"MA010120220809992785","name":"크린토피아코인워시365하나로클럽대전","industry":"셀프 빨래방","coordinates":[127.37845261556,36.2885941693581],"sales":{"202602":92}},{"id":"MA010120220810005142","name":"세탁풍경","industry":"셀프 빨래방","coordinates":[127.393951874784,36.3071264922954],"sales":{"202602":192}},{"id":"MA010120220810054166","name":"시루향기","industry":"국/탕/찌개류","coordinates":[127.386355050866,36.3019424541547],"sales":{"202602":1722}},{"id":"MA010120220810067088","name":"달달한오빠들협동조합","industry":"카페","coordinates":[127.384849909188,36.2992437616144],"sales":{"202602":835}},{"id":"MA010120220810085484","name":"청석골칡냉면","industry":"냉면/밀면","coordinates":[127.395253916873,36.3069960293371],"sales":{"202602":776}},{"id":"MA010120220810086111","name":"휴안인테리어","industry":"인테리어 디자인업","coordinates":[127.383590287025,36.2943724098723],"sales":{"202602":1282}},{"id":"MA010120220810112543","name":"그레이스풀","industry":"기타 의류 소매업","coordinates":[127.379610847716,36.2910056713981],"sales":{"202602":1052}},{"id":"MA010120220810117215","name":"메그레즈","industry":"예술품 소매업","coordinates":[127.391759556765,36.3051240621813],"sales":{"202602":694}},{"id":"MA010120220810122949","name":"삼진","industry":"임시/일용 인력 공급업","coordinates":[127.386851128024,36.3099613648861],"sales":{}},{"id":"MA010120220810136118","name":"메이드선","industry":"자동차 대여업","coordinates":[127.383590287025,36.2943724098723],"sales":{"202602":13840}},{"id":"MA010120220810136884","name":"토빈","industry":"부동산 중개/대리업","coordinates":[127.377591661039,36.2901108806422],"sales":{"202602":351}},{"id":"MA010120220810173163","name":"신통치킨산성","industry":"치킨","coordinates":[127.39328668398,36.3099133312209],"sales":{"202602":1586}},{"id":"MA010120220810209056","name":"도우프렌드","industry":"기념품점","coordinates":[127.385801664309,36.3003491486529],"sales":{"202602":348}},{"id":"MA010120220810217547","name":"에코포레조경","industry":"조경 유지·관리 서비스업","coordinates":[127.387257603952,36.3020927350892],"sales":{}},{"id":"MA010120220810227011","name":"이룰","industry":"경영 컨설팅업","coordinates":[127.386792658972,36.3071408573778],"sales":{"202602":2400}},{"id":"MA010120220810235080","name":"몽피자","industry":"피자","coordinates":[127.384819900368,36.3067326802299],"sales":{"202602":2596}},{"id":"MA010120220810272186","name":"파인휠전동킥보드","industry":"모터사이클 수리업","coordinates":[127.391851341431,36.3123422200936],"sales":{"202602":93}},{"id":"MA010120220810277177","name":"유성조경","industry":"조경 유지·관리 서비스업","coordinates":[127.386792658972,36.3071408573778],"sales":{}},{"id":"MA010120220810294749","name":"더에스스킨앤바디","industry":"피부 관리실","coordinates":[127.394844364577,36.3096829015191],"sales":{"202602":475}},{"id":"MA010120220810324848","name":"중구카서비스","industry":"자동차 정비소","coordinates":[127.393838540774,36.3067303460328],"sales":{"202602":1962}},{"id":"MA010120220810332122","name":"미소노래연습장","industry":"노래방","coordinates":[127.384289633031,36.2962356133148],"sales":{"202602":773}},{"id":"MA010120220810364466","name":"데시앙공인중개사사무소","industry":"부동산 중개/대리업","coordinates":[127.388620160333,36.3119292129184],"sales":{"202602":262}},{"id":"MA010120220810487661","name":"가이야","industry":"카페","coordinates":[127.386027003384,36.3031510976445],"sales":{"202602":1088}},{"id":"MA010120220810504688","name":"한국유통","industry":"반찬/식료품 소매업","coordinates":[127.388847127972,36.3060617870858],"sales":{"202602":872}},{"id":"MA010120220810572727","name":"슈퍼마켓","industry":"슈퍼마켓","coordinates":[127.397879782733,36.2781404481677],"sales":{"202602":5913}},{"id":"MA010120220810583354","name":"블링블링","industry":"액세서리/잡화 소매업","coordinates":[127.385311403632,36.3025315904802],"sales":{"202602":613}},{"id":"MA010120220810647404","name":"스마일베이커리","industry":"김밥/만두/분식","coordinates":[127.385978384267,36.3023221672189],"sales":{"202602":1345}},{"id":"MA010120220810652078","name":"동남공인중개사사무소","industry":"부동산 중개/대리업","coordinates":[127.388275905638,36.3053787457295],"sales":{"202602":515}},{"id":"MA010120220810875342","name":"부자부동산중개사무소","industry":"부동산 중개/대리업","coordinates":[127.385876896855,36.302061152023],"sales":{"202602":505}},{"id":"MA010120220810889415","name":"태종인력개발공사","industry":"임시/일용 인력 공급업","coordinates":[127.389302492041,36.3103138795986],"sales":{}},{"id":"MA010120220810910385","name":"서비스월드","industry":"가전제품 수리업","coordinates":[127.387745113946,36.2971166283516],"sales":{"202602":452}},{"id":"MA010120220811192827","name":"펀노래연습장","industry":"노래방","coordinates":[127.3840550118,36.2960651423928],"sales":{"202602":640}},{"id":"MA010120220811194556","name":"중구기초건설","industry":"기타 산업용 기계/장비 대여업","coordinates":[127.387238337275,36.3094554499918],"sales":{"202602":149}},{"id":"MA010120220811214894","name":"하나냉열시스템","industry":"그 외 기타 개인/가정용품 수리업","coordinates":[127.392371675987,36.3095198183729],"sales":{"202602":545}},{"id":"MA010120220811229263","name":"새롬건축인테리어","industry":"인테리어 디자인업","coordinates":[127.394518982848,36.3069804332346],"sales":{"202602":2189}},