[{"id":"MA010120220800045626","name":"대전휴대폰성지펀펀컴퍼니","industry":"기타 의류 소매업","coordinates":[127.424973422173,36.3279546192123],"sales":{"202602":10842}},{"id":"MA010120220800047513","name":"그레이스모텔","industry":"여관/모텔","coordinates":[127.430947244051,36.3226703559581],"sales":{"202602":1191}},{"id":"MA010120220800092558","name":"엔제트나이스존스튜디오","industry":"사진촬영업","coordinates":[127.429317775354,36.3260826695286],"sales":{"202602":675}},{"id":"MA010120220800148585","name":"하스발레","industry":"기타 예술/스포츠 교육기관","coordinates":[127.426979913195,36.3262442438864],"sales":{"202602":259}},{"id":"MA010120220800156461","name":"쪽방집사랑채","industry":"요리 주점","coordinates":[127.42333024905,36.3268429907783],"sales":{"202602":981}},{"id":"MA010120220800297354","name":"아이언PC","industry":"PC방","coordinates":[127.425982909236,36.3272210724298],"sales":{"202602":1192}},{"id":"MA010120220800299668","name":"양지식당","industry":"국수/칼국수","coordinates":[127.420831145698,36.3239500246266],"sales":{"202602":4834}},{"id":"MA010120220800316787","name":"가치있는초콜릿가치","industry":"카페","coordinates":[127.422994782115,36.3265918488499],"sales":{"202602":597}},{"id":"MA010120220800455165","name":"가람토목","industry":"건축 설계 및 관련 서비스업","coordinates":[127.425775149695,36.3238333864537],"sales":{"202602":498}},{"id":"MA010120220800458088","name":"퍼스트","industry":"요리 주점","coordinates":[127.429388105647,36.3267222525174],"sales":{"202602":1209}},{"id":"MA010120220800519612","name":"뮤제","industry":"카페","coordinates":[127.424948339613,36.325386353804],"sales":{"202602":1353}},{"id":"MA010120220800524695","name":"민트코코아","industry":"기타 의류 소매업","coordinates":[127.422872654052,36.3246006791943],"sales":{"202602":5130}},{"id":"MA010120220800529031","name":"두놈","industry":"남성 의류 소매업","coordinates":[127.422872654052,36.3246006791943],"sales":{"202602":314}},{"id":"MA010120220800654467","name":"호텔오브제","industry":"카페","coordinates":[127.427223247636,36.3259369741905],"sales":{"202602":893}},{"id":"MA010120220800659920","name":"걸스홀릭","industry":"기타 의류 소매업","coordinates":[127.424973422173,36.3279546192123],"sales":{"202602":3121}},{"id":"MA010120220800689521","name":"버팔로막창","industry":"곱창 전골/구이","coordinates":[127.4293235592,36.3271370257304],"sales":{"202602":2480}},{"id":"MA010120220800693371","name":"가나시트공임카바","industry":"자동차 부품 소매업","coordinates":[127.428052528026,36.3187335982974],"sales":{"202602":1008}},{"id":"MA010120220800694338","name":"가람솔대전","industry":"소독, 구충 및 방제 서비스업","coordinates":[127.425686647112,36.3239418429661],"sales":{"202602":74}},{"id":"MA010120220800695153","name":"코코제이","industry":"여성 의류 소매업","coordinates":[127.422872654052,36.3246006791943],"sales":{"202602":828}},{"id":"MA010120220800697255","name":"불루문","industry":"핸드폰 소매업","coordinates":[127.424973422173,36.3279546192123],"sales":{"202602":132}},{"id":"MA010120220800758776","name":"콩모텔","industry":"여관/모텔","coordinates":[127.430585568989,36.3257536854429],"sales":{"202602":600}},{"id":"MA010120220800830559","name":"엠피플","industry":"요리 주점","coordinates":[127.424931106022,36.3263146275589],"sales":{"202602":816}},{"id":"MA010120220800840433","name":"오드리","industry":"피부 관리실","coordinates":[127.424973422173,36.3279546192123],"sales":{"202602":237}},{"id":"MA010120220800843711","name":"대전호텔박스","industry":"여관/모텔","coordinates":[127.430352431215,36.3238620530809],"sales":{"202602":907}},{"id":"MA010120220800893926","name":"씨바식당","industry":"생맥주 전문","coordinates":[127.424738847851,36.3257746046122],"sales":{"202602":1422}},{"id":"MA010120220800917792","name":"청춘당구샵","industry":"당구장","coordinates":[127.431129723778,36.3254723590801],"sales":{"202602":188}},{"id":"MA010120220801054669","name":"디자인휴","industry":"시각 디자인업","coordinates":[127.423312142115,36.3255543715445],"sales":{"202602":704}},{"id":"MA010120220801110881","name":"대흥드럼통","industry":"돼지고기 구이/찜","coordinates":[127.423505901602,36.3263737564392],"sales":{"202602":1150}},{"id":"MA010120220801142124","name":"투썸플레이스대전대흥","industry":"카페","coordinates":[127.425855500583,36.3263203494372],"sales":{"202602":1916}},{"id":"MA010120220801143357","name":"사이에서","industry":"시각 디자인업","coordinates":[127.430969374414,36.3266895261889],"sales":{"202602":765}},{"id":"MA010120220801164723","name":"데이미플라워","industry":"꽃집","coordinates":[127.425142727839,36.3242682026798],"sales":{"202602":151}},{"id":"MA010120220801168013","name":"대원칼국수","industry":"국수/칼국수","coordinates":[127.427879225297,36.3257363687964],"sales":{"202602":1123}},{"id":"MA010120220801240203","name":"김형제의고기철학","industry":"돼지고기 구이/찜","coordinates":[127.424114218238,36.3276512708924],"sales":{"202602":1600}},{"id":"MA010120220801265427","name":"본도시락중","industry":"백반/한정식","coordinates":[127.425892647926,36.3229137667984],"sales":{"202602":1320}},{"id":"MA010120220801908461","name":"호박","industry":"기타 의류 소매업","coordinates":[127.422872654052,36.3246006791943],"sales":{"202602":32413}},{"id":"MA010120220802300260","name":"노리존게임파크","industry":"전자 게임장","coordinates":[127.429035681971,36.3274444595212],"sales":{"202602":11341}},{"id":"MA010120220802744035","name":"망고","industry":"기타 의류 소매업","coordinates":[127.422872654052,36.3246006791943],"sales":{"202602":4815}},{"id":"MA010120220802885896","name":"호텔마이스테이","industry":"여관/모텔","coordinates":[127.42125592804,36.3242459169324],"sales":{"202602":291}},{"id":"MA010120220802896473","name":"광클광고대행서비스","industry":"광고 대행업","coordinates":[127.423160992055,36.3202559820126],"sales":{"202602":560}},{"id":"MA010120220802896519","name":"모아건축사사무소","industry":"건축 설계 및 관련 서비스업","coordinates":[127.426030498066,36.3277796324857],"sales":{"202602":217}},{"id":"MA010120220802907130","name":"비인비어","industry":"요리 주점","coordinates":[127.424126822211,36.3258668955827],"sales":{"202602":805}},{"id":"MA010120220802920819","name":"팰리스모텔","industry":"여관/모텔","coordinates":[127.424454574113,36.3267488857304],"sales":{"202602":191}},{"id":"MA010120220802955424","name":"다올엔터테인먼트","industry":"광고 대행업","coordinates":[127.430226175833,36.3252052615821],"sales":{"202602":724}},{"id":"MA010120220802980575","name":"자우리호텔","industry":"여관/모텔","coordinates":[127.423741492481,36.3246336493426],"sales":{"202602":595}},{"id":"MA010120220802988065","name":"성실주택관리","industry":"부동산 중개/대리업","coordinates":[127.417437327654,36.3223938756634],"sales":{"202602":719}},{"id":"MA010120220802993733","name":"1월10일","industry":"기념품점","coordinates":[127.422915412752,36.3263307883311],"sales":{"202602":512}},{"id":"MA010120220803014811","name":"링크모바일","industry":"중고 상품 소매업","coordinates":[127.41766312804,36.3229698407539],"sales":{"202602":340}},{"id":"MA010120220803017420","name":"디아지트","industry":"기타 의류 소매업","coordinates":[127.422872654052,36.3246006791943],"sales":{"202602":4485}},{"id":"MA010120220803029257","name":"민들레뜨락","industry":"반찬/식료품 소매업","coordinates":[127.426396477331,36.3234076182225],"sales":{"202602":299}},{"id":"MA010120220803036514","name":"반디고시텔","industry":"기숙사/고시원","coordinates":[127.425576312532,36.3241314831119],"sales":{"202602":24}},{"id":"MA010120220803041701","name":"식공간","industry":"돼지고기 구이/찜","coordinates":[127.429388105647,36.3267222525174],"sales":{"202602":2418}},{"id":"MA010120220803042429","name":"맘스터치","industry":"버거","coordinates":[127.41976534115,36.324566573026],"sales":{"202602":4635}},{"id":"MA010120220803047504","name":"수지","industry":"여성 의류 소매업","coordinates":[127.424973422173,36.3279546192123],"sales":{"202602":185}},{"id":"MA010120220803050248","name":"씨엔유건축사사무소","industry":"건축 설계 및 관련 서비스업","coordinates":[127.4250067139,36.3258817937178],"sales":{"202602":253}},{"id":"MA010120220803052313","name":"나래뷰티","industry":"화장품 소매업","coordinates":[127.425892647926,36.3229137667984],"sales":{"202602":747}},{"id":"MA010120220803064123","name":"성수","industry":"백반/한정식","coordinates":[127.424523447724,36.3271271354808],"sales":{"202602":2213}},{"id":"MA010120220803077625","name":"재미사마","industry":"PC방","coordinates":[127.422872654052,36.3246006791943],"sales":{"202602":1056}},{"id":"MA010120220803122473","name":"그린","industry":"화장품 소매업","coordinates":[127.425892647926,36.3229137667984],"sales":{"202602":892}},{"id":"MA010120220803125607","name":"불타는쪽갈비","industry":"돼지고기 구이/찜","coordinates":[127.424257336736,36.3273443628142],"sales":{"202602":1234}},{"id":"MA010120220803128163","name":"퍼밀스튜디오","industry":"포장/충전업","coordinates":[127.420145404987,36.3206811612851],"sales":{"202602":31}},{"id":"MA010120220803131820","name":"에스케이SK매직렌탈대전","industry":"기타 개인/가정용품 대여업","coordinates":[127.426030498066,36.3277796324857],"sales":{"202602":614}},{"id":"MA010120220803143099","name":"미술공간501","industry":"미술학원","coordinates":[127.422814987718,36.3262950965296],"sales":{"202602":304}},{"id":"MA010120220803150243","name":"스피드메이트","industry":"자동차 정비소","coordinates":[127.41904956851,36.3240013426494],"sales":{"202602":956}},{"id":"MA010120220803158152","name":"연헤어샵","industry":"미용실","coordinates":[127.421032618225,36.3241385624222],"sales":{"202602":237}},{"id":"MA010120220803170187","name":"오징어어때","industry":"요리 주점","coordinates":[127.425144416572,36.3266292810025],"sales":{"202602":1092}},{"id":"MA010120220803192427","name":"키스다이아몬드","industry":"액세서리/잡화 소매업","coordinates":[127.422872654052,36.3246006791943],"sales":{"202602":402}},{"id":"MA010120220803192433","name":"사뿐슈즈","industry":"신발 소매업","coordinates":[127.422872654052,36.3246006791943],"sales":{"202602":914}},{"id":"MA010120220803193248","name":"임창정의소주한잔","industry":"요리 주점","coordinates":[127.424754141625,36.3265405508274],"sales":{"202602":1568}},{"id":"MA010120220803200729","name":"야쿠소쿠","industry":"일식 회/초밥","coordinates":[127.425508989204,36.326087277453],"sales":{"202602":3397}},{"id":"MA010120220803202022","name":"앤네일","industry":"네일숍","coordinates":[127.422872654052,36.3246006791943],"sales":{"202602":152}},{"id":"MA010120220803224339","name":"박통민속포차","industry":"요리 주점","coordinates":[127.430171491832,36.327413341846],"sales":{"202602":3014}},{"id":"MA010120220803232247","name":"레고","industry":"기타 의류 소매업","coordinates":[127.424973422173,36.3279546192123],"sales":{"202602":23546}},{"id":"MA010120220803233052","name":"세븐일레븐","industry":"편의점","coordinates":[127.418104375996,36.3180118179597],"sales":{"202602":3507}},{"id":"MA010120220803269410","name":"나우컴퍼니","industry":"김밥/만두/분식","coordinates":[127.426638528265,36.322866048009],"sales":{"202602":3182}},{"id":"MA010120220803273994","name":"반하다","industry":"미용실","coordinates":[127.428772700222,36.3241651187641],"sales":{"202602":254}},{"id":"MA010120220803312627","name":"낙조NAKZO","industry":"여성 의류 소매업","coordinates":[127.424818274978,36.3198896324224],"sales":{"202602":305}},{"id":"MA010120220803315126","name":"에이프릴퍼스트","industry":"기타 의류 소매업","coordinates":[127.425435409232,36.3248439148171],"sales":{"202602":9605}},{"id":"MA010120220803318742","name":"가온의료기","industry":"의료기기 소매업","coordinates":[127.420831969391,36.3241032219168],"sales":{"202602":2161}},{"id":"MA010120220803321145","name":"배실댁","industry":"요리 주점","coordinates":[127.42503567031,36.3250616194784],"sales":{"202602":480}},{"id":"MA010120220803352134","name":"동동","industry":"생수/음료 소매업","coordinates":[127.428901227129,36.3211997836469],"sales":{}},{"id":"MA010120220803397191","name":"마린회전초밥","industry":"일식 회/초밥","coordinates":[127.427742723769,36.3272508346794],"sales":{"202602":4779}},{"id":"MA010120220803398483","name":"알콜팩토리","industry":"경양식","coordinates":[127.42471135526,36.3268651266053],"sales":{"202602":8447}},{"id":"MA010120220803405659","name":"왕궁짬뽕명가","industry":"중국집","coordinates":[127.428635362315,36.3234897283294],"sales":{"202602":1389}},{"id":"MA010120220803409369","name":"욜라탱고","industry":"백반/한정식","coordinates":[127.423830622901,36.3266970292105],"sales":{"202602":1653}},{"id":"MA010120220803413486","name":"당신의네일","industry":"네일숍","coordinates":[127.428856975214,36.3253183232426],"sales":{"202602":159}},{"id":"MA010120220803421896","name":"진로집","industry":"백반/한정식","coordinates":[127.424694839287,36.3258738904776],"sales":{"202602":753}},{"id":"MA010120220803426904","name":"줄리앤칩","industry":"경양식","coordinates":[127.422942491979,36.3251591620805],"sales":{"202602":8127}},{"id":"MA010120220803442717","name":"대전홍가","industry":"요리 주점","coordinates":[127.425289390052,36.3266648123401],"sales":{"202602":1432}},{"id":"MA010120220803511875","name":"벅","industry":"기타 의류 소매업","coordinates":[127.424973422173,36.3279546192123],"sales":{"202602":8238}},{"id":"MA010120220803531665","name":"민들레분식","industry":"김밥/만두/분식","coordinates":[127.424973422173,36.3279546192123],"sales":{"202602":1771}},{"id":"MA010120220803540712","name":"하나우리여행사","industry":"여행사","coordinates":[127.420726360679,36.3210305773489],"sales":{"202602":3622}},{"id":"MA010120220803574337","name":"모어도트","industry":"네일숍","coordinates":[127.418766482391,36.323128192361],"sales":{"202602":134}},{"id":"MA010120220803606394","name":"램프의진희","industry":"그 외 기타 교육기관","coordinates":[127.423559975691,36.3260761763686],"sales":{"202602":291}},{"id":"MA010120220803705598","name":"청석골밀냉면","industry":"냉면/밀면","coordinates":[127.425232427645,36.3182299919877],"sales":{"202602":9663}},{"id":"MA010120220803710306","name":"마마빈티지","industry":"기타 의류 소매업","coordinates":[127.422872654052,36.3246006791943],"sales":{"202602":5234}},{"id":"MA010120220803853564","name":"닥터아이티엔네일까망아트","industry":"네일숍","coordinates":[127.422872654052,36.3246006791943],"sales":{"202602":68}},{"id":"MA010120220803877692","name":"블루드림센터","industry":"교육컨설팅업","coordinates":[127.426979913195,36.3262442438864],"sales":{"202602":784}},{"id":"MA010120220804089903","name":"아이콘","industry":"안경렌즈 소매업","coordinates":[127.430691905577,36.3228154646457],"sales":{"202602":969}},{"id":"MA010120220804137662","name":"어반라운지","industry":"카페","coordinates":[127.430365710979,36.3262771598889],"sales":{"202602":893}},{"id":"MA010120220804148313","name":"윤세주공인중개사사무소","industry":"부동산 중개/대리업","coordinates":[127.429721911117,36.326666982273],"sales":{"202602":572}},{"id":"MA010120220804198858","name":"워시엔조이셀프빨래방","industry":"셀프 빨래방","coordinates":[127.429950534888,36.3257109125458],"sales":{"202602":212}},{"id":"MA010120220804199820","name":"씨케이케미칼","industry":"그 외 기타 종합 소매업","coordinates":[127.42541279998,36.3186348804322],"sales":{"202602":1104}},{"id":"MA010120220804200574","name":"비브로","industry":"남성 의류 소매업","coordinates":[127.423076520072,36.3252307819444],"sales":{"202602":478}},{"id":"MA010120220804288380","name":"메가엠지씨커피대전성모","industry":"카페","coordinates":[127.420831969391,36.3241032219168],"sales":{"202602":504}},{"id":"MA010120220804381330","name":"미소본가스마일칼국수","industry":"국수/칼국수","coordinates":[127.427159399966,36.3244412482417],"sales":{"202602":602}},{"id":"MA010120220804399951","name":"디아로마","industry":"카페","coordinates":[127.427486872179,36.3273058206242],"sales":{"202602":807}},{"id":"MA010120220804401103","name":"시크릿플레이스","industry":"백반/한정식","coordinates":[127.430307054741,36.3257366648954],"sales":{"202602":1017}},{"id":"MA010120220804501077","name":"하모니피아노","industry":"음악학원","coordinates":[127.425744652121,36.320273843114],"sales":{"202602":661}},{"id":"MA010120220804531439","name":"코디","industry":"기타 의류 소매업","coordinates":[127.424973422173,36.3279546192123],"sales":{"202602":5158}},{"id":"MA010120220804600002","name":"방아깐통골뱅이","industry":"요리 주점","coordinates":[127.423559975691,36.3260761763686],"sales":{"202602":1332}},{"id":"MA010120220804608342","name":"미콩커피대흥동점","industry":"카페","coordinates":[127.417438913609,36.3226912588418],"sales":{"202602":1414}},{"id":"MA010120220804783110","name":"맞배집","industry":"경양식","coordinates":[127.42299249295,36.3261683036857],"sales":{"202602":7680}},{"id":"MA010120220804784602","name":"법무사김광태사무소","industry":"법무사","coordinates":[127.422353763259,36.3254406087774],"sales":{"202602":120}},{"id":"MA010120220804829185","name":"스마일짐스포츠","industry":"레크리에이션 교육기관","coordinates":[127.421824176067,36.3242979835701],"sales":{"202602":288}},{"id":"MA010120220804848175","name":"여왕광고","industry":"광고 대행업","coordinates":[127.430226175833,36.3252052615821],"sales":{"202602":472}},{"id":"MA010120220804855919","name":"커피맨션문장","industry":"카페","coordinates":[127.427383161808,36.3246296956099],"sales":{"202602":1466}},{"id":"MA010120220804881405","name":"삼촌네심야식당","industry":"요리 주점","coordinates":[127.424322496537,36.3270377313341],"sales":{"202602":397}},{"id":"MA010120220804897859","name":"상상공간","industry":"여성 의류 소매업","coordinates":[127.424973422173,36.3279546192123],"sales":{"202602":742}},{"id":"MA010120220804909380","name":"몽모텔","industry":"여관/모텔","coordinates":[127.430328485616,36.3255833876493],"sales":{"202602":1854}},{"id":"MA010120220804909976","name":"서채원헤어","industry":"미용실","coordinates":[127.425892647926,36.3229137667984],"sales":{"202602":53}},{"id":"MA010120220804910049","name":"다은포차","industry":"요리 주점","coordinates":[127.424083496444,36.3260923436057],"sales":{"202602":1391}},{"id":"MA010120220804910146","name":"에스앤피인테리어디자인","industry":"인테리어 디자인업","coordinates":[127.426791960814,36.3203692379235],"sales":{"202602":408}},{"id":"MA010120220804910449","name":"무지개인테리어","industry":"인테리어 디자인업","coordinates":[127.423850584269,36.320100338554],"sales":{"202602":822}},{"id":"MA010120220804922689","name":"명품집의류","industry":"기타 의류 소매업","coordinates":[127.425155212942,36.3183654433846],"sales":{"202602":7748}},{"id":"MA010120220804928839","name":"더블유비인터내셔널","industry":"카페","coordinates":[127.425686647112,36.3239418429661],"sales":{"202602":399}},{"id":"MA010120220804949153","name":"마스터키은행","industry":"기타 오락장","coordinates":[127.427631995674,36.3273683838782],"sales":{"202602":802}},{"id":"MA010120220804951413","name":"도톰도톰","industry":"파스타/스테이크","coordinates":[127.423453875006,36.3270498235882],"sales":{"202602":1146}},{"id":"MA010120220804965855","name":"카페209","industry":"카페","coordinates":[127.423356344647,36.321372750993],"sales":{"202602":1263}},{"id":"MA010120220804975892","name":"야슬럿","industry":"카페","coordinates":[127.423777646097,36.3230834958492],"sales":{"202602":4213}},{"id":"MA010120220804977728","name":"탑할인마트","industry":"슈퍼마켓","coordinates":[127.424483334142,36.3238379810094],"sales":{"202602":5981}},{"id":"MA010120220804996274","name":"디에스평생교육원","industry":"사회교육시설","coordinates":[127.429044468693,36.3249842148469],"sales":{"202602":19319}},{"id":"MA010120220805006470","name":"디앤씨컴퍼니","industry":"골프 연습장","coordinates":[127.424114218238,36.3276512708924],"sales":{"202602":394}},{"id":"MA010120220805007139","name":"드림컴퍼니","industry":"건강보조식품 소매업","coordinates":[127.424055066898,36.3270116451097],"sales":{"202602":854}},{"id":"MA010120220805042196","name":"설탕수박식당","industry":"백반/한정식","coordinates":[127.423407377632,36.3266895174799],"sales":{"202602":1927}},{"id":"MA010120220805066416","name":"데이즈","industry":"애완동물/애완용품 소매업","coordinates":[127.429571338919,36.3276407944726],"sales":{"202602":972}},{"id":"MA010120220805069053","name":"씨유","industry":"편의점","coordinates":[127.420219283409,36.3219966214921],"sales":{"202602":4968}},{"id":"MA010120220805106666","name":"가나2","industry":"기타 의류 소매업","coordinates":[127.424973422173,36.3279546192123],"sales":{"202602":10051}},{"id":"MA010120220805119925","name":"부케","industry":"유아용 의류 소매업","coordinates":[127.422872654052,36.3246006791943],"sales":{"202602":372}},{"id":"MA010120220805129651","name":"사무실카페","industry":"카페","coordinates":[127.428121618037,36.3252578769763],"sales":{"202602":1264}},{"id":"MA010120220805129903","name":"형제집","industry":"돼지고기 구이/찜","coordinates":[127.430546574941,36.32676314405],"sales":{"202602":2212}},{"id":"MA010120220805131319","name":"다롱관","industry":"미용실","coordinates":[127.424933239982,36.3246564538752],"sales":{"202602":290}},{"id":"MA010120220805132248","name":"호맥","industry":"요리 주점","coordinates":[127.423641054244,36.326652642399],"sales":{"202602":623}},{"id":"MA010120220805164369","name":"씨큐","industry":"기타 의류 소매업","coordinates":[127.424973422173,36.3279546192123],"sales":{"202602":5652}},{"id":"MA010120220805165489","name":"더쎈에어컨","industry":"가전제품 수리업","coordinates":[127.425534605807,36.3185082819287],"sales":{"202602":329}},{"id":"MA010120220805185712","name":"열공다방스터디카페","industry":"독서실/스터디 카페","coordinates":[127.420831969391,36.3241032219168],"sales":{"202602":497}},{"id":"MA010120220805197981","name":"틈새라면","industry":"김밥/만두/분식","coordinates":[127.424974205159,36.3280988047234],"sales":{"202602":1190}},{"id":"MA010120220805202382","name":"로또노래클럽","industry":"요리 주점","coordinates":[127.424523447724,36.3271271354808],"sales":{"202602":705}},{"id":"MA010120220805211894","name":"크리켓사운드","industry":"카페","coordinates":[127.425576312532,36.3241314831119],"sales":{"202602":491}},{"id":"MA010120220805260314","name":"사진무쌍","industry":"사진촬영업","coordinates":[127.422353763259,36.3254406087774],"sales":{"202602":447}},{"id":"MA010120220805262658","name":"페이퍼스튜디오","industry":"기타 의류 소매업","coordinates":[127.424973422173,36.3279546192123],"sales":{"202602":4955}},{"id":"MA010120220805269339","name":"정다운포차","industry":"요리 주점","coordinates":[127.428809142978,36.3267513662928],"sales":{"202602":673}},{"id":"MA010120220805301434","name":"낭만집","industry":"돼지고기 구이/찜","coordinates":[127.424594511823,36.3258562233663],"sales":{"202602":1535}},{"id":"MA010120220805329887","name":"호텔마이스테이","industry":"여관/모텔","coordinates":[127.42125592804,36.3242459169324],"sales":{"202602":427}},{"id":"MA010120220805338490","name":"오브","industry":"빵/도넛","coordinates":[127.428355041463,36.3251759347395],"sales":{"202602":1372}},{"id":"MA010120220805405750","name":"일등안전관리","industry":"건축물 일반 청소업","coordinates":[127.420270415758,36.3211493344256],"sales":{"202602":451}},{"id":"MA010120220805435800","name":"카페한가로와대전","industry":"카페","coordinates":[127.424126822211,36.3258668955827],"sales":{"202602":1516}},{"id":"MA010120220805454556","name":"보리","industry":"기타 의류 소매업","coordinates":[127.424973422173,36.3279546192123],"sales":{"202602":12317}},{"id":"MA010120220805466623","name":"나성이엔지","industry":"사업시설 유지·관리 서비스업","coordinates":[127.429712955436,36.3250358840947],"sales":{"202602":1584}},{"id":"MA010120220805495395","name":"리틀파티","industry":"그 외 기타 상품 전문 소매업","coordinates":[127.426466191928,36.3239390642053],"sales":{"202602":2333}},{"id":"MA010120220805504946","name":"마벨","industry":"기타 의류 소매업","coordinates":[127.425508989204,36.326087277453],"sales":{"202602":11687}},{"id":"MA010120220805508202","name":"돈까스맨","industry":"일식 카레/돈가스/덮밥","coordinates":[127.4293235592,36.3271370257304],"sales":{"202602":1809}},{"id":"MA010120220805516407","name":"유성갈비","industry":"돼지고기 구이/찜","coordinates":[127.425449419562,36.3274212314884],"sales":{"202602":1032}},{"id":"MA010120220805522112","name":"정가네곱창","industry":"곱창 전골/구이","coordinates":[127.424466786142,36.3269471013117],"sales":{"202602":2081}},{"id":"MA010120220805537766","name":"카페모먼트","industry":"카페","coordinates":[127.42597678088,36.3240489506407],"sales":{"202602":769}},{"id":"MA010120220805543576","name":"신추풍령시래기감자탕","industry":"국/탕/찌개류","coordinates":[127.428267618305,36.3234459876178],"sales":{"202602":1685}},{"id":"MA010120220805621226","name":"다온디자인","industry":"시각 디자인업","coordinates":[127.417438913609,36.3226912588418],"sales":{"202602":1898}},{"id":"MA010120220805637292","name":"로브","industry":"여성 의류 소매업","coordinates":[127.422872654052,36.3246006791943],"sales":{"202602":505}},{"id":"MA010120220805646023","name":"홈CC인테리어","industry":"인테리어 디자인업","coordinates":[127.421097400273,36.3237598396276],"sales":{"202602":548}},{"id":"MA010120220805690244","name":"따블게임랜드","industry":"전자 게임장","coordinates":[127.430013446862,36.3270264045255],"sales":{"202602":4404}},{"id":"MA010120220805725361","name":"신마포갈매기식당","industry":"돼지고기 구이/찜","coordinates":[127.423796480672,36.3265619737067],"sales":{"202602":1824}},{"id":"MA010120220805737936","name":"맵시나수선","industry":"의류/이불 수선업","coordinates":[127.424973422173,36.3279546192123],"sales":{"202602":112}},{"id":"MA010120220805737940","name":"자일산악","industry":"운동용품 소매업","coordinates":[127.426979913195,36.3262442438864],"sales":{"202602":1217}},{"id":"MA010120220805737966","name":"안미용실","industry":"미용실","coordinates":[127.430137387884,36.3272872998341],"sales":{"202602":563}},{"id":"MA010120220805738030","name":"끝","industry":"기타 의류 소매업","coordinates":[127.424973422173,36.3279546192123],"sales":{"202602":10661}},{"id":"MA010120220805738048","name":"명문오토바이","industry":"모터사이클 및 부품 소매업","coordinates":[127.430755372733,36.3242300843322],"sales":{"202602":1507}},{"id":"MA010120220805738154","name":"대전현대갤러리·현대명가커피","industry":"예술품 소매업","coordinates":[127.423422337913,36.3253376986835],"sales":{"202602":778}},{"id":"MA010120220805738203","name":"서진공조설비","industry":"가전제품 소매업","coordinates":[127.429745877961,36.3208903495267],"sales":{"202602":4641}},{"id":"MA010120220805738357","name":"서대전네거리공인중개사사무소","industry":"부동산 중개/대리업","coordinates":[127.417886572091,36.3189317816649],"sales":{"202602":437}},{"id":"MA010120220805738560","name":"대남열쇠","industry":"철물/공구 소매업","coordinates":[127.427209799066,36.3255134690165],"sales":{"202602":457}},{"id":"MA010120220805738726","name":"U24","industry":"슈퍼마켓","coordinates":[127.429860749191,36.3276127186862],"sales":{"202602":4989}},{"id":"MA010120220805739067","name":"더예하컴퍼니","industry":"가구 소매업","coordinates":[127.431090091559,36.3263646671987],"sales":{"202602":349}},{"id":"MA010120220805739117","name":"전진기획사","industry":"명함/간판/광고물 제작","coordinates":[127.429252454255,36.3243256087533],"sales":{"202602":762}},{"id":"MA010120220805739285","name":"브레이크","industry":"기타 의류 소매업","coordinates":[127.424973422173,36.3279546192123],"sales":{"202602":19355}},{"id":"MA010120220805739401","name":"씨.레이디","industry":"기타 의류 소매업","coordinates":[127.425366974119,36.3245467698572],"sales":{"202602":7198}},{"id":"MA010120220805739619","name":"동양사무용가구","industry":"가구 소매업","coordinates":[127.430438528227,36.3273673216491],"sales":{"202602":1097}},{"id":"MA010120220805740131","name":"동키치킨앤피자","industry":"치킨","coordinates":[127.420454978204,36.3244109489769],"sales":{"202602":739}},{"id":"MA010120220805740238","name":"우리안경원","industry":"안경렌즈 소매업","coordinates":[127.422585782335,36.3250973413217],"sales":{"202602":1853}},{"id":"MA010120220805740380","name":"금강철물","industry":"철물/공구 소매업","coordinates":[127.420830169324,36.3216970836386],"sales":{"202602":784}},{"id":"MA010120220805740456","name":"꿀잠","industry":"기타 의류 소매업","coordinates":[127.422872654052,36.3246006791943],"sales":{"202602":15140}},{"id":"MA010120220805740998","name":"부잣집곰탕","industry":"국/탕/찌개류","coordinates":[127.426689606775,36.3240644317191],"sales":{"202602":2183}},{"id":"MA010120220805741052","name":"대전갈비집","industry":"돼지고기 구이/찜","coordinates":[127.430801827281,36.3266000125011],"sales":{"202602":1847}},{"id":"MA010120220805741072","name":"정식당","industry":"백반/한정식","coordinates":[127.425724360292,36.3267804168866],"sales":{"202602":947}},{"id":"MA010120220805741088","name":"중국대반점","industry":"중국집","coordinates":[127.430159951007,36.32531364118],"sales":{"202602":3656}},{"id":"MA010120220805741103","name":"묘인당","industry":"문구/회화용품 소매업","coordinates":[127.42629341488,36.3269766476308],"sales":{"202602":1313}},{"id":"MA010120220805741111","name":"경남주방","industry":"가구 소매업","coordinates":[127.431412111799,36.3261922817486],"sales":{"202602":373}},{"id":"MA010120220805741130","name":"중앙사","industry":"명함/간판/광고물 제작","coordinates":[127.424446907412,36.3273887486298],"sales":{"202602":821}},{"id":"MA010120220805741133","name":"예원가요주점","industry":"일반 유흥 주점","coordinates":[127.429439734633,36.3259831019452],"sales":{"202602":320}},{"id":"MA010120220805741153","name":"명성씽크","industry":"가구 소매업","coordinates":[127.431631962558,36.3256688054189],"sales":{"202602":884}},{"id":"MA010120220805741177","name":"경성장","industry":"여관/모텔","coordinates":[127.430979419389,36.3264912310636],"sales":{"202602":1397}},{"id":"MA010120220805741181","name":"쌍리","industry":"카페","coordinates":[127.425163899574,36.3261155407632],"sales":{"202602":1566}},{"id":"MA010120220805741187","name":"고려종합중고","industry":"가구 소매업","coordinates":[127.431542621376,36.3256240691607],"sales":{"202602":589}},{"id":"MA010120220805741194","name":"노상에서","industry":"요리 주점","coordinates":[127.423407377632,36.3266895174799],"sales":{"202602":530}},{"id":"MA010120220805741204","name":"대성음향","industry":"가전제품 수리업","coordinates":[127.426098103538,36.3238322356334],"sales":{"202602":184}},{"id":"MA010120220805741561","name":"동제약국","industry":"약국","coordinates":[127.429993203319,36.3273959598364],"sales":{"202602":4710}},{"id":"MA010120220805741565","name":"한국미술상사","industry":"문구/회화용품 소매업","coordinates":[127.423432625312,36.3272391460455],"sales":{"202602":3847}},{"id":"MA010120220805741577","name":"서라벌안경원","industry":"안경렌즈 소매업","coordinates":[127.424728703217,36.3280095596764],"sales":{"202602":2542}},{"id":"MA010120220805741578","name":"한백종합가구","industry":"가구 소매업","coordinates":[127.431376714984,36.325831938734],"sales":{"202602":603}},{"id":"MA010120220805741581","name":"인디언광고사","industry":"명함/간판/광고물 제작","coordinates":[127.429356043469,36.3249380371962],"sales":{"202602":177}},{"id":"MA010120220805741587","name":"온화식당","industry":"카페","coordinates":[127.429876835462,36.326486189811],"sales":{"202602":1556}},{"id":"MA010120220805741589","name":"소나무집","industry":"국수/칼국수","coordinates":[127.430470947368,36.3271869695438],"sales":{"202602":7741}},{"id":"MA010120220805741590","name":"성호상사","industry":"가구 소매업","coordinates":[127.430726697214,36.3271139540488],"sales":{"202602":259}},{"id":"MA010120220805741679","name":"김용환세무사무소","industry":"세무사","coordinates":[127.42299249295,36.3261683036857],"sales":{"202602":1085}},{"id":"MA010120220805741778","name":"석종구건축사사무소루트","industry":"건축 설계 및 관련 서비스업","coordinates":[127.417886572091,36.3189317816649],"sales":{"202602":263}},{"id":"MA010120220805741845","name":"종로할머니손칼국수","industry":"국수/칼국수","coordinates":[127.422280428582,36.3242332901446],"sales":{"202602":3065}},{"id":"MA010120220805741877","name":"카우보이식당","industry":"요리 주점","coordinates":[127.424083496444,36.3260923436057],"sales":{"202602":495}},{"id":"MA010120220805741935","name":"케릭터월드크리닝","industry":"세탁소","coordinates":[127.420655765912,36.3182551967788],"sales":{"202602":181}},{"id":"MA010120220805742049","name":"인터폰","industry":"기타 의류 소매업","coordinates":[127.422872654052,36.3246006791943],"sales":{"202602":6009}},{"id":"MA010120220805742068","name":"대흥전업사","industry":"가전제품 수리업","coordinates":[127.420332150664,36.3202028803392],"sales":{"202602":636}},{"id":"MA010120220805742091","name":"고등이용원","industry":"미용실","coordinates":[127.418852963109,36.3184778101371],"sales":{"202602":84}},{"id":"MA010120220805742100","name":"스타미용실","industry":"미용실","coordinates":[127.421778335293,36.3219911304511],"sales":{"202602":313}},{"id":"MA010120220805742104","name":"동양청사진","industry":"복사업","coordinates":[127.423425068124,36.3258423482797],"sales":{"202602":240}},{"id":"MA010120220805742113","name":"본가칼국수","industry":"국수/칼국수","coordinates":[127.423312142115,36.3255543715445],"sales":{"202602":621}},{"id":"MA010120220805742115","name":"파자마와고쟁이","industry":"기타 의류 소매업","coordinates":[127.420987140184,36.3218947900435],"sales":{"202602":5650}},{"id":"MA010120220805742117","name":"한국백제필방","industry":"문구/회화용품 소매업","coordinates":[127.423171264472,36.3262758121628],"sales":{"202602":1427}},{"id":"MA010120220805742155","name":"동남식당","industry":"백반/한정식","coordinates":[127.420964975929,36.323985600478],"sales":{"202602":1172}},{"id":"MA010120220805742162","name":"테미오토바이쎈타","industry":"모터사이클 수리업","coordinates":[127.420179586632,36.3208252296335],"sales":{"202602":471}},{"id":"MA010120220805742163","name":"칠성유리","industry":"주방/가정용품 소매업","coordinates":[127.423255630692,36.3254013715292],"sales":{"202602":426}},{"id":"MA010120220805742165","name":"성산칼국수","industry":"국수/칼국수","coordinates":[127.427813099498,36.3238261097617],"sales":{"202602":1152}},{"id":"MA010120220805742174","name":"민정미용실","industry":"미용실","coordinates":[127.424327177143,36.3196841057682],"sales":{"202602":188}},{"id":"MA010120220805742178","name":"풍미식당","industry":"백반/한정식","coordinates":[127.417294047062,36.3226737411105],"sales":{"202602":5361}},{"id":"MA010120220805742181","name":"비돌식당","industry":"요리 주점","coordinates":[127.425280232948,36.3249796436251],"sales":{"202602":515}},{"id":"MA010120220805742185","name":"베스토아성모","industry":"꽃집","coordinates":[127.421191953621,36.3227051285807],"sales":{"202602":193}},{"id":"MA010120220805742392","name":"충남사","industry":"자동차 정비소","coordinates":[127.421805754994,36.3229462821529],"sales":{"202602":74}},{"id":"MA010120220805742426","name":"거산의료기","industry":"의료기기 소매업","coordinates":[127.420588131106,36.324320362772],"sales":{"202602":4866}},{"id":"MA010120220805742431","name":"종오당약국","industry":"약국","coordinates":[127.421103397431,36.3228045701466],"sales":{"202602":20933}},{"id":"MA010120220805742459","name":"서울사진관","industry":"사진촬영업","coordinates":[127.422299295996,36.3256660955526],"sales":{"202602":474}},{"id":"MA010120220805742511","name":"투어라인","industry":"여행사","coordinates":[127.422872654052,36.3246006791943],"sales":{"202602":1917}},{"id":"MA010120220805742532","name":"애머랜스스킨케어","industry":"피부 관리실","coordinates":[127.417950643651,36.3184178859195],"sales":{"202602":426}},{"id":"MA010120220805742688","name":"기아오토큐","industry":"자동차 정비소","coordinates":[127.419191397297,36.3234511269491],"sales":{"202602":3117}},{"id":"MA010120220805742719","name":"기산이용원","industry":"미용실","coordinates":[127.420144546057,36.3184462421598],"sales":{"202602":327}},{"id":"MA010120220805742721","name":"화성고압호스","industry":"철물/공구 소매업","coordinates":[127.429275567296,36.3244787258782],"sales":{"202602":495}},{"id":"MA010120220805742741","name":"성신광고.공사","industry":"명함/간판/광고물 제작","coordinates":[127.430014773563,36.3211867711434],"sales":{"202602":301}},{"id":"MA010120220805742790","name":"홍리성식당","industry":"중국집","coordinates":[127.430203151533,36.3230425190642],"sales":{"202602":1095}},{"id":"MA010120220805742792","name":"모아세탁소","industry":"세탁소","coordinates":[127.424249861781,36.3198015333518],"sales":{"202602":145}},{"id":"MA010120220805742809","name":"영석공업사","industry":"모터사이클 수리업","coordinates":[127.430987769581,36.3219402560774],"sales":{"202602":305}},{"id":"MA010120220805742820","name":"진칼국수","industry":"국수/칼국수","coordinates":[127.429459162266,36.3214050512758],"sales":{"202602":3445}},{"id":"MA010120220805742827","name":"홍두깨칼국수","industry":"국수/칼국수","coordinates":[127.428276226244,36.3189130326635],"sales":{"202602":1667}},{"id":"MA010120220805742831","name":"보광유리","industry":"주방/가정용품 소매업","coordinates":[127.42541279998,36.3186348804322],"sales":{"202602":387}},{"id":"MA010120220805742851","name":"해성미용상사","industry":"주방/가정용품 소매업","coordinates":[127.424973422173,36.3279546192123],"sales":{"202602":1245}},{"id":"MA010120220805742895","name":"프로샷스튜디오","industry":"사진촬영업","coordinates":[127.428579071152,36.3274460976481],"sales":{"202602":1296}},{"id":"MA010120220805743018","name":"재크세무회계사무소","industry":"세무사","coordinates":[127.428044845113,36.3254744344459],"sales":{"202602":2106}},{"id":"MA010120220805743336","name":"충남장어구이","industry":"해산물 구이/찜","coordinates":[127.425223424355,36.3247725749541],"sales":{"202602":3938}},{"id":"MA010120220805743341","name":"두영의류","industry":"기타 의류 소매업","coordinates":[127.419035392679,36.3234336503964],"sales":{"202602":9902}},{"id":"MA010120220805743449","name":"새생명약국","industry":"약국","coordinates":[127.420628850856,36.3236082891762],"sales":{"202602":9320}},{"id":"MA010120220805744412","name":"한국조명","industry":"전기용품/조명장치 소매업","coordinates":[127.430156830731,36.3247459108295],"sales":{"202602":316}},{"id":"MA010120220805744695","name":"성모카서비스","industry":"자동차 정비소","coordinates":[127.420270415758,36.3211493344256],"sales":{"202602":424}},{"id":"MA010120220805744770","name":"나무의꿈","industry":"가구 소매업","coordinates":[127.42778500985,36.3247994817813],"sales":{"202602":632}},{"id":"MA010120220805744830","name":"신일당","industry":"시계/귀금속 소매업","coordinates":[127.424973422173,36.3279546192123],"sales":{"202602":808}},{"id":"MA010120220805745124","name":"쪼코파이","industry":"기타 의류 소매업","coordinates":[127.424973422173,36.3279546192123],"sales":{"202602":6744}},{"id":"MA010120220805745256","name":"다전우렁쌈밥","industry":"백반/한정식","coordinates":[127.426301243421,36.3181901379658],"sales":{"202602":272}},{"id":"MA010120220805745265","name":"한국응급자동차병원","industry":"자동차 정비소","coordinates":[127.417679149178,36.3217982534431],"sales":{"202602":230}},{"id":"MA010120220805745274","name":"혜윤미용실","industry":"미용실","coordinates":[127.419075723101,36.3184860411738],"sales":{"202602":230}},{"id":"MA010120220805745284","name":"지호네신발","industry":"신발 소매업","coordinates":[127.42534285281,36.3180583752399],"sales":{"202602":1181}},{"id":"MA010120220805745291","name":"누가옷수선","industry":"의류/이불 수선업","coordinates":[127.426412795121,36.3182257872228],"sales":{"202602":57}},{"id":"MA010120220805745394","name":"아미","industry":"가방 소매업","coordinates":[127.424973422173,36.3279546192123],"sales":{"202602":379}},{"id":"MA010120220805745710","name":"극동상사","industry":"자동차 부품 소매업","coordinates":[127.425830390145,36.3237520837001],"sales":{"202602":487}},{"id":"MA010120220805745734","name":"현대가구","industry":"가구 소매업","coordinates":[127.430855824132,36.326293417735],"sales":{"202602":201}},{"id":"MA010120220805746320","name":"복지면옥식당","industry":"냉면/밀면","coordinates":[127.421858508157,36.3244690861312],"sales":{"202602":4406}},{"id":"MA010120220805746322","name":"우연갤러리","industry":"예술품 소매업","coordinates":[127.426979913195,36.3262442438864],"sales":{"202602":1029}},{"id":"MA010120220805746356","name":"이비가짬뽕","industry":"중국집","coordinates":[127.417828440846,36.3184723838391],"sales":{"202602":1413}},{"id":"MA010120220805746905","name":"미시플라워","industry":"꽃집","coordinates":[127.423053839424,36.3230950715668],"sales":{"202602":1747}},{"id":"MA010120220805746971","name":"경남중고","industry":"중고 상품 소매업","coordinates":[127.43147843498,36.3261019246589],"sales":{"202602":524}},{"id":"MA010120220805747360","name":"바다황제","industry":"횟집","coordinates":[127.42448045737,36.3253609809907],"sales":{"202602":1625}},{"id":"MA010120220805747802","name":"일신패션，에이스베이직학생복","industry":"기타 의류 소매업","coordinates":[127.42291621194,36.3223565928649],"sales":{"202602":5587}},{"id":"MA010120220805747944","name":"중고나라","industry":"중고 상품 소매업","coordinates":[127.426098103538,36.3238322356334],"sales":{"202602":362}},{"id":"MA010120220805747982","name":"초이스헤어","industry":"미용실","coordinates":[127.429279586487,36.3231810160997],"sales":{"202602":311}},{"id":"MA010120220805748084","name":"동원식당","industry":"백반/한정식","coordinates":[127.423032412275,36.3253120440171],"sales":{"202602":2128}},{"id":"MA010120220805748279","name":"백두대간","industry":"기타 의류 소매업","coordinates":[127.430173176001,36.3277197358725],"sales":{"202602":10814}},{"id":"MA010120220805748413","name":"단","industry":"기타 의류 소매업","coordinates":[127.424973422173,36.3279546192123],"sales":{"202602":6975}},{"id":"MA010120220805748666","name":"꾸미신닭발","industry":"닭/오리고기 구이/찜","coordinates":[127.429624846564,36.3272440843778],"sales":{"202602":1948}},{"id":"MA010120220805748900","name":"속옷나라","industry":"기타 의류 소매업","coordinates":[127.424973422173,36.3279546192123],"sales":{"202602":21307}},{"id":"MA010120220805749102","name":"준서야안녕","industry":"기타 의류 소매업","coordinates":[127.430233299889,36.3244752824593],"sales":{"202602":43652}},{"id":"MA010120220805749179","name":"한솔스킨케어","industry":"피부 관리실","coordinates":[127.423432625312,36.3272391460455],"sales":{"202602":203}},{"id":"MA010120220805749372","name":"할머니추어탕","industry":"국/탕/찌개류","coordinates":[127.427166257543,36.3236571994281],"sales":{"202602":1192}},{"id":"MA010120220805749412","name":"핸드피아","industry":"액세서리/잡화 소매업","coordinates":[127.422872654052,36.3246006791943],"sales":{"202602":418}},{"id":"MA010120220805749520","name":"홍문당","industry":"명함/간판/광고물 제작","coordinates":[127.422994782115,36.3265918488499],"sales":{"202602":204}},{"id":"MA010120220805750009","name":"성심이용원","industry":"미용실","coordinates":[127.42314983711,36.318192323354],"sales":{"202602":203}},{"id":"MA010120220805750094","name":"양자강","industry":"중국집","coordinates":[127.42223851193,36.3226563773737],"sales":{"202602":3912}},{"id":"MA010120220805750268","name":"충남주유소","industry":"주유소","coordinates":[127.421383160819,36.3230559139941],"sales":{"202602":12395}},{"id":"MA010120220805750496","name":"웃으면돼지","industry":"돼지고기 구이/찜","coordinates":[127.42934405304,36.3268125284521],"sales":{"202602":350}},{"id":"MA010120220805751365","name":"손으로만드는세상","industry":"액세서리/잡화 소매업","coordinates":[127.424973422173,36.3279546192123],"sales":{"202602":1655}},{"id":"MA010120220805751972","name":"예오장여관","industry":"여관/모텔","coordinates":[127.431040919074,36.3214804638646],"sales":{"202602":1376}},{"id":"MA010120220805752477","name":"5.5닭갈비","industry":"닭/오리고기 구이/찜","coordinates":[127.428153455077,36.3270060463509],"sales":{"202602":2074}},{"id":"MA010120220805752851","name":"자루","industry":"기타 의류 소매업","coordinates":[127.424973422173,36.3279546192123],"sales":{"202602":11196}},{"id":"MA010120220805753217","name":"복권명당","industry":"복권 발행/판매업","coordinates":[127.422516040766,36.322493184704],"sales":{"202602":341}},{"id":"MA010120220805753558","name":"보그","industry":"액세서리/잡화 소매업","coordinates":[127.422872654052,36.3246006791943],"sales":{"202602":488}},{"id":"MA010120220805753667","name":"반도통신","industry":"핸드폰 소매업","coordinates":[127.430365710979,36.3262771598889],"sales":{"202602":287}},{"id":"MA010120220805753803","name":"카페봄","industry":"카페","coordinates":[127.426809128008,36.3255599592558],"sales":{"202602":414}},{"id":"MA010120220805754196","name":"신황제부동산중개사무소","industry":"부동산 중개/대리업","coordinates":[127.424906239584,36.3258370920754],"sales":{"202602":343}},{"id":"MA010120220805754320","name":"난정이","industry":"기타 의류 소매업","coordinates":[127.424973422173,36.3279546192123],"sales":{"202602":4031}},{"id":"MA010120220805754381","name":"감디자인","industry":"명함/간판/광고물 제작","coordinates":[127.429356043469,36.3249380371962],"sales":{"202602":676}},{"id":"MA010120220805754455","name":"복권천국","industry":"복권 발행/판매업","coordinates":[127.425155212942,36.3183654433846],"sales":{"202602":627}},{"id":"MA010120220805754629","name":"세계사","industry":"기념품점","coordinates":[127.41766312804,36.3229698407539],"sales":{"202602":1304}},{"id":"MA010120220805755225","name":"비손스카이화물","industry":"명함/간판/광고물 제작","coordinates":[127.423160992055,36.3202559820126],"sales":{"202602":120}},{"id":"MA010120220805755525","name":"현대칼국수","industry":"국수/칼국수","coordinates":[127.429815764063,36.3194211783495],"sales":{"202602":2934}},{"id":"MA010120220805755940","name":"마실","industry":"기타 의류 소매업","coordinates":[127.422804655895,36.3223209403977],"sales":{"202602":4952}},{"id":"MA010120220805756007","name":"상상","industry":"기타 의류 소매업","coordinates":[127.424973422173,36.3279546192123],"sales":{"202602":5352}},{"id":"MA010120220805756079","name":"헬로사이판","industry":"요리 주점","coordinates":[127.424523447724,36.3271271354808],"sales":{"202602":2372}},{"id":"MA010120220805756084","name":"허브미","industry":"미용실","coordinates":[127.425476755367,36.3201576438357],"sales":{"202602":299}},{"id":"MA010120220805756510","name":"삼천리자전거대흥","industry":"자전거 소매업","coordinates":[127.430761721133,36.325383568171],"sales":{"202602":531}},{"id":"MA010120220805757939","name":"이마트24대전","industry":"편의점","coordinates":[127.424888026961,36.3265851338267],"sales":{"202602":3032}},{"id":"MA010120220805758331","name":"샤인광고기획","industry":"옥외/전시 광고 대행업","coordinates":[127.42936485645,36.3245144522623],"sales":{"202602":1092}},{"id":"MA010120220805759262","name":"세진미용실","industry":"미용실","coordinates":[127.42253223612,36.3234303522541],"sales":{"202602":238}},{"id":"MA010120220805759349","name":"사인닥터간판만들기","industry":"명함/간판/광고물 제작","coordinates":[127.428198834266,36.3251224238083],"sales":{"202602":292}},{"id":"MA010120220805759351","name":"아희헤어","industry":"미용실","coordinates":[127.417950643651,36.3184178859195],"sales":{"202602":275}},{"id":"MA010120220805759453","name":"미가사랑식당","industry":"돼지고기 구이/찜","coordinates":[127.422993255647,36.3242487932601],"sales":{"202602":2376}},{"id":"MA010120220805759708","name":"홍문상사","industry":"명함/간판/광고물 제작","coordinates":[127.422868187959,36.3258353079493],"sales":{"202602":437}},{"id":"MA010120220805759975","name":"성사진관테미스튜디오","industry":"사진촬영업","coordinates":[127.419851279935,36.3198260754475],"sales":{"202602":847}},{"id":"MA010120220805760514","name":"삼원기획","industry":"광고물 설계/제작업","coordinates":[127.428044845113,36.3254744344459],"sales":{"202602":1249}},{"id":"MA010120220805760577","name":"멀티프라자","industry":"컴퓨터/소프트웨어 소매업","coordinates":[127.424973422173,36.3279546192123],"sales":{"202602":239}},{"id":"MA010120220805761052","name":"무비스모텔","industry":"여관/모텔","coordinates":[127.430255632257,36.326511862179],"sales":{"202602":1205}},{"id":"MA010120220805761149","name":"베스트이동통신신지하","industry":"핸드폰 소매업","coordinates":[127.424973422173,36.3279546192123],"sales":{"202602":96}},{"id":"MA010120220805761186","name":"자연닮기약국","industry":"약국","coordinates":[127.424973422173,36.3279546192123],"sales":{"202602":3824}},{"id":"MA010120220805761485","name":"성옥당","industry":"시계/귀금속 소매업","coordinates":[127.424728703217,36.3280095596764],"sales":{"202602":2883}},{"id":"MA010120220805761860","name":"미수다","industry":"화장품 소매업","coordinates":[127.424112167106,36.3272727838478],"sales":{"202602":1048}},{"id":"MA010120220805762266","name":"한우미강정육식당","industry":"돼지고기 구이/찜","coordinates":[127.424547741783,36.3192868042228],"sales":{"202602":2106}},{"id":"MA010120220805762592","name":"남북특수조명","industry":"전기용품/조명장치 소매업","coordinates":[127.429738155661,36.321512189903],"sales":{"202602":1912}},{"id":"MA010120220805762821","name":"옥토빨래방","industry":"셀프 빨래방","coordinates":[127.422015205342,36.3225490246498],"sales":{"202602":161}},{"id":"MA010120220805763611","name":"청양한지","industry":"문구/회화용품 소매업","coordinates":[127.423835220126,36.325489435496],"sales":{"202602":2312}},{"id":"MA010120220805763658","name":"카페하루","industry":"카페","coordinates":[127.424973422173,36.3279546192123],"sales":{"202602":269}},{"id":"MA010120220805763896","name":"대흥세탁소","industry":"세탁소","coordinates":[127.422792216249,36.324141363232],"sales":{"202602":167}},{"id":"MA010120220805764291","name":"무지개","industry":"요리 주점","coordinates":[127.429559418418,36.3254690009783],"sales":{"202602":896}},{"id":"MA010120220805764380","name":"희자네옷방","industry":"기타 의류 소매업","coordinates":[127.422804099966,36.3180944171007],"sales":{"202602":37565}},{"id":"MA010120220805764483","name":"작은동물원","industry":"애완동물/애완용품 소매업","coordinates":[127.428085007687,36.3267089031359],"sales":{"202602":850}},{"id":"MA010120220805764867","name":"미가칼국수","industry":"국수/칼국수","coordinates":[127.430314662367,36.3230691529973],"sales":{"202602":965}},{"id":"MA010120220805765054","name":"원앙파크","industry":"여관/모텔","coordinates":[127.430840669521,36.3215172329081],"sales":{"202602":1683}},{"id":"MA010120220805766201","name":"지코바치킨","industry":"치킨","coordinates":[127.42479453638,36.319619363357],"sales":{"202602":1023}},{"id":"MA010120220805766462","name":"정식당2","industry":"백반/한정식","coordinates":[127.425690067713,36.3266183271604],"sales":{"202602":1150}},{"id":"MA010120220805766529","name":"옛날짜장천안문","industry":"중국집","coordinates":[127.420066170461,36.324592551516],"sales":{"202602":1940}},{"id":"MA010120220805766547","name":"나나네일","industry":"네일숍","coordinates":[127.424973422173,36.3279546192123],"sales":{"202602":181}},{"id":"MA010120220805766657","name":"엄마손감자탕","industry":"국/탕/찌개류","coordinates":[127.428935351547,36.3274267960781],"sales":{"202602":2601}},{"id":"MA010120220805767051","name":"美주컬렉션","industry":"기타 의류 소매업","coordinates":[127.424973422173,36.3279546192123],"sales":{"202602":13218}},{"id":"MA010120220805767098","name":"죽수니","industry":"기타 의류 소매업","coordinates":[127.422872654052,36.3246006791943],"sales":{"202602":14230}},{"id":"MA010120220805767134","name":"유진사","industry":"문구/회화용품 소매업","coordinates":[127.422792216249,36.324141363232],"sales":{"202602":3688}},{"id":"MA010120220805767166","name":"진양유통","industry":"가방 소매업","coordinates":[127.427906624234,36.3246368345683],"sales":{"202602":181}},{"id":"MA010120220805767294","name":"안아파","industry":"핸드폰 소매업","coordinates":[127.424973422173,36.3279546192123],"sales":{"202602":166}},{"id":"MA010120220805767443","name":"청담인테리어","industry":"인테리어 디자인업","coordinates":[127.419574023302,36.3179616096529],"sales":{"202602":971}},{"id":"MA010120220805767666","name":"꽃님이네방","industry":"중고 상품 소매업","coordinates":[127.424973422173,36.3279546192123],"sales":{"202602":180}},{"id":"MA010120220805767956","name":"드림디포","industry":"문구/회화용품 소매업","coordinates":[127.419753431429,36.3244224264411],"sales":{"202602":2689}},{"id":"MA010120220805768032","name":"하루퐁당","industry":"기타 오락장","coordinates":[127.429443344334,36.3266409481448],"sales":{"202602":3021}},{"id":"MA010120220805769003","name":"포토베스트원","industry":"사진촬영업","coordinates":[127.429969345301,36.3271076690925],"sales":{"202602":232}},{"id":"MA010120220805769092","name":"돈보따리식당","industry":"돼지고기 구이/찜","coordinates":[127.428872654827,36.3261473498712],"sales":{"202602":9426}},{"id":"MA010120220805769928","name":"서호산업","industry":"기타 개인/가정용품 대여업","coordinates":[127.418652426142,36.318460489071],"sales":{"202602":580}},{"id":"MA010120220805769958","name":"슈퍼스타","industry":"여성 의류 소매업","coordinates":[127.422872654052,36.3246006791943],"sales":{"202602":653}},{"id":"MA010120220805770544","name":"신김밥나라","industry":"김밥/만두/분식","coordinates":[127.431129723778,36.3254723590801],"sales":{"202602":3187}},{"id":"MA010120220805770623","name":"불루","industry":"중고 상품 소매업","coordinates":[127.424973422173,36.3279546192123],"sales":{"202602":327}},{"id":"MA010120220805770642","name":"미소샵","industry":"피부 관리실","coordinates":[127.424638471611,36.3257479259385],"sales":{"202602":339}},{"id":"MA010120220805771006","name":"홍명반도가전도매상사","industry":"가전제품 소매업","coordinates":[127.429994738246,36.3276753191039],"sales":{"202602":3367}},{"id":"MA010120220805771767","name":"대흥컨설팅부동산중개사무소","industry":"부동산 중개/대리업","coordinates":[127.423309046921,36.3229229442906],"sales":{"202602":364}},{"id":"MA010120220805772054","name":"카카오당구클럽","industry":"당구장","coordinates":[127.42471135526,36.3268651266053],"sales":{"202602":243}},{"id":"MA010120220805772132","name":"뉴그랜드모텔","industry":"여관/모텔","coordinates":[127.430802176294,36.3226168082355],"sales":{"202602":700}},{"id":"MA010120220805772563","name":"중앙중고주방","industry":"중고 상품 소매업","coordinates":[127.431722099196,36.3258577270472],"sales":{"202602":241}},{"id":"MA010120220805773400","name":"땅콩통신","industry":"유아용 의류 소매업","coordinates":[127.424973422173,36.3279546192123],"sales":{"202602":790}},{"id":"MA010120220805773430","name":"만우옥","industry":"백반/한정식","coordinates":[127.422645114728,36.325773014527],"sales":{"202602":1076}},{"id":"MA010120220805773637","name":"형제양품","industry":"기타 의류 소매업","coordinates":[127.424973422173,36.3279546192123],"sales":{"202602":6952}},{"id":"MA010120220805773753","name":"비너스걸솔브","industry":"기타 의류 소매업","coordinates":[127.424973422173,36.3279546192123],"sales":{"202602":4352}},{"id":"MA010120220805773856","name":"제일애견신","industry":"애완동물/애완용품 소매업","coordinates":[127.42756192525,36.3267738578001],"sales":{"202602":1240}},{"id":"MA010120220805773868","name":"국보산삼오리","industry":"돼지고기 구이/찜","coordinates":[127.430758917188,36.3268975555056],"sales":{"202602":503}},{"id":"MA010120220805773970","name":"일품참치","industry":"일식 회/초밥","coordinates":[127.424243513089,36.3268487645256],"sales":{"202602":717}},{"id":"MA010120220805773976","name":"아지헤어샵","industry":"미용실","coordinates":[127.425589744824,36.3184089560206],"sales":{"202602":174}},{"id":"MA010120220805774630","name":"피자2001","industry":"피자","coordinates":[127.42264077674,36.322907285482],"sales":{"202602":494}},{"id":"MA010120220805775354","name":"엘지구내매점","industry":"슈퍼마켓","coordinates":[127.42219342319,36.326684799818],"sales":{"202602":9259}},{"id":"MA010120220805775480","name":"대박","industry":"기타 의류 소매업","coordinates":[127.424973422173,36.3279546192123],"sales":{"202602":15062}},{"id":"MA010120220805775648","name":"바바라","industry":"액세서리/잡화 소매업","coordinates":[127.424973422173,36.3279546192123],"sales":{"202602":478}},{"id":"MA010120220805776122","name":"중구청직원상조회","industry":"구내식당","coordinates":[127.421285331223,36.3255705441422],"sales":{"202602":1553}},{"id":"MA010120220805776321","name":"레드아이대전지하","industry":"화장품 소매업","coordinates":[127.424973422173,36.3279546192123],"sales":{"202602":1922}},{"id":"MA010120220805776720","name":"쪽방집별관","industry":"치킨","coordinates":[127.42461756735,36.3260003298121],"sales":{"202602":1386}},{"id":"MA010120220805777107","name":"장미파크","industry":"여관/모텔","coordinates":[127.430830475905,36.3216884933934],"sales":{"202602":548}},{"id":"MA010120220805777711","name":"드림오브카","industry":"자동차 부품 소매업","coordinates":[127.423316675309,36.3181556855136],"sales":{"202602":938}},{"id":"MA010120220805777931","name":"메이빈","industry":"신발 소매업","coordinates":[127.422872654052,36.3246006791943],"sales":{"202602":649}},{"id":"MA010120220805777936","name":"디자인하다","industry":"제품 디자인업","coordinates":[127.428264716489,36.3249509641103],"sales":{}},{"id":"MA010120220805777976","name":"계동치킨","industry":"치킨","coordinates":[127.42018453097,36.3196717041834],"sales":{"202602":662}},{"id":"MA010120220805778029","name":"길통신","industry":"핸드폰 소매업","coordinates":[127.422872654052,36.3246006791943],"sales":{"202602":291}},{"id":"MA010120220805778068","name":"폰하우스통신","industry":"핸드폰 소매업","coordinates":[127.424973422173,36.3279546192123],"sales":{"202602":408}},{"id":"MA010120220805778724","name":"괴산올갱이","industry":"백반/한정식","coordinates":[127.420824030848,36.324698027038],"sales":{"202602":715}},{"id":"MA010120220805778746","name":"이미지뱅크","industry":"사진촬영업","coordinates":[127.427742723769,36.3272508346794],"sales":{"202602":410}},{"id":"MA010120220805778860","name":"일품루","industry":"중국집","coordinates":[127.430112885528,36.3268818584466],"sales":{"202602":4758}},{"id":"MA010120220805778995","name":"꽃피는봄","industry":"여성 의류 소매업","coordinates":[127.422353763259,36.3254406087774],"sales":{"202602":105}},{"id":"MA010120220805779073","name":"스케치904칵테일카페대전중구대흥동점","industry":"경양식","coordinates":[127.423207159791,36.3267352854128],"sales":{"202602":30815}},{"id":"MA010120220805779177","name":"더블유커피공방","industry":"카페","coordinates":[127.43027211978,36.3274850737841],"sales":{"202602":984}},{"id":"MA010120220805779215","name":"킹","industry":"남성 의류 소매업","coordinates":[127.430226175833,36.3252052615821],"sales":{"202602":239}},{"id":"MA010120220805779272","name":"마당발","industry":"신발 소매업","coordinates":[127.424973422173,36.3279546192123],"sales":{"202602":1945}},{"id":"MA010120220805779284","name":"뉴프리마","industry":"가발 소매업","coordinates":[127.422872654052,36.3246006791943],"sales":{"202602":1219}},{"id":"MA010120220805779354","name":"은행전기조명상사","industry":"전기용품/조명장치 소매업","coordinates":[127.428140149128,36.3266095761706],"sales":{"202602":520}},{"id":"MA010120220805779757","name":"황금장여관","industry":"여관/모텔","coordinates":[127.428204257699,36.32611369918],"sales":{"202602":5218}},{"id":"MA010120220805780094","name":"성모예복대여점","industry":"의류 대여업","coordinates":[127.420743018518,36.3220578615975],"sales":{"202602":701}},{"id":"MA010120220805780802","name":"스마일포차","industry":"백반/한정식","coordinates":[127.429993203319,36.3273959598364],"sales":{"202602":456}},{"id":"MA010120220805780858","name":"김밥천국","industry":"김밥/만두/분식","coordinates":[127.420588131106,36.324320362772],"sales":{"202602":1973}},{"id":"MA010120220805781171","name":"장미원뷰티샵","industry":"네일숍","coordinates":[127.424973422173,36.3279546192123],"sales":{"202602":106}},{"id":"MA010120220805781213","name":"잉크바다","industry":"문구/회화용품 소매업","coordinates":[127.422405311431,36.3226107291616],"sales":{"202602":1628}},{"id":"MA010120220805781370","name":"형네낙지","industry":"해산물 구이/찜","coordinates":[127.423631673573,36.3269770993929],"sales":{"202602":1146}},{"id":"MA010120220805781442","name":"두꺼비횟집","industry":"횟집","coordinates":[127.430138272236,36.3254218604431],"sales":{"202602":2445}},{"id":"MA010120220805781515","name":"키드바이올렛","industry":"유아용 의류 소매업","coordinates":[127.422872654052,36.3246006791943],"sales":{"202602":259}},{"id":"MA010120220805781521","name":"카페베네","industry":"카페","coordinates":[127.428533783572,36.3273110835035],"sales":{"202602":1100}},{"id":"MA010120220805782060","name":"한아름마트","industry":"슈퍼마켓","coordinates":[127.42021842198,36.3197617028729],"sales":{"202602":6607}},{"id":"MA010120220805782365","name":"예스중앙","industry":"기타 의류 소매업","coordinates":[127.422872654052,36.3246006791943],"sales":{"202602":4172}},{"id":"MA010120220805782569","name":"마리오","industry":"신발 소매업","coordinates":[127.424973422173,36.3279546192123],"sales":{"202602":1395}},{"id":"MA010120220805782608","name":"회천국식당","industry":"횟집","coordinates":[127.429860749191,36.3276127186862],"sales":{"202602":404}},{"id":"MA010120220805783125","name":"충무인쇄","industry":"명함/간판/광고물 제작","coordinates":[127.422918139793,36.3268354378763],"sales":{"202602":352}},{"id":"MA010120220805783246","name":"보뇌르","industry":"광고물 설계/제작업","coordinates":[127.429881487936,36.3232779824504],"sales":{"202602":943}},{"id":"MA010120220805783278","name":"나래온누리약국","industry":"약국","coordinates":[127.427637518978,36.3263410224217],"sales":{"202602":4525}},{"id":"MA010120220805783361","name":"오주공주칼국수","industry":"국수/칼국수","coordinates":[127.424526625173,36.3277128892131],"sales":{"202602":5560}},{"id":"MA010120220805783366","name":"오늘","industry":"요리 주점","coordinates":[127.429459162266,36.3214050512758],"sales":{"202602":791}},{"id":"MA010120220805783494","name":"예술합시다호프","industry":"요리 주점","coordinates":[127.424466786142,36.3269471013117],"sales":{"202602":1192}},{"id":"MA010120220805783608","name":"신바람식당","industry":"백반/한정식","coordinates":[127.428872654827,36.3261473498712],"sales":{"202602":1329}},{"id":"MA010120220805783852","name":"대전당약국","industry":"약국","coordinates":[127.422280428582,36.3242332901446],"sales":{"202602":14304}},{"id":"MA010120220805783867","name":"YG이동통신","industry":"핸드폰 소매업","coordinates":[127.424973422173,36.3279546192123],"sales":{"202602":323}},{"id":"MA010120220805784043","name":"갤러리미당","industry":"예술품 소매업","coordinates":[127.426568088953,36.3242451009168],"sales":{"202602":416}},{"id":"MA010120220805784245","name":"해마식당","industry":"요리 주점","coordinates":[127.425049694306,36.3255932641847],"sales":{"202602":795}},{"id":"MA010120220805784435","name":"난리U","industry":"기타 의류 소매업","coordinates":[127.422872654052,36.3246006791943],"sales":{"202602":7050}},{"id":"MA010120220805784992","name":"소망자동차","industry":"자동차 정비소","coordinates":[127.42196735723,36.3219363926548],"sales":{"202602":846}},{"id":"MA010120220805785034","name":"일신모텔","industry":"여관/모텔","coordinates":[127.431091233236,36.3265719337592],"sales":{"202602":5412}},{"id":"MA010120220805785155","name":"업소명없음","industry":"그 외 기타 상품 전문 소매업","coordinates":[127.424973422173,36.3279546192123],"sales":{"202602":2854}},{"id":"MA010120220805785326","name":"현주에어컨","industry":"가전제품 수리업","coordinates":[127.423440043564,36.3183174606743],"sales":{"202602":263}},{"id":"MA010120220805785344","name":"파트너공인중개사사무소","industry":"부동산 중개/대리업","coordinates":[127.428145414974,36.3235004960435],"sales":{"202602":355}},{"id":"MA010120220805785406","name":"청운집","industry":"요리 주점","coordinates":[127.430082446613,36.3274226740532],"sales":{"202602":3637}},{"id":"MA010120220805785552","name":"소희헤어샵","industry":"미용실","coordinates":[127.424706770503,36.3198629933052],"sales":{"202602":172}},{"id":"MA010120220805785567","name":"현대식당","industry":"백반/한정식","coordinates":[127.425578357325,36.3265556425681],"sales":{"202602":1078}},{"id":"MA010120220805785641","name":"대전부르스","industry":"백반/한정식","coordinates":[127.423587711714,36.3270853964419],"sales":{"202602":640}},{"id":"MA010120220805785709","name":"늘동물병원","industry":"동물병원","coordinates":[127.428633274696,36.3271755502333],"sales":{"202602":2674}},{"id":"MA010120220805785995","name":"보보스식당","industry":"요리 주점","coordinates":[127.423969103145,36.3255340195477],"sales":{"202602":707}},{"id":"MA010120220805786059","name":"욜로","industry":"요리 주점","coordinates":[127.428931943573,36.326804996288],"sales":{"202602":409}},{"id":"MA010120220805786082","name":"아트샵","industry":"슈퍼마켓","coordinates":[127.424973422173,36.3279546192123],"sales":{"202602":2260}},{"id":"MA010120220805786437","name":"은혜용역예술","industry":"건축물 일반 청소업","coordinates":[127.423091358974,36.3259156241519],"sales":{"202602":225}},{"id":"MA010120220805786681","name":"벽오동심은뜻은","industry":"백반/한정식","coordinates":[127.430278797492,36.3266739906267],"sales":{"202602":1064}},{"id":"MA010120220805786692","name":"조은사람들1","industry":"요리 주점","coordinates":[127.427930325118,36.3269347512623],"sales":{"202602":1048}},{"id":"MA010120220805786694","name":"조은사람들2","industry":"김밥/만두/분식","coordinates":[127.427930325118,36.3269347512623],"sales":{"202602":4891}},{"id":"MA010120220805786816","name":"스탑","industry":"기타 의류 소매업","coordinates":[127.424973422173,36.3279546192123],"sales":{"202602":20116}},{"id":"MA010120220805786986","name":"한일의료기","industry":"의료기기 소매업","coordinates":[127.419852701104,36.3180147018903],"sales":{"202602":5259}},{"id":"MA010120220805787136","name":"프라임베이커리교보점","industry":"빵/도넛","coordinates":[127.419665499629,36.3246390178129],"sales":{"202602":727}},{"id":"MA010120220805789211","name":"나눔기획","industry":"광고 대행업","coordinates":[127.424973422173,36.3279546192123],"sales":{"202602":303}},{"id":"MA010120220805789268","name":"에이스인테리어타일","industry":"인테리어 디자인업","coordinates":[127.428772700222,36.3241651187641],"sales":{"202602":454}},{"id":"MA010120220805789346","name":"컬트","industry":"기타 의류 소매업","coordinates":[127.424973422173,36.3279546192123],"sales":{"202602":7026}},{"id":"MA010120220805789349","name":"금성보석","industry":"시계/귀금속 소매업","coordinates":[127.424973422173,36.3279546192123],"sales":{"202602":2866}},{"id":"MA010120220805789554","name":"아림노래연습장","industry":"노래방","coordinates":[127.429969345301,36.3271076690925],"sales":{"202602":956}},{"id":"MA010120220805789663","name":"세무사최원순세무회계사무소","industry":"세무사","coordinates":[127.422185650209,36.3231792471637],"sales":{"202602":715}},{"id":"MA010120220805789764","name":"우리밥상산에들에","industry":"백반/한정식","coordinates":[127.43014812846,36.3272151670393],"sales":{"202602":1997}},{"id":"MA010120220805790989","name":"에스와이제이인테리어","industry":"인테리어 디자인업","coordinates":[127.419596970526,36.3180876941015],"sales":{"202602":1185}},{"id":"MA010120220805791113","name":"카페류","industry":"카페","coordinates":[127.421008648892,36.3238232346929],"sales":{"202602":740}},{"id":"MA010120220805791704","name":"램프의진희","industry":"기념품점","coordinates":[127.424224023436,36.325307820752],"sales":{"202602":385}},{"id":"MA010120220805791786","name":"투투","industry":"기타 의류 소매업","coordinates":[127.424973422173,36.3279546192123],"sales":{"202602":15407}},{"id":"MA010120220805791978","name":"우리사무용가구","industry":"가구 소매업","coordinates":[127.419118046173,36.3180713506735],"sales":{"202602":552}},{"id":"MA010120220805792441","name":"프로포즈엔젤","industry":"실/섬유제품 소매업","coordinates":[127.424973422173,36.3279546192123],"sales":{"202602":162}},{"id":"MA010120220805792761","name":"도시여행자","industry":"시각 디자인업","coordinates":[127.427696797515,36.3269986694979],"sales":{"202602":1099}},{"id":"MA010120220805792811","name":"진황태","industry":"백반/한정식","coordinates":[127.423407377632,36.3266895174799],"sales":{"202602":608}},{"id":"MA010120220805792981","name":"감나무집","industry":"백반/한정식","coordinates":[127.420977361153,36.3221471542923],"sales":{"202602":732}},{"id":"MA010120220805793004","name":"아이스허니비","industry":"카페","coordinates":[127.421545183351,36.3241908265148],"sales":{"202602":2068}},{"id":"MA010120220805793115","name":"은지네수선","industry":"의류/이불 수선업","coordinates":[127.424973422173,36.3279546192123],"sales":{"202602":73}},{"id":"MA010120220805793133","name":"지에스25대흥","industry":"편의점","coordinates":[127.426127685755,36.3231292117368],"sales":{"202602":2549}},{"id":"MA010120220805793284","name":"유로숍","industry":"경영 컨설팅업","coordinates":[127.430755372733,36.3242300843322],"sales":{"202602":1426}},{"id":"MA010120220805793331","name":"미소언니","industry":"기타 의류 소매업","coordinates":[127.424973422173,36.3279546192123],"sales":{"202602":22477}},{"id":"MA010120220805793541","name":"봉구스밥버거","industry":"김밥/만두/분식","coordinates":[127.426098103538,36.3238322356334],"sales":{"202602":552}},{"id":"MA010120220805793567","name":"악세창고","industry":"그 외 기타 상품 전문 소매업","coordinates":[127.424973422173,36.3279546192123],"sales":{"202602":770}},{"id":"MA010120220805793621","name":"꿀벌동물병원","industry":"동물병원","coordinates":[127.421976830662,36.3236936557885],"sales":{"202602":1597}},{"id":"MA010120220805793653","name":"라쉐프","industry":"경양식","coordinates":[127.425733839455,36.3244283106819],"sales":{"202602":10472}},{"id":"MA010120220805793705","name":"스마트범퍼","industry":"자동차 부품 소매업","coordinates":[127.419220630523,36.3185125684214],"sales":{"202602":484}},{"id":"MA010120220805794089","name":"오즈헤어","industry":"미용실","coordinates":[127.426425312435,36.3205237467066],"sales":{"202602":131}},{"id":"MA010120220805794119","name":"플롯","industry":"시각 디자인업","coordinates":[127.425391842879,36.3250243053321],"sales":{"202602":594}},{"id":"MA010120220805794211","name":"클레타헤어","industry":"미용실","coordinates":[127.425892647926,36.3229137667984],"sales":{"202602":201}},{"id":"MA010120220805794264","name":"바이트레인","industry":"광고 대행업","coordinates":[127.425833086694,36.3242477216737],"sales":{"202602":710}},{"id":"MA010120220805794265","name":"예작스튜디오","industry":"사진촬영업","coordinates":[127.428200116145,36.3253567252747],"sales":{"202602":759}},{"id":"MA010120220805794476","name":"뮤즈헤어","industry":"미용실","coordinates":[127.425892647926,36.3229137667984],"sales":{"202602":562}},{"id":"MA010120220805794641","name":"조마루감자탕","industry":"국/탕/찌개류","coordinates":[127.429726664837,36.3255044468945],"sales":{"202602":920}},{"id":"MA010120220805794706","name":"리치","industry":"일반 유흥 주점","coordinates":[127.430269642522,36.327034494316],"sales":{"202602":268}},{"id":"MA010120220805794764","name":"마이웨이24시마트","industry":"슈퍼마켓","coordinates":[127.420630931185,36.3219230793959],"sales":{"202602":3408}},{"id":"MA010120220805795066","name":"땅부자공인중개사사무소","industry":"부동산 중개/대리업","coordinates":[127.422405311431,36.3226107291616],"sales":{"202602":462}},{"id":"MA010120220805795381","name":"아름다운여행스킨케어","industry":"피부 관리실","coordinates":[127.422126414442,36.3245852933734],"sales":{"202602":226}},{"id":"MA010120220805795552","name":"라베","industry":"기타 의류 소매업","coordinates":[127.424973422173,36.3279546192123],"sales":{"202602":8686}},{"id":"MA010120220805795608","name":"그녀의커피잔","industry":"카페","coordinates":[127.427631995674,36.3273683838782],"sales":{"202602":1810}},{"id":"MA010120220805796246","name":"푸른서점문구","industry":"서점","coordinates":[127.425744652121,36.320273843114],"sales":{"202602":15418}},{"id":"MA010120220805796381","name":"테미한방족발","industry":"족발/보쌈","coordinates":[127.419852701104,36.3180147018903],"sales":{"202602":951}},{"id":"MA010120220805796423","name":"세운장하우스","industry":"여관/모텔","coordinates":[127.427463528617,36.3250709850713],"sales":{"202602":931}},{"id":"MA010120220805796448","name":"서울치킨","industry":"치킨","coordinates":[127.423091358974,36.3259156241519],"sales":{"202602":2312}},{"id":"MA010120220805796545","name":"오즈앤틱","industry":"예술품 소매업","coordinates":[127.421217457691,36.3212361187573],"sales":{"202602":577}},{"id":"MA010120220805796573","name":"산토리니","industry":"여관/모텔","coordinates":[127.430768795164,36.320598290708],"sales":{"202602":638}},{"id":"MA010120220805796599","name":"청소아저씨김반장","industry":"건축물 일반 청소업","coordinates":[127.430348937997,36.3272775265739],"sales":{"202602":694}},{"id":"MA010120220805796661","name":"가로수길식당","industry":"요리 주점","coordinates":[127.424454574113,36.3267488857304],"sales":{"202602":2805}},{"id":"MA010120220805796701","name":"북경양꼬치","industry":"중국집","coordinates":[127.424526625173,36.3277128892131],"sales":{"202602":1736}},{"id":"MA010120220805796864","name":"수찬커뮤니케이션","industry":"광고 대행업","coordinates":[127.422730654493,36.3251148525951],"sales":{"202602":707}},{"id":"MA010120220805796946","name":"업소명없음","industry":"기타 의류 소매업","coordinates":[127.422872654052,36.3246006791943],"sales":{"202602":22864}},{"id":"MA010120220805797023","name":"폰스타일","industry":"핸드폰 소매업","coordinates":[127.424973422173,36.3279546192123],"sales":{"202602":428}},{"id":"MA010120220805797069","name":"동양여관","industry":"여관/모텔","coordinates":[127.424531545405,36.3245136928672],"sales":{"202602":557}},{"id":"MA010120220805797137","name":"나사락볼링장","industry":"볼링장","coordinates":[127.424441286955,36.3263524149971],"sales":{"202602":2502}},{"id":"MA010120220805797150","name":"퍼스트공인중개사사무소","industry":"부동산 중개/대리업","coordinates":[127.421033054509,36.3242196668658],"sales":{"202602":888}},{"id":"MA010120220805797159","name":"예스이동통신","industry":"핸드폰 소매업","coordinates":[127.424973422173,36.3279546192123],"sales":{"202602":363}},{"id":"MA010120220805797161","name":"붕붕오토바이","industry":"모터사이클 및 부품 소매업","coordinates":[127.431874829334,36.3252804220433],"sales":{"202602":477}},{"id":"MA010120220805797273","name":"희피부관리","industry":"피부 관리실","coordinates":[127.430223203694,36.3246645660063],"sales":{"202602":623}},{"id":"MA010120220805797453","name":"수제명가","industry":"가방 소매업","coordinates":[127.424973422173,36.3279546192123],"sales":{"202602":339}},{"id":"MA010120220805797508","name":"성모의료기.조은소리보청기","industry":"의료기기 소매업","coordinates":[127.420743018518,36.3220578615975],"sales":{"202602":4701}},{"id":"MA010120220805797718","name":"나사락","industry":"김밥/만두/분식","coordinates":[127.424441286955,36.3263524149971],"sales":{"202602":4165}},{"id":"MA010120220805798076","name":"홍텔레콤마트","industry":"핸드폰 소매업","coordinates":[127.424973422173,36.3279546192123],"sales":{"202602":411}},{"id":"MA010120220805798430","name":"훌랄라천하제일왕족발","industry":"치킨","coordinates":[127.42907548626,36.3265791868603],"sales":{"202602":1169}},{"id":"MA010120220805798505","name":"고봉민김밥인","industry":"김밥/만두/분식","coordinates":[127.425892647926,36.3229137667984],"sales":{"202602":2617}},{"id":"MA010120220805798526","name":"윈터커피로스터스","industry":"카페","coordinates":[127.424042225622,36.3246415946135],"sales":{"202602":928}},{"id":"MA010120220805798536","name":"커피마마","industry":"카페","coordinates":[127.427377241385,36.3255849646079],"sales":{"202602":751}},{"id":"MA010120220805798621","name":"썸모텔","industry":"여관/모텔","coordinates":[127.431260610468,36.3209299530841],"sales":{"202602":397}},{"id":"MA010120220805798631","name":"오니기리와이규동성모","industry":"일식 카레/돈가스/덮밥","coordinates":[127.420219283409,36.3219966214921],"sales":{"202602":582}},{"id":"MA010120220805798709","name":"손수","industry":"예술품 소매업","coordinates":[127.425311879542,36.3246551071902],"sales":{"202602":466}},{"id":"MA010120220805799020","name":"조은터공인중개사사무소","industry":"부동산 중개/대리업","coordinates":[127.4248497573,36.323638420135],"sales":{"202602":480}},{"id":"MA010120220805806500","name":"명동수선","industry":"의류/이불 수선업","coordinates":[127.424973422173,36.3279546192123],"sales":{"202602":91}},{"id":"MA010120220805806501","name":"시쥬","industry":"카페","coordinates":[127.424973422173,36.3279546192123],"sales":{"202602":2845}},{"id":"MA010120220805806506","name":"나무이야기","industry":"기념품점","coordinates":[127.424973422173,36.3279546192123],"sales":{"202602":2350}},{"id":"MA010120220805806510","name":"준통신","industry":"핸드폰 소매업","coordinates":[127.424973422173,36.3279546192123],"sales":{"202602":243}},{"id":"MA010120220805806533","name":"네이처리퍼블릭대전","industry":"화장품 소매업","coordinates":[127.424973422173,36.3279546192123],"sales":{"202602":161}},{"id":"MA010120220805806539","name":"바로그집","industry":"김밥/만두/분식","coordinates":[127.422872654052,36.3246006791943],"sales":{"202602":5868}},{"id":"MA010120220805806547","name":"탄생","industry":"기타 의류 소매업","coordinates":[127.424973422173,36.3279546192123],"sales":{"202602":5149}},{"id":"MA010120220805806565","name":"우노꼬레","industry":"기타 의류 소매업","coordinates":[127.424973422173,36.3279546192123],"sales":{"202602":10355}},{"id":"MA010120220805806572","name":"넥타이와이셔츠","industry":"기타 의류 소매업","coordinates":[127.424973422173,36.3279546192123],"sales":{"202602":11185}},{"id":"MA010120220805806584","name":"사랑이가득한집","industry":"기타 의류 소매업","coordinates":[127.424973422173,36.3279546192123],"sales":{"202602":8765}},{"id":"MA010120220805806595","name":"클럽","industry":"기타 의류 소매업","coordinates":[127.424973422173,36.3279546192123],"sales":{"202602":14593}},{"id":"MA010120220805806606","name":"캘리포니아","industry":"기타 의류 소매업","coordinates":[127.424973422173,36.3279546192123],"sales":{"202602":3391}},{"id":"MA010120220805806610","name":"왕비","industry":"액세서리/잡화 소매업","coordinates":[127.424973422173,36.3279546192123],"sales":{"202602":1209}},{"id":"MA010120220805806670","name":"쌍방울","industry":"기타 의류 소매업","coordinates":[127.424973422173,36.3279546192123],"sales":{"202602":16081}},{"id":"MA010120220805806696","name":"지오화장품","industry":"기타 의류 소매업","coordinates":[127.424973422173,36.3279546192123],"sales":{"202602":8921}},{"id":"MA010120220805807517","name":"티스테이션중","industry":"자동차 정비소","coordinates":[127.418703280367,36.3238042970771],"sales":{"202602":461}},{"id":"MA010120220805807535","name":"나도몰라","industry":"요리 주점","coordinates":[127.430168894158,36.3208617926286],"sales":{"202602":610}},{"id":"MA010120220805807762","name":"롬보드패션","industry":"기타 의류 소매업","coordinates":[127.420089846053,36.3248538097877],"sales":{"202602":7950}},{"id":"MA010120220805807767","name":"한일슈퍼","industry":"슈퍼마켓","coordinates":[127.419976190838,36.320276225759],"sales":{"202602":6539}},{"id":"MA010120220805809872","name":"현대전화공사","industry":"핸드폰 소매업","coordinates":[127.422696993121,36.3230062162437],"sales":{"202602":1403}},{"id":"MA010120220805810275","name":"대흥기업","industry":"화장터/묘지/납골당","coordinates":[127.419480225846,36.3191605061907],"sales":{}},{"id":"MA010120220805811201","name":"이롬어드벤처","industry":"명함/간판/광고물 제작","coordinates":[127.428319807169,36.3248426254474],"sales":{"202602":541}},{"id":"MA010120220805811889","name":"토토투어주","industry":"여행사","coordinates":[127.418823658456,36.323407357146],"sales":{"202602":2880}},{"id":"MA010120220805811995","name":"트랜스월드투어주","industry":"여행사","coordinates":[127.417828440846,36.3184723838391],"sales":{"202602":1326}},{"id":"MA010120220805812684","name":"글로벌에이디","industry":"옥외/전시 광고 대행업","coordinates":[127.429980623182,36.3210517173367],"sales":{"202602":524}},{"id":"MA010120220805812764","name":"씨앤비이모션주","industry":"광고 대행업","coordinates":[127.428765435283,36.3269047231603],"sales":{"202602":445}},{"id":"MA010120220805812774","name":"제이엠아이엔씨","industry":"카페","coordinates":[127.426030498066,36.3277796324857],"sales":{"202602":962}},{"id":"MA010120220805813594","name":"그린룩스","industry":"전기용품/조명장치 소매업","coordinates":[127.427956491686,36.3256099273844],"sales":{"202602":717}},{"id":"MA010120220805813833","name":"가톨릭학원가톨릭대학교대전성모병원학","industry":"종합병원","coordinates":[127.420219283409,36.3219966214921],"sales":{"202602":327374}},{"id":"MA010120220805813995","name":"천주교성바오로딸수도회","industry":"서점","coordinates":[127.42629341488,36.3269766476308],"sales":{"202602":11114}},{"id":"MA010120220805814033","name":"대전교구천주교회유지재단재","industry":"장례식장","coordinates":[127.420219283409,36.3219966214921],"sales":{"202602":27585}},{"id":"MA010120220805814067","name":"학교법인혜화학원","industry":"기타 교육지원 서비스업","coordinates":[127.427166257543,36.3236571994281],"sales":{"202602":1772}},{"id":"MA010120220805814093","name":"청운의료재단","industry":"일반병원","coordinates":[127.427637518978,36.3263410224217],"sales":{"202602":70537}},{"id":"MA010120220805814156","name":"사)한국놀이문화협회사","industry":"레크리에이션 교육기관","coordinates":[127.428044845113,36.3254744344459],"sales":{"202602":395}},{"id":"MA010120220805814253","name":"산수의료재단","industry":"요양병원","coordinates":[127.43070341784,36.3208598678357],"sales":{"202602":12506}},{"id":"MA010120220805814359","name":"사)한국공공행정연구원사","industry":"경영 컨설팅업","coordinates":[127.430462159076,36.3235642694618],"sales":{"202602":2492}},{"id":"MA010120220805814478","name":"한일의료재단패밀리요양병원","industry":"요양병원","coordinates":[127.424092289201,36.3256597473538],"sales":{"202602":4363}},{"id":"MA010120220805814520","name":"의명의료재단마음편한병원","industry":"요양병원","coordinates":[127.42352090894,36.3250309491714],"sales":{"202602":39869}},{"id":"MA010120220805814550","name":"한국방과후학교연합회대전지부사","industry":"기타 교육지원 서비스업","coordinates":[127.424932555021,36.3245302914797],"sales":{"202602":567}},{"id":"MA010120220805814983","name":"대전척수장애인협회직업재활센터사","industry":"슈퍼마켓","coordinates":[127.42253223612,36.3234303522541],"sales":{"202602":8573}},{"id":"MA010120220805815306","name":"대전평생학습관","industry":"사회교육시설","coordinates":[127.425918397392,36.3255991836329],"sales":{"202602":15791}},{"id":"MA010120220805815373","name":"에스닷","industry":"문구/회화용품 소매업","coordinates":[127.427586512827,36.3271973229913],"sales":{"202602":19232}},{"id":"MA010120220805815426","name":"세븐대전은행점주","industry":"편의점","coordinates":[127.427930325118,36.3269347512623],"sales":{"202602":10056}},{"id":"MA010120220805815435","name":"휴세코주","industry":"건축물 일반 청소업","coordinates":[127.42219342319,36.326684799818],"sales":{"202602":506}},{"id":"MA010120220805815665","name":"세븐대전으능정이점주","industry":"편의점","coordinates":[127.429020296632,36.3266695026578],"sales":{"202602":1144}},{"id":"MA010120220805816202","name":"이음길에이치알대전지사","industry":"고용 알선업","coordinates":[127.420089846053,36.3248538097877],"sales":{}},{"id":"MA010120220805816681","name":"티브이속으로주","industry":"명함/간판/광고물 제작","coordinates":[127.422389895945,36.3238814441262],"sales":{"202602":491}},{"id":"MA010120220805817699","name":"동방관광","industry":"여행사","coordinates":[127.420726360679,36.3210305773489],"sales":{"202602":967}},{"id":"MA010120220805817758","name":"월산본가","industry":"냉면/밀면","coordinates":[127.4275204418,36.3252960758176],"sales":{"202602":5124}},{"id":"MA010120220805817926","name":"에스디종합건축사사무소주","industry":"건축 설계 및 관련 서비스업","coordinates":[127.423136567338,36.3239779327725],"sales":{"202602":428}},{"id":"MA010120220805818233","name":"리더스교육평가원주","industry":"교육컨설팅업","coordinates":[127.429330275371,36.3222706447856],"sales":{"202602":699}},{"id":"MA010120220805818254","name":"파스쿠찌","industry":"카페","coordinates":[127.420219283409,36.3219966214921],"sales":{"202602":869}},{"id":"MA010120220805818799","name":"온푸드주","industry":"건강보조식품 소매업","coordinates":[127.42335608124,36.3275007585157],"sales":{"202602":2158}},{"id":"MA010120220805824884","name":"현대오리타운","industry":"닭/오리고기 구이/찜","coordinates":[127.422692240726,36.3262504718122],"sales":{"202602":1663}},{"id":"MA010120220805826869","name":"미미램","industry":"중국집","coordinates":[127.424322496537,36.3270377313341],"sales":{"202602":1257}},{"id":"MA010120220805827147","name":"중앙물류","industry":"슈퍼마켓","coordinates":[127.430452431809,36.3197703467731],"sales":{"202602":8773}},{"id":"MA010120220805827899","name":"케이육구유명한헤어","industry":"미용실","coordinates":[127.432115305571,36.3244594817936],"sales":{"202602":145}},{"id":"MA010120220805828421","name":"국제통신","industry":"핸드폰 소매업","coordinates":[127.424973422173,36.3279546192123],"sales":{"202602":210}},{"id":"MA010120220805839630","name":"투덜이술친구","industry":"생맥주 전문","coordinates":[127.426061898438,36.3233186935305],"sales":{"202602":2096}},{"id":"MA010120220805846530","name":"내집식당","industry":"백반/한정식","coordinates":[127.424925430448,36.3252692822061],"sales":{"202602":2445}},{"id":"MA010120220805848901","name":"종가집밥상","industry":"백반/한정식","coordinates":[127.423309046921,36.3229229442906],"sales":{"202602":4128}},{"id":"MA010120220805853309","name":"사랑&필스튜디오","industry":"사진촬영업","coordinates":[127.427377241385,36.3255849646079],"sales":{"202602":1339}},{"id":"MA010120220805855149","name":"준사진관","industry":"사진촬영업","coordinates":[127.428200116145,36.3253567252747],"sales":{"202602":243}},{"id":"MA010120220805856727","name":"용천부동산중개사무소","industry":"부동산 중개/대리업","coordinates":[127.424073202855,36.3200815254188],"sales":{"202602":746}},{"id":"MA010120220805857307","name":"만남부킹클럽","industry":"노래방","coordinates":[127.42756192525,36.3267738578001],"sales":{"202602":578}},{"id":"MA010120220805859368","name":"엄마손김밥","industry":"김밥/만두/분식","coordinates":[127.422730654493,36.3251148525951],"sales":{"202602":1797}},{"id":"MA010120220805860013","name":"잉글랜드제화","industry":"가방 소매업","coordinates":[127.42224541185,36.3259997215057],"sales":{"202602":213}},{"id":"MA010120220805860019","name":"따뜻한온수나라","industry":"가전제품 소매업","coordinates":[127.424249861781,36.3198015333518],"sales":{"202602":2918}},{"id":"MA010120220805863673","name":"대덕인재개발원재","industry":"기타 기술/직업 훈련학원","coordinates":[127.420089846053,36.3248538097877],"sales":{"202602":1435}},{"id":"MA010120220805872527","name":"대림파크","industry":"여관/모텔","coordinates":[127.429395101646,36.3239375901683],"sales":{"202602":482}},{"id":"MA010120220805913782","name":"열쇠","industry":"철물/공구 소매업","coordinates":[127.424441564023,36.3202424300693],"sales":{"202602":796}},{"id":"MA010120220805917377","name":"수미용실","industry":"미용실","coordinates":[127.430223203694,36.3246645660063],"sales":{"202602":293}},{"id":"MA010120220805934280","name":"앤더즌","industry":"그 외 기타 간이 음식점","coordinates":[127.424532914037,36.3247660176693],"sales":{"202602":329}},{"id":"MA010120220805967074","name":"에브리데이스터디카페","industry":"독서실/스터디 카페","coordinates":[127.422696993121,36.3230062162437],"sales":{"202602":180}},{"id":"MA010120220806021229","name":"프리랜서","industry":"신발 소매업","coordinates":[127.424973422173,36.3279546192123],"sales":{"202602":386}},{"id":"MA010120220806033509","name":"대전보니타왁싱속눈썹","industry":"피부 관리실","coordinates":[127.422126414442,36.3245852933734],"sales":{"202602":273}},{"id":"MA010120220806104362","name":"도원항아리","industry":"그 외 기타 상품 전문 소매업","coordinates":[127.426833506858,36.3198193710168],"sales":{"202602":1310}},{"id":"MA010120220806143641","name":"러블리","industry":"네일숍","coordinates":[127.424973422173,36.3279546192123],"sales":{"202602":126}},{"id":"MA010120220806163512","name":"자이시티공인중개사사무소","industry":"부동산 중개/대리업","coordinates":[127.425892647926,36.3229137667984],"sales":{"202602":416}},{"id":"MA010120220806163992","name":"락커룸","industry":"남성 의류 소매업","coordinates":[127.422872654052,36.3246006791943],"sales":{"202602":971}},{"id":"MA010120220806170292","name":"킹가요주점","industry":"요리 주점","coordinates":[127.424528229743,36.3259555882893],"sales":{"202602":4659}},{"id":"MA010120220806170576","name":"한일중부센터","industry":"가전제품 수리업","coordinates":[127.417841115591,36.3187607166573],"sales":{"202602":305}},{"id":"MA010120220806172488","name":"JK인테리어","industry":"인테리어 디자인업","coordinates":[127.426030498066,36.3277796324857],"sales":{"202602":1060}},{"id":"MA010120220806178368","name":"체이스컬트","industry":"기타 의류 소매업","coordinates":[127.424973422173,36.3279546192123],"sales":{"202602":34487}},{"id":"MA010120220806181552","name":"쿵쿵따노래주점","industry":"요리 주점","coordinates":[127.429447943164,36.3274790260744],"sales":{"202602":486}},{"id":"MA010120220806182581","name":"독일주방","industry":"주방/가정용품 소매업","coordinates":[127.427906624234,36.3246368345683],"sales":{"202602":608}},{"id":"MA010120220806185616","name":"미소미","industry":"여성 의류 소매업","coordinates":[127.424332994925,36.3248658570655],"sales":{"202602":214}},{"id":"MA010120220806186095","name":"만나대흥","industry":"백반/한정식","coordinates":[127.427166257543,36.3236571994281],"sales":{"202602":1063}},{"id":"MA010120220806187855","name":"우리에어컨","industry":"가전제품 소매업","coordinates":[127.417500491536,36.3217087597809],"sales":{"202602":8765}},{"id":"MA010120220806191344","name":"오렌지","industry":"기타 의류 소매업","coordinates":[127.424973422173,36.3279546192123],"sales":{"202602":6432}},{"id":"MA010120220806193319","name":"파랑새기획","industry":"전시/컨벤션/행사 대행 서비스업","coordinates":[127.425686647112,36.3239418429661],"sales":{"202602":1058}},{"id":"MA010120220806195101","name":"이안안경원","industry":"안경렌즈 소매업","coordinates":[127.427637518978,36.3263410224217],"sales":{"202602":485}},{"id":"MA010120220806197585","name":"둔산아름다운사진","industry":"사진촬영업","coordinates":[127.420569779885,36.3188322535254],"sales":{"202602":947}},{"id":"MA010120220806198652","name":"정화장품","industry":"화장품 소매업","coordinates":[127.418594435337,36.3180281264594],"sales":{"202602":808}},{"id":"MA010120220806202677","name":"안샘헤어","industry":"기타 기술/직업 훈련학원","coordinates":[127.424638471611,36.3257479259385],"sales":{"202602":1017}},{"id":"MA010120220806203166","name":"미인나라","industry":"네일숍","coordinates":[127.424973422173,36.3279546192123],"sales":{"202602":145}},{"id":"MA010120220806203581","name":"럭셔리젬노래연습장","industry":"노래방","coordinates":[127.425144416572,36.3266292810025],"sales":{"202602":343}},{"id":"MA010120220806203657","name":"쇼단란주점","industry":"요리 주점","coordinates":[127.424528229743,36.3259555882893],"sales":{"202602":717}},{"id":"MA010120220806203786","name":"코바그릴","industry":"돼지고기 구이/찜","coordinates":[127.425508989204,36.326087277453],"sales":{"202602":986}},{"id":"MA010120220806209418","name":"수약국","industry":"약국","coordinates":[127.423900437516,36.3231371311074],"sales":{"202602":9332}},{"id":"MA010120220806211409","name":"엔제리너스커피성모","industry":"카페","coordinates":[127.419685984659,36.3243055101905],"sales":{"202602":504}},{"id":"MA010120220806212560","name":"연지곤지","industry":"여성 의류 소매업","coordinates":[127.424973422173,36.3279546192123],"sales":{"202602":350}},{"id":"MA010120220806220048","name":"경희체대입시","industry":"입시·교과학원","coordinates":[127.419843334048,36.3204208809749],"sales":{"202602":342}},{"id":"MA010120220806220599","name":"무지개푸드","industry":"구내식당","coordinates":[127.423136567338,36.3239779327725],"sales":{"202602":1577}},{"id":"MA010120220806222730","name":"그린안전산업","industry":"주방/가정용품 소매업","coordinates":[127.424474580594,36.3201702185874],"sales":{"202602":1436}},{"id":"MA010120220806226835","name":"스튜디오세움","industry":"카페","coordinates":[127.417517684101,36.3228441839689],"sales":{"202602":1479}},{"id":"MA010120220806227556","name":"딕시호프","industry":"요리 주점","coordinates":[127.428360516208,36.3261762216753],"sales":{"202602":691}},{"id":"MA010120220806235509","name":"아름다운화장품","industry":"화장품 소매업","coordinates":[127.421492849891,36.3248128235389],"sales":{"202602":401}},{"id":"MA010120220806239348","name":"대흥자동차모터스","industry":"자동차 정비소","coordinates":[127.429447311043,36.3253342272545],"sales":{"202602":1132}},{"id":"MA010120220806245788","name":"오아시스스토리주","industry":"여관/모텔","coordinates":[127.422190992515,36.3262342198155],"sales":{"202602":554}},{"id":"MA010120220806246875","name":"둔산세이북스","industry":"서점","coordinates":[127.425666860817,36.318255481132],"sales":{"202602":9506}},{"id":"MA010120220806247677","name":"인터넷투어","industry":"여행사","coordinates":[127.421952323297,36.3232792005935],"sales":{"202602":439}},{"id":"MA010120220806247869","name":"금밭부동산중개컨설팅주","industry":"부동산 중개/대리업","coordinates":[127.425686647112,36.3239418429661],"sales":{"202602":503}},{"id":"MA010120220806248382","name":"엠피위즈","industry":"의료기기 소매업","coordinates":[127.426030498066,36.3277796324857],"sales":{"202602":8604}},{"id":"MA010120220806249801","name":"대전인쇄미디어산업협동조합","industry":"사업/무형 재산권 중개업","coordinates":[127.423559975691,36.3260761763686],"sales":{}},{"id":"MA010120220806250348","name":"글로벌교육문화원","industry":"그 외 기타 교육기관","coordinates":[127.42431209262,36.3271729448187],"sales":{"202602":272}},{"id":"MA010120220806251909","name":"세무법인해신대전","industry":"세무사","coordinates":[127.428521447947,36.3250581852415],"sales":{"202602":1079}},{"id":"MA010120220806252934","name":"좋은여행","industry":"여행사","coordinates":[127.425686647112,36.3239418429661],"sales":{"202602":545}},{"id":"MA010120220806254508","name":"엔씨엔뉴스주","industry":"광고 대행업","coordinates":[127.424055066898,36.3270116451097],"sales":{"202602":358}},{"id":"MA010120220806256245","name":"베스트피부사랑","industry":"화장품 소매업","coordinates":[127.424973422173,36.3279546192123],"sales":{"202602":1448}},{"id":"MA010120220806282774","name":"해초과메기대전","industry":"횟집","coordinates":[127.428502713571,36.3236704394097],"sales":{"202602":1872}},{"id":"MA010120220806305159","name":"민들레2","industry":"액세서리/잡화 소매업","coordinates":[127.424973422173,36.3279546192123],"sales":{"202602":555}},{"id":"MA010120220806320729","name":"보물섬","industry":"액세서리/잡화 소매업","coordinates":[127.424973422173,36.3279546192123],"sales":{"202602":357}},{"id":"MA010120220806361619","name":"지아이엘","industry":"여행사","coordinates":[127.429424087126,36.3271907352124],"sales":{"202602":1424}},{"id":"MA010120220806361631","name":"마이더스엔터테이먼트","industry":"전시/컨벤션/행사 대행 서비스업","coordinates":[127.430226175833,36.3252052615821],"sales":{"202602":1431}},{"id":"MA010120220806398025","name":"뮤제드폴","industry":"기타 의류 소매업","coordinates":[127.422585782335,36.3250973413217],"sales":{"202602":24333}},{"id":"MA010120220806399601","name":"에이미","industry":"기타 의류 소매업","coordinates":[127.424973422173,36.3279546192123],"sales":{"202602":16923}},{"id":"MA010120220806407822","name":"보문산호랭이","industry":"파스타/스테이크","coordinates":[127.428765435283,36.3269047231603],"sales":{"202602":3171}},{"id":"MA010120220806414082","name":"민쌤연기학원","industry":"기타 예술/스포츠 교육기관","coordinates":[127.419753431429,36.3244224264411],"sales":{"202602":213}},{"id":"MA010120220806424698","name":"손톱,그리다","industry":"네일숍","coordinates":[127.425892647926,36.3229137667984],"sales":{"202602":112}},{"id":"MA010120220806426533","name":"선우서비스","industry":"건축물 일반 청소업","coordinates":[127.431208008674,36.3214888729932],"sales":{"202602":729}},{"id":"MA010120220806428122","name":"자이공인중개사사무소","industry":"부동산 중개/대리업","coordinates":[127.425892647926,36.3229137667984],"sales":{"202602":393}},{"id":"MA010120220806436614","name":"체리백","industry":"남성 의류 소매업","coordinates":[127.424973422173,36.3279546192123],"sales":{"202602":1007}},{"id":"MA010120220806493700","name":"제이에이치통신","industry":"핸드폰 소매업","coordinates":[127.429712955436,36.3250358840947],"sales":{"202602":147}},{"id":"MA010120220806510934","name":"버던트","industry":"기타 의류 소매업","coordinates":[127.424973422173,36.3279546192123],"sales":{"202602":23280}},{"id":"MA010120220806532408","name":"하늘터","industry":"카페","coordinates":[127.418312038297,36.3193628591635],"sales":{"202602":1487}},{"id":"MA010120220806547970","name":"깨끗한세상","industry":"소독, 구충 및 방제 서비스업","coordinates":[127.430058871804,36.3211055065019],"sales":{"202602":202}},{"id":"MA010120220806588432","name":"씨유대전성모","industry":"편의점","coordinates":[127.420219283409,36.3219966214921],"sales":{"202602":8795}},{"id":"MA010120220806669105","name":"하남돼지집대흥동점","industry":"돼지고기 구이/찜","coordinates":[127.425420777642,36.3262498033266],"sales":{"202602":1203}},{"id":"MA010120220806679462","name":"데이즈","industry":"카페","coordinates":[127.429571338919,36.3276407944726],"sales":{"202602":1727}},{"id":"MA010120220806683816","name":"제이코코","industry":"기타 의류 소매업","coordinates":[127.424973422173,36.3279546192123],"sales":{"202602":4719}},{"id":"MA010120220806699335","name":"청풍하우징","industry":"가전제품 수리업","coordinates":[127.418327086443,36.318011038784],"sales":{"202602":317}},{"id":"MA010120220806713602","name":"바빌론","industry":"비디오방","coordinates":[127.430138272236,36.3254218604431],"sales":{}},{"id":"MA010120220806733698","name":"옷걸이","industry":"기타 의류 소매업","coordinates":[127.424973422173,36.3279546192123],"sales":{"202602":16062}},{"id":"MA010120220806737720","name":"페이드인","industry":"기타 의류 소매업","coordinates":[127.422872654052,36.3246006791943],"sales":{"202602":33431}},{"id":"MA010120220806738901","name":"호텔노크온","industry":"여관/모텔","coordinates":[127.430554454482,36.3221220531651],"sales":{"202602":129}},{"id":"MA010120220806743623","name":"옐로우라이트","industry":"카페","coordinates":[127.419674026809,36.3241523519838],"sales":{"202602":1304}},{"id":"MA010120220806773729","name":"카페비요리","industry":"카페","coordinates":[127.42243303254,36.3256836465244],"sales":{"202602":3315}},{"id":"MA010120220806790555","name":"야구월드","industry":"운동용품 소매업","coordinates":[127.425027351092,36.3235296474768],"sales":{"202602":686}},{"id":"MA010120220806810139","name":"타르타르대전","industry":"카페","coordinates":[127.425662245095,36.3276457679736],"sales":{"202602":1423}},{"id":"MA010120220806825165","name":"대전YWCA","industry":"사회교육시설","coordinates":[127.426396477331,36.3234076182225],"sales":{"202602":14242}},{"id":"MA010120220806828367","name":"파란간판원조황소집","industry":"돼지고기 구이/찜","coordinates":[127.428851418474,36.3263366732316],"sales":{"202602":3986}},{"id":"MA010120220806833739","name":"뽀뽀","industry":"요리 주점","coordinates":[127.429415384699,36.3256046950781],"sales":{"202602":681}},{"id":"MA010120220806842438","name":"타미띠에","industry":"카페","coordinates":[127.427365317478,36.3254408188998],"sales":{"202602":2294}},{"id":"MA010120220806843946","name":"플랜아이","industry":"그 외 기타 교육기관","coordinates":[127.423559975691,36.3260761763686],"sales":{"202602":325}},{"id":"MA010120220806862795","name":"김현정헤어","industry":"미용실","coordinates":[127.430226175833,36.3252052615821],"sales":{"202602":129}},{"id":"MA010120220806871405","name":"디씨유통","industry":"편의점","coordinates":[127.424728703217,36.3280095596764],"sales":{"202602":11829}},{"id":"MA010120220806902321","name":"수로스터즈","industry":"카페","coordinates":[127.427052706878,36.3252977478629],"sales":{"202602":1020}},{"id":"MA010120220806910893","name":"마랑","industry":"기타 의류 소매업","coordinates":[127.424973422173,36.3279546192123],"sales":{"202602":4519}},{"id":"MA010120220806911650","name":"128스튜디오","industry":"인테리어 디자인업","coordinates":[127.423378376662,36.3254459956811],"sales":{"202602":766}},{"id":"MA010120220806915522","name":"올미","industry":"백반/한정식","coordinates":[127.422872654052,36.3246006791943],"sales":{"202602":932}},{"id":"MA010120220806948084","name":"뷰티톡톡러블리화이트점","industry":"미용실","coordinates":[127.427906624234,36.3246368345683],"sales":{"202602":115}},{"id":"MA010120220806961620","name":"영희네매운등갈비찜","industry":"백반/한정식","coordinates":[127.424594511823,36.3258562233663],"sales":{"202602":2215}},{"id":"MA010120220806970122","name":"봉봉생활커피","industry":"카페","coordinates":[127.422918139793,36.3268354378763],"sales":{"202602":1144}},{"id":"MA010120220806999048","name":"아도니스식당","industry":"요리 주점","coordinates":[127.424645121385,36.3269735031774],"sales":{"202602":594}},{"id":"MA010120220807011982","name":"진영철법무사행정사사무소","industry":"법무사","coordinates":[127.422869697367,36.3261146675491],"sales":{"202602":216}},{"id":"MA010120220807014875","name":"씨유대전","industry":"편의점","coordinates":[127.424638471611,36.3257479259385],"sales":{"202602":4990}},{"id":"MA010120220807015144","name":"재영자동차유리","industry":"자동차 정비소","coordinates":[127.418104375996,36.3180118179597],"sales":{"202602":1763}},{"id":"MA010120220807018058","name":"컴퍼니에스","industry":"광고 대행업","coordinates":[127.424073642225,36.3201626298857],"sales":{"202602":282}},{"id":"MA010120220807021493","name":"오렌지","industry":"일반 유흥 주점","coordinates":[127.42779786602,36.3271515078757],"sales":{"202602":276}},{"id":"MA010120220807054802","name":"연지곤지","industry":"기타 의류 소매업","coordinates":[127.422872654052,36.3246006791943],"sales":{"202602":24851}},{"id":"MA010120220807057325","name":"해법수학교습소","industry":"입시·교과학원","coordinates":[127.425476755367,36.3201576438357],"sales":{"202602":574}},{"id":"MA010120220807058758","name":"신가우동","industry":"일식 면 요리","coordinates":[127.429980623182,36.3210517173367],"sales":{"202602":1354}},{"id":"MA010120220807070610","name":"모닝아이포토","industry":"사진촬영업","coordinates":[127.427365317478,36.3254408188998],"sales":{"202602":787}},{"id":"MA010120220807083877","name":"난리U","industry":"여성 의류 소매업","coordinates":[127.422872654052,36.3246006791943],"sales":{"202602":256}},{"id":"MA010120220807116711","name":"아이디러닝아카데미","industry":"사회교육시설","coordinates":[127.426030498066,36.3277796324857],"sales":{"202602":10064}},{"id":"MA010120220807144990","name":"로렌","industry":"기타 의류 소매업","coordinates":[127.422872654052,36.3246006791943],"sales":{"202602":9236}},{"id":"MA010120220807175687","name":"화양연화","industry":"사진촬영업","coordinates":[127.425263541963,36.326007045034],"sales":{"202602":612}},{"id":"MA010120220807205702","name":"역전할머니맥주","industry":"생맥주 전문","coordinates":[127.423830622901,36.3266970292105],"sales":{"202602":1294}},{"id":"MA010120220807206417","name":"임대장대전","industry":"백반/한정식","coordinates":[127.425108705735,36.3262058547892],"sales":{"202602":1197}},{"id":"MA010120220807242983","name":"바다사랑","industry":"횟집","coordinates":[127.423091358974,36.3259156241519],"sales":{"202602":1303}},{"id":"MA010120220807385157","name":"돌돌부엌","industry":"김밥/만두/분식","coordinates":[127.422299295996,36.3256660955526],"sales":{"202602":3391}},{"id":"MA010120220807394188","name":"정석크린","industry":"건축물 일반 청소업","coordinates":[127.430245508207,36.3206181988989],"sales":{"202602":578}},{"id":"MA010120220807400406","name":"롤핀본관","industry":"요리 주점","coordinates":[127.424454574113,36.3267488857304],"sales":{"202602":733}},{"id":"MA010120220807412168","name":"끼","industry":"카페","coordinates":[127.420655765912,36.3182551967788],"sales":{"202602":2155}},{"id":"MA010120220807413394","name":"사랑스튜디오","industry":"사진촬영업","coordinates":[127.427377241385,36.3255849646079],"sales":{"202602":2155}},{"id":"MA010120220807416567","name":"투와이스","industry":"액세서리/잡화 소매업","coordinates":[127.424973422173,36.3279546192123],"sales":{"202602":883}},{"id":"MA010120220807417263","name":"필앤뷰","industry":"부동산 중개/대리업","coordinates":[127.427853008133,36.3270521810458],"sales":{"202602":705}},{"id":"MA010120220807445379","name":"대전중구지역자활센터","industry":"가전제품 수리업","coordinates":[127.431021534363,36.3260495025238],"sales":{"202602":197}},{"id":"MA010120220807495976","name":"업소명없음","industry":"그 외 기타 상품 전문 소매업","coordinates":[127.422872654052,36.3246006791943],"sales":{"202602":2801}},{"id":"MA010120220807528542","name":"신사가발점","industry":"그 외 기타 상품 전문 소매업","coordinates":[127.429356043469,36.3249380371962],"sales":{"202602":2322}},{"id":"MA010120220807720860","name":"도프차일드키친","industry":"경양식","coordinates":[127.425124175051,36.324953163454],"sales":{"202602":16604}},{"id":"MA010120220807745115","name":"전주집","industry":"백반/한정식","coordinates":[127.429969345301,36.3271076690925],"sales":{"202602":1268}},{"id":"MA010120220807799196","name":"이로이","industry":"기타 의류 소매업","coordinates":[127.422872654052,36.3246006791943],"sales":{"202602":6482}},{"id":"MA010120220807854429","name":"쥬비엘","industry":"액세서리/잡화 소매업","coordinates":[127.424973422173,36.3279546192123],"sales":{"202602":1191}},{"id":"MA010120220807935769","name":"정통집대전","industry":"돼지고기 구이/찜","coordinates":[127.423830622901,36.3266970292105],"sales":{"202602":1138}},{"id":"MA010120220807981828","name":"피슈마라홍탕대전","industry":"마라탕/훠궈","coordinates":[127.427631995674,36.3273683838782],"sales":{"202602":1995}},{"id":"MA010120220807984369","name":"11번가","industry":"핸드폰 소매업","coordinates":[127.424973422173,36.3279546192123],"sales":{"202602":537}},{"id":"MA010120220808004274","name":"민트코코아","industry":"기타 의류 소매업","coordinates":[127.422872654052,36.3246006791943],"sales":{"202602":28239}},{"id":"MA010120220808016119","name":"모아모텔","industry":"여관/모텔","coordinates":[127.429040050602,36.326209831514],"sales":{"202602":535}},{"id":"MA010120220808033995","name":"꼼빠니아","industry":"여성 의류 소매업","coordinates":[127.422872654052,36.3246006791943],"sales":{"202602":405}},{"id":"MA010120220808045142","name":"황가네식당","industry":"백반/한정식","coordinates":[127.422868187959,36.3258353079493],"sales":{"202602":902}},{"id":"MA010120220808050325","name":"앤틱팩토리","industry":"중고 상품 소매업","coordinates":[127.429443344334,36.3266409481448],"sales":{"202602":591}},{"id":"MA010120220808053364","name":"트루","industry":"경양식","coordinates":[127.418120387331,36.3230944070349],"sales":{"202602":13437}},{"id":"MA010120220808066051","name":"사슴의샘","industry":"기타 기술/직업 훈련학원","coordinates":[127.423559975691,36.3260761763686],"sales":{"202602":710}},{"id":"MA010120220808079936","name":"한밭기원","industry":"바둑/장기/체스 경기 운영업","coordinates":[127.41870096645,36.3233717398725],"sales":{}},{"id":"MA010120220808080036","name":"방순남명인시골통닭","industry":"치킨","coordinates":[127.427291954722,36.3242425154513],"sales":{"202602":1887}},