[{"id":"MA010120220800057498","name":"둥지당구장","industry":"당구장","coordinates":[127.377196298433,36.3466972127473],"sales":{"202602":500}},{"id":"MA010120220800058089","name":"서원NH","industry":"건강보조식품 소매업","coordinates":[127.375346385306,36.3419087810286],"sales":{"202602":4105}},{"id":"MA010120220800101119","name":"다정이엔지","industry":"가전제품 소매업","coordinates":[127.373853692443,36.3442294829264],"sales":{"202602":333}},{"id":"MA010120220800152032","name":"다함건축사사무소","industry":"건축 설계 및 관련 서비스업","coordinates":[127.372696638308,36.342196438619],"sales":{"202602":460}},{"id":"MA010120220800156678","name":"한솥도시락","industry":"백반/한정식","coordinates":[127.369597980483,36.346495660696],"sales":{"202602":934}},{"id":"MA010120220800255518","name":"금본","industry":"반찬/식료품 소매업","coordinates":[127.369590886736,36.3473517996617],"sales":{"202602":1292}},{"id":"MA010120220800297301","name":"감각적식탁","industry":"사진촬영업","coordinates":[127.374525546654,36.3449573318062],"sales":{"202602":351}},{"id":"MA010120220800375158","name":"맥주창고","industry":"요리 주점","coordinates":[127.377056749117,36.3408580322685],"sales":{"202602":260}},{"id":"MA010120220800697436","name":"라봄라켓스포츠","industry":"테니스장","coordinates":[127.374800323974,36.3488315256803],"sales":{"202602":507}},{"id":"MA010120220800775986","name":"꿈찾는아이들해법독서논술교습소","industry":"입시·교과학원","coordinates":[127.377306193679,36.3417674331854],"sales":{"202602":2752}},{"id":"MA010120220800998047","name":"밤비뷰티","industry":"피부 관리실","coordinates":[127.3737790651,36.3495917117243],"sales":{"202602":143}},{"id":"MA010120220801007624","name":"세븐갈마2점","industry":"편의점","coordinates":[127.370082699526,36.3477017360999],"sales":{"202602":999}},{"id":"MA010120220801073556","name":"우리유학센터주","industry":"여행사","coordinates":[127.373785478398,36.3439413199483],"sales":{"202602":1348}},{"id":"MA010120220801524959","name":"큰마을인테리어","industry":"인테리어 디자인업","coordinates":[127.377683222988,36.3460288048341],"sales":{"202602":694}},{"id":"MA010120220801724766","name":"샐리","industry":"여성 의류 소매업","coordinates":[127.376932224789,36.3450669178791],"sales":{"202602":792}},{"id":"MA010120220801941054","name":"스마트약국","industry":"약국","coordinates":[127.376632776119,36.3476542362278],"sales":{"202602":3258}},{"id":"MA010120220802282844","name":"본만쥬","industry":"김밥/만두/분식","coordinates":[127.369981162168,36.3474316977978],"sales":{"202602":203}},{"id":"MA010120220802283988","name":"카이건축사사무소","industry":"건축 설계 및 관련 서비스업","coordinates":[127.373503504553,36.3408782018889],"sales":{"202602":1506}},{"id":"MA010120220802458768","name":"비비큐치킨","industry":"치킨","coordinates":[127.378145536518,36.34257583893],"sales":{"202602":370}},{"id":"MA010120220802480978","name":"도원파트너즈건축사사무소","industry":"건축 설계 및 관련 서비스업","coordinates":[127.371046473513,36.3512583902612],"sales":{"202602":1160}},{"id":"MA010120220802510050","name":"수노래연습장","industry":"노래방","coordinates":[127.370317446396,36.3478722322524],"sales":{"202602":989}},{"id":"MA010120220802895257","name":"이선생수학","industry":"입시·교과학원","coordinates":[127.373974565492,36.3462116917962],"sales":{"202602":853}},{"id":"MA010120220802907042","name":"제이심리상담센터","industry":"유사 의료업","coordinates":[127.378323500152,36.3425212051084],"sales":{"202602":677}},{"id":"MA010120220802928233","name":"빅마트","industry":"슈퍼마켓","coordinates":[127.369684839895,36.3460177687884],"sales":{"202602":8022}},{"id":"MA010120220802934516","name":"세븐대전갈마로점","industry":"편의점","coordinates":[127.372405779377,36.3419360041678],"sales":{"202602":2670}},{"id":"MA010120220802949079","name":"큰마을김밥","industry":"김밥/만두/분식","coordinates":[127.378323500152,36.3425212051084],"sales":{"202602":946}},{"id":"MA010120220802999548","name":"유닛사운드","industry":"가전제품 소매업","coordinates":[127.374471575495,36.3453179713147],"sales":{"202602":1141}},{"id":"MA010120220803048046","name":"음치노래연습장","industry":"노래방","coordinates":[127.370350055035,36.3477009078211],"sales":{"202602":1007}},{"id":"MA010120220803052371","name":"제이엘헤어","industry":"미용실","coordinates":[127.376853183626,36.3471578948215],"sales":{"202602":489}},{"id":"MA010120220803112607","name":"조선형탁구클럽","industry":"탁구장","coordinates":[127.369954521336,36.3488646495151],"sales":{"202602":83}},{"id":"MA010120220803119548","name":"펌앤컬헤어클럽","industry":"미용실","coordinates":[127.3702166386,36.3454033227983],"sales":{"202602":200}},{"id":"MA010120220803146485","name":"알지세븐","industry":"자동차 정비소","coordinates":[127.370001884709,36.3518113460743],"sales":{"202602":2819}},{"id":"MA010120220803183413","name":"아쿠아워시대전","industry":"세탁소","coordinates":[127.373152253525,36.3489718597038],"sales":{"202602":216}},{"id":"MA010120220803188014","name":"대전소상공자영업협동조합","industry":"경영 컨설팅업","coordinates":[127.373054197844,36.3447636752477],"sales":{"202602":2327}},{"id":"MA010120220803214108","name":"미소뷰티","industry":"피부 관리실","coordinates":[127.377220316458,36.3470576071695],"sales":{"202602":424}},{"id":"MA010120220803224983","name":"갈마주먹구이","industry":"돼지고기 구이/찜","coordinates":[127.370329482414,36.3480614418373],"sales":{"202602":747}},{"id":"MA010120220803247138","name":"디테일링출장세차","industry":"자동차 세차장","coordinates":[127.370768144526,36.3442481075734],"sales":{"202602":334}},{"id":"MA010120220803258740","name":"대전세종둔산간호학원","industry":"기타 기술/직업 훈련학원","coordinates":[127.375967984179,36.3484043052551],"sales":{"202602":631}},{"id":"MA010120220803267168","name":"컷트클럽","industry":"미용실","coordinates":[127.374227485799,36.3408669252558],"sales":{"202602":437}},{"id":"MA010120220803269541","name":"오성기획","industry":"광고 대행업","coordinates":[127.370564834652,36.3507101679741],"sales":{"202602":4053}},{"id":"MA010120220803276192","name":"일루엔터테인먼트","industry":"레크리에이션 교육기관","coordinates":[127.372581366092,36.3483968887296],"sales":{"202602":550}},{"id":"MA010120220803290307","name":"훈이수산","industry":"수산물 소매업","coordinates":[127.372579732358,36.3433773441625],"sales":{"202602":1265}},{"id":"MA010120220803347273","name":"갈비숲","industry":"돼지고기 구이/찜","coordinates":[127.370336994821,36.3472954192275],"sales":{"202602":1068}},{"id":"MA010120220803365540","name":"더썬뷰티","industry":"주방/가정용품 소매업","coordinates":[127.376968593923,36.3410565691977],"sales":{"202602":1113}},{"id":"MA010120220803367116","name":"아이스왕국","industry":"슈퍼마켓","coordinates":[127.374092014584,36.345147936666],"sales":{"202602":8657}},{"id":"MA010120220803372786","name":"알뜰공인중개사사무소","industry":"부동산 중개/대리업","coordinates":[127.371828565659,36.3493905264802],"sales":{"202602":2089}},{"id":"MA010120220803421604","name":"랑데뷰","industry":"미용실","coordinates":[127.373170534144,36.3481337094384],"sales":{"202602":298}},{"id":"MA010120220803432131","name":"오봉자싸롱갈마경성큰","industry":"요리 주점","coordinates":[127.377196298433,36.3466972127473],"sales":{"202602":1858}},{"id":"MA010120220803781143","name":"린이샵","industry":"기타 의류 소매업","coordinates":[127.371413099892,36.3463548566832],"sales":{"202602":474}},{"id":"MA010120220803813682","name":"디노프렌즈유아체육","industry":"요가/필라테스 학원","coordinates":[127.371189770712,36.3438953399982],"sales":{"202602":246}},{"id":"MA010120220803847692","name":"쎈언니의뷰티#","industry":"미용실","coordinates":[127.371181391981,36.3468241880354],"sales":{"202602":208}},{"id":"MA010120220803858479","name":"태국음식","industry":"기타 동남아식 전문","coordinates":[127.377196298433,36.3466972127473],"sales":{"202602":1979}},{"id":"MA010120220803988344","name":"두근돼지김치찜","industry":"돼지고기 구이/찜","coordinates":[127.375152609432,36.3479562800758],"sales":{"202602":1592}},{"id":"MA010120220803996327","name":"달리는합동공인중개사사무소","industry":"부동산 중개/대리업","coordinates":[127.372523863542,36.3480185742762],"sales":{"202602":3732}},{"id":"MA010120220804124933","name":"골드리치","industry":"시계/귀금속 소매업","coordinates":[127.376932224789,36.3450669178791],"sales":{"202602":1882}},{"id":"MA010120220804147436","name":"강민구공인회계사무소","industry":"공인회계사","coordinates":[127.376709322179,36.3473566070318],"sales":{"202602":752}},{"id":"MA010120220804206835","name":"온짐","industry":"헬스장","coordinates":[127.37453107054,36.3461108196137],"sales":{"202602":620}},{"id":"MA010120220804323673","name":"제이탁구클럽","industry":"탁구장","coordinates":[127.377220316458,36.3470576071695],"sales":{"202602":79}},{"id":"MA010120220804403545","name":"샤방노래연습장","industry":"노래방","coordinates":[127.374755934923,36.3465426790147],"sales":{"202602":511}},{"id":"MA010120220804468934","name":"별아뜰리에","industry":"화장품 소매업","coordinates":[127.375160204283,36.3472172922846],"sales":{"202602":1260}},{"id":"MA010120220804470090","name":"끌밋","industry":"마사지/안마","coordinates":[127.372974099644,36.3489904393921],"sales":{"202602":308}},{"id":"MA010120220804622691","name":"경동공인중개사사무소","industry":"부동산 중개/대리업","coordinates":[127.374479176747,36.3445789832045],"sales":{"202602":2057}},{"id":"MA010120220804731160","name":"에코토탈크리닝","industry":"세탁소","coordinates":[127.377651718935,36.3418114006203],"sales":{"202602":240}},{"id":"MA010120220804797483","name":"디에떼","industry":"카페","coordinates":[127.374439580874,36.3456154596108],"sales":{"202602":290}},{"id":"MA010120220804805920","name":"가온","industry":"주방/가정용품 소매업","coordinates":[127.370336994821,36.3472954192275],"sales":{"202602":2553}},{"id":"MA010120220804821638","name":"수미현꼬마김밥","industry":"김밥/만두/분식","coordinates":[127.36954783586,36.3500284241925],"sales":{"202602":972}},{"id":"MA010120220804823737","name":"호두네","industry":"그 외 기타 간이 음식점","coordinates":[127.375346385306,36.3419087810286],"sales":{"202602":849}},{"id":"MA010120220804849410","name":"밥심","industry":"백반/한정식","coordinates":[127.373865108142,36.3466175633799],"sales":{"202602":828}},{"id":"MA010120220804865507","name":"청춘문방구","industry":"요리 주점","coordinates":[127.377915673277,36.3457216702111],"sales":{"202602":964}},{"id":"MA010120220804877422","name":"소유네일","industry":"네일숍","coordinates":[127.377609077281,36.3422080529393],"sales":{"202602":562}},{"id":"MA010120220804894798","name":"갈마동맥주집","industry":"요리 주점","coordinates":[127.370896162272,36.3477532846379],"sales":{"202602":627}},{"id":"MA010120220804906955","name":"브랜드컴퍼니협동조합","industry":"경영 컨설팅업","coordinates":[127.378626028561,36.3451877279693],"sales":{"202602":610}},{"id":"MA010120220804921578","name":"해든마트","industry":"슈퍼마켓","coordinates":[127.374800323974,36.3488315256803],"sales":{"202602":17430}},{"id":"MA010120220804935668","name":"정다운노래방","industry":"노래방","coordinates":[127.376968593923,36.3410565691977],"sales":{"202602":437}},{"id":"MA010120220804938595","name":"이엠모빌리언","industry":"자동차 세차장","coordinates":[127.369351569874,36.3509302062781],"sales":{"202602":785}},{"id":"MA010120220804943037","name":"빌플랜","industry":"장난감 소매업","coordinates":[127.378094297711,36.3458022110102],"sales":{"202602":759}},{"id":"MA010120220804972345","name":"악기대여","industry":"기타 개인/가정용품 대여업","coordinates":[127.373140944607,36.3466018032457],"sales":{"202602":556}},{"id":"MA010120220804978307","name":"벨라뷰티bellabeauty","industry":"네일숍","coordinates":[127.371011261301,36.3461848815113],"sales":{"202602":189}},{"id":"MA010120220805025325","name":"파리바게뜨대전","industry":"빵/도넛","coordinates":[127.371128815466,36.3474822096182],"sales":{"202602":508}},{"id":"MA010120220805044903","name":"김복남맥주","industry":"생맥주 전문","coordinates":[127.370330250576,36.3482236510668],"sales":{"202602":491}},{"id":"MA010120220805052896","name":"수니의옷장","industry":"기타 의류 소매업","coordinates":[127.37125284213,36.3431021089499],"sales":{"202602":841}},{"id":"MA010120220805094182","name":"밸런스","industry":"마사지/안마","coordinates":[127.376932224789,36.3450669178791],"sales":{"202602":330}},{"id":"MA010120220805097728","name":"앱패널","industry":"기타 건설/건축자재 소매업","coordinates":[127.378626028561,36.3451877279693],"sales":{"202602":890}},{"id":"MA010120220805118010","name":"재희글로벌","industry":"경영 컨설팅업","coordinates":[127.374276943226,36.3442191463332],"sales":{"202602":1239}},{"id":"MA010120220805127746","name":"투데이","industry":"광고 대행업","coordinates":[127.373054197844,36.3447636752477],"sales":{"202602":2335}},{"id":"MA010120220805132095","name":"성훈종합인테리어","industry":"인테리어 디자인업","coordinates":[127.370210309569,36.3511258074421],"sales":{"202602":738}},{"id":"MA010120220805132851","name":"이유헤어","industry":"미용실","coordinates":[127.3737790651,36.3495917117243],"sales":{"202602":322}},{"id":"MA010120220805146734","name":"오피스OA","industry":"사무기기 소매업","coordinates":[127.372958532769,36.3480622772408],"sales":{"202602":268}},{"id":"MA010120220805178167","name":"예쁠련","industry":"네일숍","coordinates":[127.373152253525,36.3489718597038],"sales":{"202602":319}},{"id":"MA010120220805181428","name":"86맨션","industry":"횟집","coordinates":[127.3752280372,36.3474243496952],"sales":{"202602":2245}},{"id":"MA010120220805195621","name":"가마치통닭","industry":"치킨","coordinates":[127.377683222988,36.3460288048341],"sales":{"202602":438}},{"id":"MA010120220805203992","name":"노마드","industry":"광고 대행업","coordinates":[127.372711882882,36.3453955665588],"sales":{"202602":3106}},{"id":"MA010120220805224103","name":"필식자재마트","industry":"슈퍼마켓","coordinates":[127.369790745621,36.3495680732979],"sales":{"202602":14838}},{"id":"MA010120220805226551","name":"아우디노래연습장","industry":"노래방","coordinates":[127.373894798046,36.3481674925473],"sales":{"202602":899}},{"id":"MA010120220805277897","name":"머슬앤라인PT","industry":"헬스장","coordinates":[127.376767790634,36.3409941200736],"sales":{"202602":611}},{"id":"MA010120220805294392","name":"에스엠네트웍스","industry":"핸드폰 소매업","coordinates":[127.376709322179,36.3473566070318],"sales":{"202602":110}},{"id":"MA010120220805334399","name":"케이투노래연습장","industry":"노래방","coordinates":[127.373189588522,36.3474577682525],"sales":{"202602":424}},{"id":"MA010120220805451684","name":"비에이치푸드","industry":"백반/한정식","coordinates":[127.37474500981,36.3419377035944],"sales":{"202602":1030}},{"id":"MA010120220805513218","name":"GS25갈마","industry":"편의점","coordinates":[127.375398940501,36.3482168473845],"sales":{"202602":2406}},{"id":"MA010120220805516874","name":"옥토씨알지산업","industry":"건축물 일반 청소업","coordinates":[127.370229783109,36.3458268347937],"sales":{"202602":502}},{"id":"MA010120220805644005","name":"세탁풍경빨래방","industry":"셀프 빨래방","coordinates":[127.370602042838,36.3468079626253],"sales":{"202602":387}},{"id":"MA010120220805734556","name":"에이치에스모바일","industry":"핸드폰 소매업","coordinates":[127.370350055035,36.3477009078211],"sales":{"202602":271}},{"id":"MA010120220805754442","name":"헤어룩","industry":"미용실","coordinates":[127.375970254862,36.3419248434924],"sales":{"202602":245}},{"id":"MA010120220805761643","name":"소리통신","industry":"핸드폰 소매업","coordinates":[127.374789742534,36.3466236788033],"sales":{"202602":317}},{"id":"MA010120220805762273","name":"마샬헤어샵","industry":"미용실","coordinates":[127.374261594452,36.3479951209916],"sales":{"202602":155}},{"id":"MA010120220805763878","name":"아리전","industry":"요리 주점","coordinates":[127.370125979238,36.3474312493469],"sales":{"202602":355}},{"id":"MA010120220805764403","name":"수경왕만두","industry":"김밥/만두/분식","coordinates":[127.369630632744,36.346333348043],"sales":{"202602":254}},{"id":"MA010120220805767075","name":"세계조경","industry":"조경 유지·관리 서비스업","coordinates":[127.376932224789,36.3450669178791],"sales":{}},{"id":"MA010120220805772237","name":"초가집","industry":"백반/한정식","coordinates":[127.37068377087,36.3452486748],"sales":{"202602":331}},{"id":"MA010120220805772675","name":"두드림","industry":"명함/간판/광고물 제작","coordinates":[127.37058125261,36.3447713694349],"sales":{"202602":1080}},{"id":"MA010120220805775595","name":"나가수노래연습장","industry":"노래방","coordinates":[127.37337922284,36.347511246427],"sales":{"202602":402}},{"id":"MA010120220805776353","name":"달리는공인중개사사무소","industry":"부동산 중개/대리업","coordinates":[127.372523863542,36.3480185742762],"sales":{"202602":2145}},{"id":"MA010120220805777915","name":"우리정보카드체크기","industry":"사무기기 소매업","coordinates":[127.377915673277,36.3457216702111],"sales":{"202602":320}},{"id":"MA010120220805779985","name":"차오차오","industry":"중국집","coordinates":[127.373657157624,36.3473932248655],"sales":{"202602":1725}},{"id":"MA010120220805783017","name":"시저스헤어","industry":"미용실","coordinates":[127.374301797451,36.3470848077371],"sales":{"202602":333}},{"id":"MA010120220805784460","name":"기쁨가득한약국","industry":"약국","coordinates":[127.369758982356,36.3452064809944],"sales":{"202602":6294}},{"id":"MA010120220805788306","name":"자르슈헤어샵","industry":"미용실","coordinates":[127.374233565634,36.3491216780578],"sales":{"202602":219}},{"id":"MA010120220805794880","name":"다와공인중개사사무소","industry":"부동산 중개/대리업","coordinates":[127.370090726102,36.347043852956],"sales":{"202602":4045}},{"id":"MA010120220805803088","name":"산들바람","industry":"백반/한정식","coordinates":[127.370453813897,36.3484395502174],"sales":{"202602":770}},{"id":"MA010120220805806534","name":"오즈","industry":"기타 의류 소매업","coordinates":[127.36973960047,36.3458193406599],"sales":{"202602":4081}},{"id":"MA010120220805807246","name":"밀두레","industry":"국수/칼국수","coordinates":[127.37107948966,36.3441299883016],"sales":{"202602":3329}},{"id":"MA010120220805817932","name":"플래닌","industry":"카페","coordinates":[127.377915673277,36.3457216702111],"sales":{"202602":441}},{"id":"MA010120220805818748","name":"이레에이티연구소주","industry":"환경 관련 엔지니어링 서비스업","coordinates":[127.370336994821,36.3472954192275],"sales":{}},{"id":"MA010120220805824699","name":"디자인컴픽스","industry":"제품 디자인업","coordinates":[127.374549864733,36.3407307388423],"sales":{"202602":415}},{"id":"MA010120220805827338","name":"갈마동원조닭발","industry":"닭/오리고기 구이/찜","coordinates":[127.372500296068,36.3477482950672],"sales":{"202602":1362}},{"id":"MA010120220805828376","name":"현컴퓨터","industry":"컴퓨터/소프트웨어 소매업","coordinates":[127.377932283052,36.3422430783127],"sales":{"202602":740}},{"id":"MA010120220805843886","name":"큰마을떡집","industry":"떡/한과","coordinates":[127.376932224789,36.3450669178791],"sales":{"202602":882}},{"id":"MA010120220805844393","name":"둔원카서비스","industry":"자동차 정비소","coordinates":[127.377751229763,36.3416578861393],"sales":{"202602":1257}},{"id":"MA010120220805853225","name":"홍씨네닭갈비","industry":"닭/오리고기 구이/찜","coordinates":[127.375967984179,36.3484043052551],"sales":{"202602":1962}},{"id":"MA010120220805870731","name":"우연정보통신","industry":"컴퓨터/사무기기 대여업","coordinates":[127.374555258667,36.3418571925772],"sales":{"202602":753}},{"id":"MA010120220805873834","name":"굴렁쇠막창","industry":"곱창 전골/구이","coordinates":[127.370058202442,36.3472332005881],"sales":{"202602":2176}},{"id":"MA010120220805890815","name":"우리집식당","industry":"백반/한정식","coordinates":[127.373947201807,36.3451483898987],"sales":{"202602":871}},{"id":"MA010120220805911491","name":"둔원마트","industry":"슈퍼마켓","coordinates":[127.375012647913,36.3419999463973],"sales":{"202602":37423}},{"id":"MA010120220805973702","name":"오투투어여행사","industry":"여행사","coordinates":[127.377683222988,36.3460288048341],"sales":{"202602":3431}},{"id":"MA010120220806029130","name":"아지트","industry":"김밥/만두/분식","coordinates":[127.371707098861,36.3472731418534],"sales":{"202602":1124}},{"id":"MA010120220806073145","name":"막강사","industry":"주방/가정용품 소매업","coordinates":[127.377609077281,36.3422080529393],"sales":{"202602":1258}},{"id":"MA010120220806145550","name":"애드라인","industry":"광고 대행업","coordinates":[127.370574549042,36.343356543561],"sales":{"202602":3801}},{"id":"MA010120220806171056","name":"장우정헤어아트","industry":"미용실","coordinates":[127.374470885122,36.3451737853308],"sales":{"202602":314}},{"id":"MA010120220806171125","name":"대한이불총판","industry":"침구류/커튼 소매업","coordinates":[127.375676268611,36.3479726584831],"sales":{"202602":606}},{"id":"MA010120220806171130","name":"씨유","industry":"편의점","coordinates":[127.37337922284,36.347511246427],"sales":{"202602":1142}},{"id":"MA010120220806175077","name":"예스헤어","industry":"미용실","coordinates":[127.377683222988,36.3460288048341],"sales":{"202602":262}},{"id":"MA010120220806175436","name":"창조건축연구소","industry":"건축 설계 및 관련 서비스업","coordinates":[127.377683222988,36.3460288048341],"sales":{"202602":803}},{"id":"MA010120220806175457","name":"건축사사무소기림","industry":"건축 설계 및 관련 서비스업","coordinates":[127.374471575495,36.3453179713147],"sales":{"202602":1003}},{"id":"MA010120220806175470","name":"건축사사무소보아스","industry":"건축 설계 및 관련 서비스업","coordinates":[127.374471575495,36.3453179713147],"sales":{"202602":462}},{"id":"MA010120220806175573","name":"명가건축사사무소","industry":"건축 설계 및 관련 서비스업","coordinates":[127.369954521336,36.3488646495151],"sales":{"202602":814}},{"id":"MA010120220806175588","name":"공인회계사안승규사무소","industry":"공인회계사","coordinates":[127.376709322179,36.3473566070318],"sales":{"202602":676}},{"id":"MA010120220806175823","name":"어머나","industry":"요리 주점","coordinates":[127.377071623906,36.3416329970764],"sales":{"202602":783}},{"id":"MA010120220806176547","name":"대경떡방앗간","industry":"떡/한과","coordinates":[127.369859818019,36.3476844026254],"sales":{"202602":2215}},{"id":"MA010120220806176622","name":"소망공인중개사","industry":"부동산 중개/대리업","coordinates":[127.378244960175,36.3424043008087],"sales":{"202602":2917}},{"id":"MA010120220806177714","name":"미사랑뷰티샵","industry":"피부 관리실","coordinates":[127.371828565659,36.3493905264802],"sales":{"202602":851}},{"id":"MA010120220806177947","name":"황실에코텍","industry":"가전제품 소매업","coordinates":[127.372416188959,36.3417827717255],"sales":{"202602":1106}},{"id":"MA010120220806178658","name":"김정효헤어갤러리","industry":"미용실","coordinates":[127.379121930452,36.3440777094406],"sales":{"202602":742}},{"id":"MA010120220806178719","name":"충무김밥","industry":"김밥/만두/분식","coordinates":[127.373808505318,36.3464284935436],"sales":{"202602":777}},{"id":"MA010120220806180092","name":"큰마을안경원","industry":"안경렌즈 소매업","coordinates":[127.376932224789,36.3450669178791],"sales":{"202602":1643}},{"id":"MA010120220806180188","name":"주유마차","industry":"요리 주점","coordinates":[127.377683222988,36.3460288048341],"sales":{"202602":381}},{"id":"MA010120220806181213","name":"지에스25대전","industry":"편의점","coordinates":[127.37293621949,36.3457192900075],"sales":{"202602":1634}},{"id":"MA010120220806181718","name":"계림","industry":"PC방","coordinates":[127.370473022883,36.3501427122369],"sales":{"202602":3303}},{"id":"MA010120220806182563","name":"대한공인중개사사무소","industry":"부동산 중개/대리업","coordinates":[127.376443202726,36.3406707193935],"sales":{"202602":1451}},{"id":"MA010120220806182709","name":"훈민건축사사무소","industry":"건축 설계 및 관련 서비스업","coordinates":[127.371651068469,36.3425151065284],"sales":{"202602":1146}},{"id":"MA010120220806182858","name":"부지런한사람들","industry":"컴퓨터/소프트웨어 소매업","coordinates":[127.374432807304,36.3442006345584],"sales":{"202602":1474}},{"id":"MA010120220806182922","name":"전종미헤어","industry":"미용실","coordinates":[127.37125284213,36.3431021089499],"sales":{"202602":195}},{"id":"MA010120220806183324","name":"자담치킨","industry":"치킨","coordinates":[127.371707098861,36.3472731418534],"sales":{"202602":1043}},{"id":"MA010120220806183543","name":"그린주택관리","industry":"건축물 일반 청소업","coordinates":[127.373722287992,36.3493665954786],"sales":{"202602":544}},{"id":"MA010120220806183877","name":"맥가이버철물","industry":"철물/공구 소매업","coordinates":[127.378031793869,36.3420895636092],"sales":{"202602":1755}},{"id":"MA010120220806184339","name":"경성미용실","industry":"미용실","coordinates":[127.377683222988,36.3460288048341],"sales":{"202602":386}},{"id":"MA010120220806184632","name":"토림종합건축사사무소","industry":"건축 설계 및 관련 서비스업","coordinates":[127.377220316458,36.3470576071695],"sales":{"202602":1824}},{"id":"MA010120220806184776","name":"씨스페이스큰","industry":"편의점","coordinates":[127.378758785403,36.3449980603576],"sales":{"202602":2794}},{"id":"MA010120220806184928","name":"포미","industry":"요리 주점","coordinates":[127.373189588522,36.3474577682525],"sales":{"202602":327}},{"id":"MA010120220806185322","name":"비룡각","industry":"중국집","coordinates":[127.377103780798,36.341371554454],"sales":{"202602":2282}},{"id":"MA010120220806185565","name":"머리꾸미기미용실","industry":"미용실","coordinates":[127.372337189147,36.3485868966434],"sales":{"202602":151}},{"id":"MA010120220806186136","name":"세븐일레븐","industry":"편의점","coordinates":[127.373322532571,36.3449701077708],"sales":{"202602":3947}},{"id":"MA010120220806186307","name":"씨유","industry":"편의점","coordinates":[127.377689443729,36.3427034459087],"sales":{"202602":4475}},{"id":"MA010120220806186445","name":"링","industry":"시계/귀금속 소매업","coordinates":[127.376932224789,36.3450669178791],"sales":{"202602":2647}},{"id":"MA010120220806186833","name":"매일크리닝","industry":"세탁소","coordinates":[127.373111657434,36.3451329780254],"sales":{"202602":177}},{"id":"MA010120220806186966","name":"우리집식당","industry":"백반/한정식","coordinates":[127.376932224789,36.3450669178791],"sales":{"202602":817}},{"id":"MA010120220806187350","name":"이대감왕족발보쌈","industry":"백반/한정식","coordinates":[127.377472147357,36.3415326032702],"sales":{"202602":654}},{"id":"MA010120220806187524","name":"대전종합동물병원","industry":"동물병원","coordinates":[127.377220316458,36.3470576071695],"sales":{"202602":3921}},{"id":"MA010120220806187813","name":"중문종합관리","industry":"건축물 일반 청소업","coordinates":[127.374679686748,36.3422533201487],"sales":{"202602":128}},{"id":"MA010120220806188019","name":"수라간감자탕","industry":"국/탕/찌개류","coordinates":[127.374101670468,36.3471665402178],"sales":{"202602":3852}},{"id":"MA010120220806188156","name":"한양종합장식","industry":"벽지/장판/마루 소매업","coordinates":[127.369580172853,36.3474419503717],"sales":{"202602":227}},{"id":"MA010120220806188207","name":"국강","industry":"시계/귀금속 소매업","coordinates":[127.370350055035,36.3477009078211],"sales":{"202602":3484}},{"id":"MA010120220806188663","name":"이화정보통신","industry":"핸드폰 소매업","coordinates":[127.374688665317,36.3464527723803],"sales":{"202602":264}},{"id":"MA010120220806189085","name":"애니카랜드씨티피아","industry":"자동차 정비소","coordinates":[127.37269401906,36.3416467291376],"sales":{"202602":1953}},{"id":"MA010120220806189129","name":"쌍방울큰","industry":"기타 의류 소매업","coordinates":[127.377988500767,36.3423510416656],"sales":{"202602":1291}},{"id":"MA010120220806189181","name":"황토방숯불갈비","industry":"돼지고기 구이/찜","coordinates":[127.377179493508,36.340902703765],"sales":{"202602":2815}},{"id":"MA010120220806189329","name":"황실유럽자수","industry":"실/섬유제품 소매업","coordinates":[127.376932224789,36.3450669178791],"sales":{"202602":626}},{"id":"MA010120220806190105","name":"독가마숯불치킨","industry":"치킨","coordinates":[127.377340113959,36.346489488324],"sales":{"202602":1038}},{"id":"MA010120220806190531","name":"별난이모","industry":"백반/한정식","coordinates":[127.373146319403,36.3477282560527],"sales":{"202602":313}},{"id":"MA010120220806190907","name":"법무사박광희사무소","industry":"법무사","coordinates":[127.369630632744,36.346333348043],"sales":{"202602":1052}},{"id":"MA010120220806191182","name":"박정아헤어샵","industry":"미용실","coordinates":[127.378031793869,36.3420895636092],"sales":{"202602":199}},{"id":"MA010120220806191299","name":"현대슈퍼","industry":"슈퍼마켓","coordinates":[127.372369031541,36.3435762596487],"sales":{"202602":7204}},{"id":"MA010120220806191487","name":"죽도어시장","industry":"횟집","coordinates":[127.370058202442,36.3472332005881],"sales":{"202602":1237}},{"id":"MA010120220806191714","name":"경성큰마을공인중개사사무소","industry":"부동산 중개/대리업","coordinates":[127.376932224789,36.3450669178791],"sales":{"202602":3686}},{"id":"MA010120220806191923","name":"리츠칼","industry":"미용실","coordinates":[127.370058202442,36.3472332005881],"sales":{"202602":171}},{"id":"MA010120220806192397","name":"금공인중개사사무소","industry":"부동산 중개/대리업","coordinates":[127.370352789269,36.3435735133246],"sales":{"202602":8321}},{"id":"MA010120220806192500","name":"네네치킨","industry":"치킨","coordinates":[127.377436860772,36.3411452088607],"sales":{"202602":501}},{"id":"MA010120220806192572","name":"이주공인중개사사무소","industry":"부동산 중개/대리업","coordinates":[127.37758436313,36.3417034722882],"sales":{"202602":2999}},{"id":"MA010120220806192583","name":"그린피플","industry":"기타 광고 관련 서비스업","coordinates":[127.37503688927,36.3470554677448],"sales":{"202602":721}},{"id":"MA010120220806192919","name":"세종건강원","industry":"건강보조식품 소매업","coordinates":[127.369384352131,36.3507949286619],"sales":{"202602":908}},{"id":"MA010120220806193439","name":"서구공인중개사","industry":"부동산 중개/대리업","coordinates":[127.371100314493,36.3438235237227],"sales":{"202602":6018}},{"id":"MA010120220806193713","name":"플러스복권","industry":"담배/전자담배 소매업","coordinates":[127.378758785403,36.3449980603576],"sales":{"202602":502}},{"id":"MA010120220806194972","name":"미주자동차나라","industry":"자동차 정비소","coordinates":[127.37252719236,36.3417013198736],"sales":{"202602":1345}},{"id":"MA010120220806195243","name":"씨유경성큰","industry":"편의점","coordinates":[127.377683222988,36.3460288048341],"sales":{"202602":5261}},{"id":"MA010120220806195488","name":"안경나라","industry":"안경렌즈 소매업","coordinates":[127.369630632744,36.346333348043],"sales":{"202602":2406}},{"id":"MA010120220806195603","name":"즐거운공인중개사","industry":"부동산 중개/대리업","coordinates":[127.377915673277,36.3457216702111],"sales":{"202602":4213}},{"id":"MA010120220806195791","name":"문화인쇄","industry":"명함/간판/광고물 제작","coordinates":[127.374555258667,36.3418571925772],"sales":{"202602":1350}},{"id":"MA010120220806196190","name":"샤기헤어","industry":"미용실","coordinates":[127.373146319403,36.3477282560527],"sales":{"202602":527}},{"id":"MA010120220806196204","name":"로또복권방","industry":"복권 발행/판매업","coordinates":[127.372454706726,36.3475321550184],"sales":{"202602":501}},{"id":"MA010120220806196905","name":"부자공인중개사사무소","industry":"부동산 중개/대리업","coordinates":[127.376932224789,36.3450669178791],"sales":{"202602":5827}},{"id":"MA010120220806197019","name":"스타일헤어살롱","industry":"미용실","coordinates":[127.375074025424,36.3478303621831],"sales":{"202602":324}},{"id":"MA010120220806197876","name":"구봉석유","industry":"가정용 연료 소매업","coordinates":[127.371108182232,36.3454816633378],"sales":{"202602":10643}},{"id":"MA010120220806197970","name":"미래열쇠철물","industry":"철물/공구 소매업","coordinates":[127.371128815466,36.3474822096182],"sales":{"202602":559}},{"id":"MA010120220806198210","name":"미우건축사사무소","industry":"건축 설계 및 관련 서비스업","coordinates":[127.378626028561,36.3451877279693],"sales":{"202602":859}},{"id":"MA010120220806198230","name":"건축사사무소마고","industry":"건축 설계 및 관련 서비스업","coordinates":[127.378626028561,36.3451877279693],"sales":{"202602":347}},{"id":"MA010120220806198234","name":"부광종합주택관리","industry":"건축물 일반 청소업","coordinates":[127.375346385306,36.3419087810286],"sales":{"202602":645}},{"id":"MA010120220806198527","name":"인켈미디어","industry":"가전제품 수리업","coordinates":[127.37904657589,36.3446186540227],"sales":{"202602":269}},{"id":"MA010120220806198672","name":"인라이프","industry":"광고 대행업","coordinates":[127.374233565634,36.3491216780578],"sales":{"202602":3188}},{"id":"MA010120220806199334","name":"번개세탁소","industry":"세탁소","coordinates":[127.371100314493,36.3438235237227],"sales":{"202602":229}},{"id":"MA010120220806199440","name":"아이엠뷰티헤어","industry":"미용실","coordinates":[127.375309345718,36.3481179995067],"sales":{"202602":301}},{"id":"MA010120220806199652","name":"대전신세계공인중개사사무소","industry":"부동산 중개/대리업","coordinates":[127.375542893408,36.3480361599891],"sales":{"202602":2983}},{"id":"MA010120220806199858","name":"장수골","industry":"돼지고기 구이/찜","coordinates":[127.377380688175,36.3410462568443],"sales":{"202602":2712}},{"id":"MA010120220806200876","name":"새우리텔레콤","industry":"핸드폰 소매업","coordinates":[127.372166058673,36.3477403247142],"sales":{"202602":42}},{"id":"MA010120220806201131","name":"둔산동물병원","industry":"동물병원","coordinates":[127.374789742534,36.3466236788033],"sales":{"202602":5967}},{"id":"MA010120220806201815","name":"경성공인중개사사무소","industry":"부동산 중개/대리업","coordinates":[127.376932224789,36.3450669178791],"sales":{"202602":4265}},{"id":"MA010120220806202318","name":"GS25갈마둔원","industry":"편의점","coordinates":[127.374620581915,36.341541576069],"sales":{"202602":3502}},{"id":"MA010120220806202334","name":"대전제일공인중개사사무소","industry":"부동산 중개/대리업","coordinates":[127.370100415811,36.3467374231726],"sales":{"202602":2011}},{"id":"MA010120220806202932","name":"멕시칸양념통닭","industry":"치킨","coordinates":[127.370789366619,36.3463748171437],"sales":{"202602":1310}},{"id":"MA010120220806202952","name":"가나슈퍼","industry":"슈퍼마켓","coordinates":[127.373285846116,36.3466193742208],"sales":{"202602":15000}},{"id":"MA010120220806203554","name":"당근노래연습장","industry":"노래방","coordinates":[127.37290145837,36.3477740791754],"sales":{"202602":1476}},{"id":"MA010120220806203873","name":"명우인테리어","industry":"인테리어 디자인업","coordinates":[127.376932224789,36.3450669178791],"sales":{"202602":1063}},{"id":"MA010120220806204206","name":"동양공인중개사사무소","industry":"부동산 중개/대리업","coordinates":[127.374355846898,36.3490672245253],"sales":{"202602":3405}},{"id":"MA010120220806204898","name":"비와이씨큰","industry":"기타 의류 소매업","coordinates":[127.377867407977,36.342648812764],"sales":{"202602":847}},{"id":"MA010120220806205198","name":"쇼노래연습장","industry":"노래방","coordinates":[127.371379613027,36.3510320615807],"sales":{"202602":1321}},{"id":"MA010120220806205943","name":"조은주택관리","industry":"건축물 일반 청소업","coordinates":[127.375801135201,36.34150182251],"sales":{"202602":123}},{"id":"MA010120220806207311","name":"르노자동차서비스코너둔산점","industry":"자동차 정비소","coordinates":[127.378192331036,36.3453423011667],"sales":{"202602":869}},{"id":"MA010120220806207482","name":"아구마을","industry":"백반/한정식","coordinates":[127.371707098861,36.3472731418534],"sales":{"202602":1010}},{"id":"MA010120220806207733","name":"SM통신","industry":"핸드폰 소매업","coordinates":[127.37921043304,36.3439512640041],"sales":{"202602":101}},{"id":"MA010120220806207977","name":"뽀드득김여사","industry":"건축물 일반 청소업","coordinates":[127.374288686299,36.3443452742043],"sales":{"202602":409}},{"id":"MA010120220806207990","name":"바른케어대전센터","industry":"가전제품 수리업","coordinates":[127.373604322897,36.3433290866178],"sales":{"202602":453}},{"id":"MA010120220806208223","name":"헤어쉬크","industry":"미용실","coordinates":[127.373671742185,36.348114119715],"sales":{"202602":221}},{"id":"MA010120220806208481","name":"정든식당","industry":"백반/한정식","coordinates":[127.37453107054,36.3461108196137],"sales":{"202602":1406}},{"id":"MA010120220806208638","name":"황진이순대국","industry":"국/탕/찌개류","coordinates":[127.376936176143,36.3412639420349],"sales":{"202602":1273}},{"id":"MA010120220806208837","name":"서연수헤어샵","industry":"미용실","coordinates":[127.371876163558,36.3430010415408],"sales":{"202602":184}},{"id":"MA010120220806209382","name":"헤어맘미용실","industry":"미용실","coordinates":[127.370350055035,36.3477009078211],"sales":{"202602":209}},{"id":"MA010120220806209906","name":"굽네치킨","industry":"치킨","coordinates":[127.374364806824,36.3439575300521],"sales":{"202602":766}},{"id":"MA010120220806209981","name":"스카이노래연습장","industry":"노래방","coordinates":[127.374301797451,36.3470848077371],"sales":{"202602":328}},{"id":"MA010120220806210202","name":"클린터치","industry":"자동차 정비소","coordinates":[127.369774815037,36.3509108738102],"sales":{"202602":4147}},{"id":"MA010120220806210254","name":"야무진MC","industry":"결혼 상담 서비스업","coordinates":[127.372760079726,36.3414843113295],"sales":{"202602":3066}},{"id":"MA010120220806210428","name":"둔산드림팜약국","industry":"약국","coordinates":[127.375967984179,36.3484043052551],"sales":{"202602":14503}},{"id":"MA010120220806210631","name":"휴먼세탁소","industry":"세탁소","coordinates":[127.374475840799,36.3485351550795],"sales":{"202602":236}},{"id":"MA010120220806210632","name":"보라미세탁소","industry":"세탁소","coordinates":[127.375083522783,36.347487885669],"sales":{"202602":171}},{"id":"MA010120220806210633","name":"한일세탁소","industry":"세탁소","coordinates":[127.374541530643,36.3413165297212],"sales":{"202602":253}},{"id":"MA010120220806211812","name":"와이즈엔터테인먼트","industry":"전시/컨벤션/행사 대행 서비스업","coordinates":[127.377436860772,36.3411452088607],"sales":{"202602":2000}},{"id":"MA010120220806212285","name":"게이트맨서구경성소망24시열쇠","industry":"철물/공구 소매업","coordinates":[127.374446225472,36.3470032494623],"sales":{"202602":328}},{"id":"MA010120220806212726","name":"GS25대전","industry":"편의점","coordinates":[127.372915950118,36.3484769508697],"sales":{"202602":2295}},{"id":"MA010120220806212887","name":"이다현더샵","industry":"미용실","coordinates":[127.37904657589,36.3446186540227],"sales":{"202602":480}},{"id":"MA010120220806213334","name":"드림헤어살롱","industry":"미용실","coordinates":[127.378145536518,36.34257583893],"sales":{"202602":400}},{"id":"MA010120220806215201","name":"플러스광고","industry":"광고 대행업","coordinates":[127.372688771066,36.3475584605337],"sales":{"202602":3436}},{"id":"MA010120220806215345","name":"라임","industry":"여성 의류 소매업","coordinates":[127.379121930452,36.3440777094406],"sales":{"202602":268}},{"id":"MA010120220806215906","name":"스타게이트노래연습장","industry":"노래방","coordinates":[127.374565223013,36.3462639124535],"sales":{"202602":647}},{"id":"MA010120220806215914","name":"큰마을공인중개사사무소","industry":"부동산 중개/대리업","coordinates":[127.376932224789,36.3450669178791],"sales":{"202602":1378}},{"id":"MA010120220806216136","name":"화산화로구이","industry":"돼지고기 구이/찜","coordinates":[127.374118975133,36.3484551670727],"sales":{"202602":1262}},{"id":"MA010120220806216590","name":"김밥천국","industry":"김밥/만두/분식","coordinates":[127.369590886736,36.3473517996617],"sales":{"202602":1710}},{"id":"MA010120220806216702","name":"경성수선","industry":"의류/이불 수선업","coordinates":[127.376932224789,36.3450669178791],"sales":{"202602":94}},{"id":"MA010120220806217085","name":"도도헤어","industry":"미용실","coordinates":[127.377683222988,36.3460288048341],"sales":{"202602":349}},{"id":"MA010120220806218275","name":"노찾사노래연습장","industry":"노래방","coordinates":[127.3747807622,36.3470742948023],"sales":{"202602":340}},{"id":"MA010120220806218590","name":"벗바리","industry":"돼지고기 구이/찜","coordinates":[127.375216335344,36.347307233613],"sales":{"202602":4426}},{"id":"MA010120220806219259","name":"참나무로바베큐","industry":"치킨","coordinates":[127.377800051143,36.3425408845745],"sales":{"202602":980}},{"id":"MA010120220806219613","name":"엔제리너스커피","industry":"카페","coordinates":[127.375676268611,36.3479726584831],"sales":{"202602":557}},{"id":"MA010120220806219665","name":"키스뷰티","industry":"화장품 소매업","coordinates":[127.376932224789,36.3450669178791],"sales":{"202602":355}},{"id":"MA010120220806220513","name":"옛골상차림","industry":"백반/한정식","coordinates":[127.374679686748,36.3422533201487],"sales":{"202602":1950}},{"id":"MA010120220806220569","name":"개미세탁소","industry":"세탁소","coordinates":[127.373808505318,36.3464284935436],"sales":{"202602":119}},{"id":"MA010120220806220815","name":"머슴매운갈비","industry":"돼지고기 구이/찜","coordinates":[127.37337922284,36.347511246427],"sales":{"202602":1699}},{"id":"MA010120220806221246","name":"건축사사무소향림","industry":"건축 설계 및 관련 서비스업","coordinates":[127.374479176747,36.3445789832045],"sales":{"202602":1599}},{"id":"MA010120220806221753","name":"제이에이치푸드","industry":"슈퍼마켓","coordinates":[127.374027827416,36.3433728206983],"sales":{"202602":14026}},{"id":"MA010120220806223656","name":"포잇&깻잎두마리치킨","industry":"치킨","coordinates":[127.376269793586,36.3416715713814],"sales":{"202602":750}},{"id":"MA010120220806223671","name":"한국바른자세협회","industry":"태권도/무술학원","coordinates":[127.370598590119,36.3484300895599],"sales":{"202602":247}},{"id":"MA010120220806224028","name":"세주스튜디오","industry":"사진촬영업","coordinates":[127.377220316458,36.3470576071695],"sales":{"202602":752}},{"id":"MA010120220806224247","name":"금메달통신","industry":"핸드폰 소매업","coordinates":[127.375967984179,36.3484043052551],"sales":{"202602":67}},{"id":"MA010120220806225533","name":"정인","industry":"요리 주점","coordinates":[127.376853183626,36.3471578948215],"sales":{"202602":302}},{"id":"MA010120220806225854","name":"참치발전소","industry":"일식 회/초밥","coordinates":[127.377851187244,36.3462085090065],"sales":{"202602":1797}},{"id":"MA010120220806226441","name":"노란상자","industry":"카페","coordinates":[127.376921455304,36.3474550674291],"sales":{"202602":323}},{"id":"MA010120220806226446","name":"윤스타일","industry":"미용실","coordinates":[127.377530538686,36.3420911481558],"sales":{"202602":127}},{"id":"MA010120220806226514","name":"쌈장","industry":"돼지고기 구이/찜","coordinates":[127.374439580874,36.3456154596108],"sales":{"202602":4555}},{"id":"MA010120220806226570","name":"월평제주주먹구이","industry":"돼지고기 구이/찜","coordinates":[127.369633910735,36.35174039089],"sales":{"202602":847}},{"id":"MA010120220806226871","name":"김남중탁구클럽","industry":"탁구장","coordinates":[127.369758982356,36.3452064809944],"sales":{"202602":420}},{"id":"MA010120220806227004","name":"지오","industry":"일반 유흥 주점","coordinates":[127.371707098861,36.3472731418534],"sales":{"202602":624}},{"id":"MA010120220806228043","name":"더헤어","industry":"미용실","coordinates":[127.369967099052,36.3515230777497],"sales":{"202602":239}},{"id":"MA010120220806228998","name":"최일수제왕돈까스","industry":"경양식","coordinates":[127.373583216013,36.3459065160809],"sales":{"202602":6160}},{"id":"MA010120220806229457","name":"한밭위생","industry":"산업설비, 운송장비 및 공공장소 청소업","coordinates":[127.370456506251,36.3513593499816],"sales":{"202602":280}},{"id":"MA010120220806229849","name":"손꾸락발꾸락","industry":"네일숍","coordinates":[127.376932224789,36.3450669178791],"sales":{"202602":173}},{"id":"MA010120220806230047","name":"나운","industry":"카페","coordinates":[127.376337364346,36.341824558602],"sales":{"202602":1274}},{"id":"MA010120220806230802","name":"디케이인테리어","industry":"인테리어 디자인업","coordinates":[127.378244960175,36.3424043008087],"sales":{"202602":1101}},{"id":"MA010120220806230834","name":"SSEDAGYM","industry":"태권도/무술학원","coordinates":[127.377340113959,36.346489488324],"sales":{"202602":268}},{"id":"MA010120220806231283","name":"가약","industry":"결혼 상담 서비스업","coordinates":[127.3745138031,36.344831203974],"sales":{"202602":8133}},{"id":"MA010120220806231502","name":"에이치시스템","industry":"가전제품 소매업","coordinates":[127.371852257246,36.3426586689111],"sales":{"202602":581}},{"id":"MA010120220806231959","name":"나무상자","industry":"빵/도넛","coordinates":[127.370823026079,36.3511239076103],"sales":{"202602":1261}},{"id":"MA010120220806232271","name":"링크컴퍼니","industry":"전시/컨벤션/행사 대행 서비스업","coordinates":[127.378470904916,36.3453594427523],"sales":{"202602":1267}},{"id":"MA010120220806233117","name":"족발이랑칼국시","industry":"족발/보쌈","coordinates":[127.376767790634,36.3409941200736],"sales":{"202602":1664}},{"id":"MA010120220806233146","name":"아이피아안경원","industry":"안경렌즈 소매업","coordinates":[127.376932224789,36.3450669178791],"sales":{"202602":608}},{"id":"MA010120220806233379","name":"탑오토","industry":"자동차 세차장","coordinates":[127.372880027605,36.3502884254123],"sales":{"202602":619}},{"id":"MA010120220806233476","name":"하렘루트5바이이산헤어","industry":"미용실","coordinates":[127.377851187244,36.3462085090065],"sales":{"202602":194}},{"id":"MA010120220806234813","name":"갈마홈마트","industry":"슈퍼마켓","coordinates":[127.374471575495,36.3453179713147],"sales":{"202602":12721}},{"id":"MA010120220806234884","name":"만석화로","industry":"돼지고기 구이/찜","coordinates":[127.374175724954,36.3463462384759],"sales":{"202602":2828}},{"id":"MA010120220806235012","name":"판다림","industry":"가구 소매업","coordinates":[127.371379613027,36.3510320615807],"sales":{"202602":886}},{"id":"MA010120220806235019","name":"워싱턴치과의원","industry":"치과의원","coordinates":[127.376632776119,36.3476542362278],"sales":{"202602":5419}},{"id":"MA010120220806235157","name":"아저씨족발","industry":"족발/보쌈","coordinates":[127.375552648391,36.3477477531761],"sales":{"202602":4265}},{"id":"MA010120220806235237","name":"드림헤어","industry":"미용실","coordinates":[127.369946477565,36.3448093832307],"sales":{"202602":297}},{"id":"MA010120220806235568","name":"와이사운드","industry":"기타 개인/가정용품 대여업","coordinates":[127.377676477074,36.3423249928707],"sales":{"202602":1388}},{"id":"MA010120220806236202","name":"닥터아이티엔네일의아침대전","industry":"네일숍","coordinates":[127.376921455304,36.3474550674291],"sales":{"202602":147}},{"id":"MA010120220806236326","name":"밤맛고을","industry":"백반/한정식","coordinates":[127.370896162272,36.3477532846379],"sales":{"202602":403}},{"id":"MA010120220806236495","name":"가야피아노","industry":"악기 소매업","coordinates":[127.376932224789,36.3450669178791],"sales":{"202602":1015}},{"id":"MA010120220806236801","name":"청곡박일규서예연구실","industry":"기타 예술/스포츠 교육기관","coordinates":[127.369954521336,36.3488646495151],"sales":{"202602":301}},{"id":"MA010120220806237178","name":"오렌지나무의원","industry":"피부/비뇨기과 의원","coordinates":[127.376632776119,36.3476542362278],"sales":{"202602":9503}},{"id":"MA010120220806237443","name":"염색이야기","industry":"미용실","coordinates":[127.374367600429,36.3468683194512],"sales":{"202602":213}},{"id":"MA010120220806237773","name":"미스터아구찜","industry":"해산물 구이/찜","coordinates":[127.375317804076,36.3475592441292],"sales":{"202602":2281}},{"id":"MA010120220806238106","name":"안단테노래연습장","industry":"노래방","coordinates":[127.374500278505,36.3489856661912],"sales":{"202602":331}},{"id":"MA010120220806238319","name":"뚝이푸드","industry":"횟집","coordinates":[127.377651718935,36.3418114006203],"sales":{"202602":1213}},{"id":"MA010120220806238387","name":"퀸노래연습장","industry":"노래방","coordinates":[127.369981162168,36.3474316977978],"sales":{"202602":517}},{"id":"MA010120220806238749","name":"계룡스크린","industry":"골프 연습장","coordinates":[127.376632776119,36.3476542362278],"sales":{"202602":916}},{"id":"MA010120220806238932","name":"경성피아노","industry":"악기 소매업","coordinates":[127.376932224789,36.3450669178791],"sales":{"202602":1044}},{"id":"MA010120220806244751","name":"대덕개발주","industry":"상용 인력 공급 및 인사관리 서비스업","coordinates":[127.374470885122,36.3451737853308],"sales":{"202602":688}},{"id":"MA010120220806244886","name":"도원엔지니어링건축사사무소주","industry":"건축 설계 및 관련 서비스업","coordinates":[127.371046473513,36.3512583902612],"sales":{"202602":983}},{"id":"MA010120220806246072","name":"아태건축종합건축사사무소주","industry":"건축 설계 및 관련 서비스업","coordinates":[127.374471575495,36.3453179713147],"sales":{"202602":1039}},{"id":"MA010120220806249263","name":"대전공원묘원재","industry":"화장터/묘지/납골당","coordinates":[127.377220316458,36.3470576071695],"sales":{"202602":10744}},{"id":"MA010120220806249450","name":"한국기업경영연구소사","industry":"시장 조사 및 여론 조사업","coordinates":[127.370830280505,36.3432566208953],"sales":{"202602":10006}},{"id":"MA010120220806249473","name":"한일인재기술협력기구","industry":"기타 엔지니어링 서비스업","coordinates":[127.378626028561,36.3451877279693],"sales":{"202602":837}},{"id":"MA010120220806252192","name":"비앤디컴퍼니가마솥삼계탕","industry":"국/탕/찌개류","coordinates":[127.371886317221,36.3427937393833],"sales":{"202602":4060}},{"id":"MA010120220806252546","name":"씨앤더블유주","industry":"사업시설 유지·관리 서비스업","coordinates":[127.370530465449,36.3458078793545],"sales":{"202602":876}},{"id":"MA010120220806254851","name":"인터플랜컴퍼니","industry":"전시/컨벤션/행사 대행 서비스업","coordinates":[127.372405779377,36.3419360041678],"sales":{"202602":1440}},{"id":"MA010120220806255577","name":"지앤지","industry":"광고 대행업","coordinates":[127.379334407302,36.3442482586076],"sales":{"202602":7249}},{"id":"MA010120220806256942","name":"건축사사무소아진건축","industry":"건축 설계 및 관련 서비스업","coordinates":[127.374439580874,36.3456154596108],"sales":{"202602":1249}},{"id":"MA010120220806261807","name":"아이별미술교습소","industry":"미술학원","coordinates":[127.377351140785,36.3418483971425],"sales":{"202602":284}},{"id":"MA010120220806353581","name":"포엠코퍼레이션","industry":"카페","coordinates":[127.373471593968,36.3411937134199],"sales":{"202602":1000}},{"id":"MA010120220806356290","name":"신박한정리하우스키핑","industry":"건축물 일반 청소업","coordinates":[127.374710902121,36.3417936223152],"sales":{"202602":328}},{"id":"MA010120220806375877","name":"디엘아트달로살롱","industry":"화장품 소매업","coordinates":[127.378626028561,36.3451877279693],"sales":{"202602":316}},{"id":"MA010120220806381286","name":"가포디자인","industry":"명함/간판/광고물 제작","coordinates":[127.370124068283,36.3446736569139],"sales":{"202602":1245}},{"id":"MA010120220806388587","name":"버버리","industry":"노래방","coordinates":[127.375160204283,36.3472172922846],"sales":{"202602":443}},{"id":"MA010120220806406104","name":"미미위생산업","industry":"세탁소","coordinates":[127.372696638308,36.342196438619],"sales":{"202602":122}},{"id":"MA010120220806409682","name":"다우리","industry":"백반/한정식","coordinates":[127.377650109103,36.3414779704531],"sales":{"202602":979}},{"id":"MA010120220806418063","name":"길유통","industry":"기타 의류 소매업","coordinates":[127.370775601879,36.3505202673892],"sales":{"202602":278}},{"id":"MA010120220806418637","name":"다온건설","industry":"건설기계/장비 대여업","coordinates":[127.377683222988,36.3460288048341],"sales":{}},{"id":"MA010120220806492440","name":"쟁반노래연습장","industry":"노래방","coordinates":[127.377683222988,36.3460288048341],"sales":{"202602":611}},{"id":"MA010120220806492575","name":"리얼커뮤니케이션","industry":"광고 대행업","coordinates":[127.378626028561,36.3451877279693],"sales":{"202602":5329}},{"id":"MA010120220806516012","name":"피자런","industry":"피자","coordinates":[127.375190395791,36.3488663486204],"sales":{"202602":499}},{"id":"MA010120220806519705","name":"인동집","industry":"요리 주점","coordinates":[127.374103800617,36.3452830761609],"sales":{"202602":1497}},{"id":"MA010120220806528959","name":"달뷰티라인","industry":"마사지/안마","coordinates":[127.37453107054,36.3461108196137],"sales":{"202602":449}},{"id":"MA010120220806538718","name":"신용중고타이어","industry":"타이어 소매업","coordinates":[127.373159791249,36.3412127109484],"sales":{"202602":1504}},{"id":"MA010120220806540961","name":"하나로플라워","industry":"꽃집","coordinates":[127.373120170124,36.3469172796186],"sales":{"202602":210}},{"id":"MA010120220806554796","name":"아이에이치비","industry":"남성 의류 소매업","coordinates":[127.371868114154,36.3506790840642],"sales":{"202602":1135}},{"id":"MA010120220806589877","name":"마당노래연습장","industry":"노래방","coordinates":[127.377340113959,36.346489488324],"sales":{"202602":704}},{"id":"MA010120220806626808","name":"달리는부동산중개사무소","industry":"부동산 중개/대리업","coordinates":[127.372523863542,36.3480185742762],"sales":{"202602":2534}},{"id":"MA010120220806659024","name":"오라","industry":"미용실","coordinates":[127.375457192647,36.3487483578626],"sales":{"202602":676}},{"id":"MA010120220806659360","name":"머스마컷트","industry":"미용실","coordinates":[127.371321758014,36.3458865290798],"sales":{"202602":598}},{"id":"MA010120220806665217","name":"밸류","industry":"여성 의류 소매업","coordinates":[127.371868114154,36.3506790840642],"sales":{"202602":715}},{"id":"MA010120220806674123","name":"그레,이커피","industry":"카페","coordinates":[127.37430042941,36.3444714020714],"sales":{"202602":242}},{"id":"MA010120220806679186","name":"철이바이크","industry":"모터사이클 및 부품 소매업","coordinates":[127.36968343417,36.345720385066],"sales":{"202602":1105}},{"id":"MA010120220806710885","name":"청춘오뎅","industry":"요리 주점","coordinates":[127.373435696337,36.3476732815697],"sales":{"202602":560}},{"id":"MA010120220806762355","name":"워터프론트","industry":"가전제품 소매업","coordinates":[127.377415974433,36.3414336512787],"sales":{"202602":760}},{"id":"MA010120220806784452","name":"호호막창","industry":"곱창 전골/구이","coordinates":[127.37433020215,36.348364388047],"sales":{"202602":546}},{"id":"MA010120220806815174","name":"한국평생문화체육발달센터사회적협동조합","industry":"그 외 기타 교육기관","coordinates":[127.374470885122,36.3451737853308],"sales":{"202602":2107}},{"id":"MA010120220806827712","name":"다해초밥","industry":"일식 회/초밥","coordinates":[127.377995087248,36.346018807032],"sales":{"202602":1265}},{"id":"MA010120220806829113","name":"다인헤어","industry":"미용실","coordinates":[127.371828565659,36.3493905264802],"sales":{"202602":275}},{"id":"MA010120220806844629","name":"우연히,봄","industry":"여성 의류 소매업","coordinates":[127.375542893408,36.3480361599891],"sales":{"202602":141}},{"id":"MA010120220806926823","name":"미성감자탕","industry":"국/탕/찌개류","coordinates":[127.371604400319,36.3467597910808],"sales":{"202602":1030}},{"id":"MA010120220806933066","name":"정성찬","industry":"김밥/만두/분식","coordinates":[127.377515441758,36.3412711253575],"sales":{"202602":540}},{"id":"MA010120220806934113","name":"탑스피치아카데미","industry":"그 외 기타 교육기관","coordinates":[127.379334407302,36.3442482586076],"sales":{"202602":1198}},{"id":"MA010120220806943985","name":"딸기네일","industry":"네일숍","coordinates":[127.370032042753,36.346413211599],"sales":{"202602":217}},{"id":"MA010120220807003809","name":"파티파티노래연습장","industry":"노래방","coordinates":[127.374446225472,36.3470032494623],"sales":{"202602":1197}},{"id":"MA010120220807010973","name":"송송잉글리시","industry":"입시·교과학원","coordinates":[127.373722287992,36.3493665954786],"sales":{"202602":3370}},{"id":"MA010120220807031960","name":"커피언덕","industry":"카페","coordinates":[127.369646074408,36.3472434878736],"sales":{"202602":900}},{"id":"MA010120220807038841","name":"파라오PC방","industry":"PC방","coordinates":[127.37453107054,36.3461108196137],"sales":{"202602":1502}},{"id":"MA010120220807039233","name":"큐프랜드대전","industry":"소독, 구충 및 방제 서비스업","coordinates":[127.377436860772,36.3411452088607],"sales":{"202602":3663}},{"id":"MA010120220807073968","name":"야호족발보쌈","industry":"백반/한정식","coordinates":[127.378166464002,36.3422964080782],"sales":{"202602":987}},{"id":"MA010120220807076559","name":"우정엔지니어링","industry":"건물 및 토목 엔지니어링 서비스업","coordinates":[127.370530465449,36.3458078793545],"sales":{}},{"id":"MA010120220807085740","name":"고냉고떡","industry":"그 외 기타 간이 음식점","coordinates":[127.371346191132,36.3439939834277],"sales":{"202602":828}},{"id":"MA010120220807103957","name":"드라이브스쿨","industry":"운전학원","coordinates":[127.372026293359,36.3464610903953],"sales":{"202602":3970}},{"id":"MA010120220807140228","name":"윤스킨앤바디","industry":"피부 관리실","coordinates":[127.374620581915,36.341541576069],"sales":{"202602":534}},{"id":"MA010120220807143250","name":"샐러브","industry":"토스트/샌드위치/샐러드","coordinates":[127.370058202442,36.3472332005881],"sales":{"202602":917}},{"id":"MA010120220807146455","name":"세븐일레븐대전보강한방","industry":"편의점","coordinates":[127.371868114154,36.3506790840642],"sales":{"202602":938}},{"id":"MA010120220807158977","name":"피어나뷰티","industry":"피부 관리실","coordinates":[127.376932224789,36.3450669178791],"sales":{"202602":944}},{"id":"MA010120220807170185","name":"민승공인중개사사무소","industry":"부동산 중개/대리업","coordinates":[127.3747807622,36.3470742948023],"sales":{"202602":3844}},{"id":"MA010120220807272313","name":"청춘에프엔비","industry":"경영 컨설팅업","coordinates":[127.373378749555,36.3474121185875],"sales":{"202602":1818}},{"id":"MA010120220807277602","name":"뮤리엘네일","industry":"네일숍","coordinates":[127.373170534144,36.3481337094384],"sales":{"202602":266}},{"id":"MA010120220807417833","name":"씨젠의료재단","industry":"방사선 진단/병리 검사 의원","coordinates":[127.371868114154,36.3506790840642],"sales":{"202602":19920}},{"id":"MA010120220807420783","name":"프로하수구.가가누수설비","industry":"철물/공구 소매업","coordinates":[127.371046473513,36.3512583902612],"sales":{"202602":357}},{"id":"MA010120220807439550","name":"인천이형","industry":"백반/한정식","coordinates":[127.374094687099,36.3457066573606],"sales":{"202602":661}},{"id":"MA010120220807713621","name":"케이크이즈","industry":"빵/도넛","coordinates":[127.370943552808,36.3436527869251],"sales":{"202602":3855}},{"id":"MA010120220807715677","name":"도이치맘","industry":"백반/한정식","coordinates":[127.377683222988,36.3460288048341],"sales":{"202602":830}},{"id":"MA010120220807757481","name":"동산타운공인중개사사무소","industry":"부동산 중개/대리업","coordinates":[127.371828565659,36.3493905264802],"sales":{"202602":4757}},{"id":"MA010120220807789790","name":"굿데이메이트","industry":"카페","coordinates":[127.370073701538,36.3458002829679],"sales":{"202602":1473}},{"id":"MA010120220807803907","name":"오성공인중개사사무소","industry":"부동산 중개/대리업","coordinates":[127.373435696337,36.3476732815697],"sales":{"202602":6923}},{"id":"MA010120220807928910","name":"육회당","industry":"요리 주점","coordinates":[127.3742888894,36.3467153661398],"sales":{"202602":585}},{"id":"MA010120220807997969","name":"맥주창고","industry":"요리 주점","coordinates":[127.375451741098,36.3476128939265],"sales":{"202602":932}},{"id":"MA010120220808007854","name":"행복수선","industry":"의류/이불 수선업","coordinates":[127.376932224789,36.3450669178791],"sales":{"202602":175}},{"id":"MA010120220808018790","name":"반찬고을","industry":"채소/과일 소매업","coordinates":[127.370896162272,36.3477532846379],"sales":{"202602":4099}},{"id":"MA010120220808035172","name":"무성건축건축사사사무소","industry":"건축 설계 및 관련 서비스업","coordinates":[127.372696638308,36.342196438619],"sales":{"202602":1006}},{"id":"MA010120220808041494","name":"대안간병사회적협동조합","industry":"고용 알선업","coordinates":[127.378626028561,36.3451877279693],"sales":{"202602":8672}},{"id":"MA010120220808044367","name":"카페소소한","industry":"백반/한정식","coordinates":[127.374253473555,36.348625969251],"sales":{"202602":495}},{"id":"MA010120220808055232","name":"뷰티플러스","industry":"마사지/안마","coordinates":[127.370250006325,36.3500983446751],"sales":{"202602":291}},{"id":"MA010120220808060885","name":"미스터류","industry":"미용실","coordinates":[127.378323500152,36.3425212051084],"sales":{"202602":217}},{"id":"MA010120220808066320","name":"미오커피바","industry":"카페","coordinates":[127.370067874079,36.3516309067115],"sales":{"202602":306}},{"id":"MA010120220808113372","name":"몰트몰트","industry":"요리 주점","coordinates":[127.375398940501,36.3482168473845],"sales":{"202602":272}},{"id":"MA010120220808118483","name":"거인노래연습장","industry":"노래방","coordinates":[127.372454706726,36.3475321550184],"sales":{"202602":707}},{"id":"MA010120220808177634","name":"프레쉬프룻","industry":"카페","coordinates":[127.373316126819,36.3482954662875],"sales":{"202602":262}},{"id":"MA010120220808208083","name":"바다양푼이동태탕·삼겹살","industry":"국/탕/찌개류","coordinates":[127.370670674896,36.3471862435857],"sales":{"202602":1249}},{"id":"MA010120220808215768","name":"엔피케어대전","industry":"네일숍","coordinates":[127.376632776119,36.3476542362278],"sales":{"202602":198}},{"id":"MA010120220808241312","name":"선경이엔씨","industry":"명함/간판/광고물 제작","coordinates":[127.373980406459,36.3404441456854],"sales":{"202602":545}},{"id":"MA010120220808248863","name":"오늘디자인","industry":"옥외/전시 광고 대행업","coordinates":[127.369843265685,36.3465399606128],"sales":{"202602":729}},{"id":"MA010120220808254099","name":"작가새의흑백세상","industry":"시각 디자인업","coordinates":[127.374919191178,36.3480651536906],"sales":{"202602":183}},{"id":"MA010120220808265161","name":"염색스토리연","industry":"미용실","coordinates":[127.373333418955,36.3495840930862],"sales":{"202602":414}},{"id":"MA010120220808357707","name":"청석골쪽갈비","industry":"돼지고기 구이/찜","coordinates":[127.375451741098,36.3476128939265],"sales":{"202602":613}},{"id":"MA010120220808384563","name":"빨강뷰티","industry":"피부 관리실","coordinates":[127.375967984179,36.3484043052551],"sales":{"202602":789}},{"id":"MA010120220808389632","name":"비커밍","industry":"미용실","coordinates":[127.373152253525,36.3489718597038],"sales":{"202602":320}},{"id":"MA010120220808393668","name":"서연상사갈마","industry":"슈퍼마켓","coordinates":[127.376632776119,36.3476542362278],"sales":{"202602":13198}},{"id":"MA010120220808398060","name":"시윤푸드","industry":"요리 주점","coordinates":[127.372708876719,36.3447647527351],"sales":{"202602":198}},{"id":"MA010120220808448789","name":"선화헤어공간","industry":"미용실","coordinates":[127.374019899639,36.3463737615567],"sales":{"202602":396}},{"id":"MA010120220808500764","name":"이지건설공무","industry":"건축 설계 및 관련 서비스업","coordinates":[127.374272601679,36.3409839369273],"sales":{"202602":1144}},{"id":"MA010120220808523527","name":"대새집","industry":"돼지고기 구이/찜","coordinates":[127.370330250576,36.3482236510668],"sales":{"202602":178}},{"id":"MA010120220808533768","name":"청년주막","industry":"요리 주점","coordinates":[127.3742888894,36.3467153661398],"sales":{"202602":894}},{"id":"MA010120220808583016","name":"이지탑학원","industry":"입시·교과학원","coordinates":[127.370830280505,36.3432566208953],"sales":{"202602":771}},{"id":"MA010120220808587499","name":"지니꽃차","industry":"기타 기술/직업 훈련학원","coordinates":[127.372829580489,36.3490539726508],"sales":{"202602":932}},{"id":"MA010120220808625817","name":"더퍼스트제이미헤어","industry":"미용실","coordinates":[127.370684292121,36.3477088832555],"sales":{"202602":396}},{"id":"MA010120220808707928","name":"살롱쥬","industry":"미용실","coordinates":[127.376632776119,36.3476542362278],"sales":{"202602":215}},{"id":"MA010120220808734049","name":"토야공인중개사사무소","industry":"부동산 중개/대리업","coordinates":[127.375542893408,36.3480361599891],"sales":{"202602":3588}},{"id":"MA010120220808746988","name":"킹트리아트","industry":"가구 소매업","coordinates":[127.372848251272,36.3482969270162],"sales":{"202602":2947}},{"id":"MA010120220808748174","name":"나드리타이","industry":"여행사","coordinates":[127.370336994821,36.3472954192275],"sales":{"202602":2121}},{"id":"MA010120220808813250","name":"수헤어샵","industry":"미용실","coordinates":[127.370421759044,36.3463759571887],"sales":{"202602":170}},{"id":"MA010120220808845366","name":"베리타스영어교습소","industry":"입시·교과학원","coordinates":[127.377683222988,36.3460288048341],"sales":{"202602":1656}},{"id":"MA010120220809133587","name":"수진공인중개사사무소","industry":"부동산 중개/대리업","coordinates":[127.3747807622,36.3470742948023],"sales":{"202602":3158}},{"id":"MA010120220809137535","name":"와요마케팅","industry":"광고 대행업","coordinates":[127.37192286529,36.3457945421969],"sales":{"202602":4157}},{"id":"MA010120220809137630","name":"지에스25갈마","industry":"편의점","coordinates":[127.370473022883,36.3501427122369],"sales":{"202602":1489}},{"id":"MA010120220809196168","name":"명불허전","industry":"요리 주점","coordinates":[127.373894798046,36.3481674925473],"sales":{"202602":406}},{"id":"MA010120220809199915","name":"카페리코","industry":"카페","coordinates":[127.374835460441,36.3422167846095],"sales":{"202602":853}},{"id":"MA010120220809285713","name":"에스엠피플","industry":"전시/컨벤션/행사 대행 서비스업","coordinates":[127.373054197844,36.3447636752477],"sales":{"202602":3335}},{"id":"MA010120220809292399","name":"번창기업","industry":"인테리어 디자인업","coordinates":[127.376371610515,36.3443116970348],"sales":{"202602":331}},{"id":"MA010120220809302525","name":"황제명태본가","industry":"해산물 구이/찜","coordinates":[127.376932224789,36.3450669178791],"sales":{"202602":755}},{"id":"MA010120220809324494","name":"패브앤모어","industry":"액세서리/잡화 소매업","coordinates":[127.374798898651,36.3485341422712],"sales":{"202602":965}},{"id":"MA010120220809337733","name":"쓱앤싹","industry":"건축물 일반 청소업","coordinates":[127.371490402574,36.3438673705525],"sales":{"202602":222}},{"id":"MA010120220809338216","name":"시선","industry":"일식 회/초밥","coordinates":[127.3742888894,36.3467153661398],"sales":{"202602":1000}},{"id":"MA010120220809350037","name":"삼양슈퍼","industry":"슈퍼마켓","coordinates":[127.370209039716,36.3461513223949],"sales":{"202602":7425}},{"id":"MA010120220809368117","name":"타코박스대전","industry":"기타 서양식 음식점","coordinates":[127.370876361454,36.3482760279486],"sales":{"202602":274}},{"id":"MA010120220809400942","name":"진흥ENG","industry":"가전제품 수리업","coordinates":[127.37787816184,36.3448746835737],"sales":{"202602":666}},{"id":"MA010120220809404156","name":"우리에어컨","industry":"가전제품 수리업","coordinates":[127.369755233162,36.3444134576002],"sales":{"202602":443}},{"id":"MA010120220809461740","name":"그린세탁소","industry":"세탁소","coordinates":[127.377932283052,36.3422430783127],"sales":{"202602":310}},{"id":"MA010120220809507424","name":"초암고월식품","industry":"건강보조식품 소매업","coordinates":[127.371189770712,36.3438953399982],"sales":{"202602":2030}},{"id":"MA010120220809613485","name":"청춘꼬치","industry":"그 외 기타 간이 음식점","coordinates":[127.374446225472,36.3470032494623],"sales":{"202602":1144}},{"id":"MA010120220809632453","name":"혼밥혼면","industry":"국수/칼국수","coordinates":[127.375647527303,36.3419889407035],"sales":{"202602":611}},{"id":"MA010120220809634370","name":"교촌치킨갈마","industry":"치킨","coordinates":[127.369694147716,36.3456302343228],"sales":{"202602":311}},{"id":"MA010120220809647147","name":"브이존노래연습장","industry":"노래방","coordinates":[127.375619876829,36.3478286476735],"sales":{"202602":467}},{"id":"MA010120220809648190","name":"아이티쿱","industry":"핸드폰 소매업","coordinates":[127.376709322179,36.3473566070318],"sales":{"202602":436}},{"id":"MA010120220809663079","name":"츄러HOT스페셜","industry":"빵/도넛","coordinates":[127.374432807304,36.3442006345584],"sales":{"202602":523}},{"id":"MA010120220809669369","name":"더그루밍맨즈헤어","industry":"미용실","coordinates":[127.37336765672,36.3497552094207],"sales":{"202602":368}},{"id":"MA010120220809702776","name":"허니빈스","industry":"카페","coordinates":[127.376632776119,36.3476542362278],"sales":{"202602":255}},{"id":"MA010120220809707159","name":"애정결핍","industry":"요리 주점","coordinates":[127.374525546654,36.3449573318062],"sales":{"202602":583}},{"id":"MA010120220809741197","name":"풍년숯불갈비","industry":"돼지고기 구이/찜","coordinates":[127.376849149022,36.3416967811701],"sales":{"202602":1457}},{"id":"MA010120220809808474","name":"디펍","industry":"건축물 일반 청소업","coordinates":[127.377915673277,36.3457216702111],"sales":{"202602":67}},{"id":"MA010120220809820995","name":"알파와오메가","industry":"주방/가정용품 소매업","coordinates":[127.373364119497,36.3420141198533],"sales":{"202602":372}},{"id":"MA010120220809830504","name":"더조은마트","industry":"슈퍼마켓","coordinates":[127.376932224789,36.3450669178791],"sales":{"202602":3221}},{"id":"MA010120220809857385","name":"좋은숯불갈비","industry":"돼지고기 구이/찜","coordinates":[127.377896993838,36.3418556841004],"sales":{"202602":591}},{"id":"MA010120220809885767","name":"덤블","industry":"제품 디자인업","coordinates":[127.377851187244,36.3462085090065],"sales":{"202602":327}},{"id":"MA010120220809916654","name":"프락커피룸","industry":"카페","coordinates":[127.373359524721,36.3480520133158],"sales":{"202602":927}},{"id":"MA010120220809950757","name":"홀인원","industry":"요리 주점","coordinates":[127.374755934923,36.3465426790147],"sales":{"202602":525}},{"id":"MA010120220809950878","name":"힐튼당구장","industry":"당구장","coordinates":[127.374565223013,36.3462639124535],"sales":{"202602":297}},{"id":"MA010120220809958839","name":"라온다온","industry":"청소년 수련시설","coordinates":[127.373271093471,36.3435283866816],"sales":{}},{"id":"MA010120220809973116","name":"홍게찜대전","industry":"해산물 구이/찜","coordinates":[127.371189770712,36.3438953399982],"sales":{"202602":1178}},{"id":"MA010120220809973258","name":"핏포레스","industry":"운동용품 소매업","coordinates":[127.376632776119,36.3476542362278],"sales":{"202602":1949}},{"id":"MA010120220809992804","name":"더런드리셀프빨래방","industry":"셀프 빨래방","coordinates":[127.371844416985,36.3433525990865],"sales":{"202602":145}},{"id":"MA010120220810003356","name":"모모헤어stroy","industry":"미용실","coordinates":[127.369931715107,36.3440434291746],"sales":{"202602":374}},{"id":"MA010120220810014744","name":"펼치다디자인사무소","industry":"광고 대행업","coordinates":[127.371844416985,36.3433525990865],"sales":{"202602":2269}},{"id":"MA010120220810075986","name":"엠휘트니스PT스튜디오","industry":"헬스장","coordinates":[127.379121930452,36.3440777094406],"sales":{"202602":468}},{"id":"MA010120220810119924","name":"자스튜디오","industry":"레크리에이션 교육기관","coordinates":[127.374496918204,36.3459577267595],"sales":{"202602":308}},{"id":"MA010120220810122711","name":"스텔라뷰티랩","industry":"피부 관리실","coordinates":[127.377683222988,36.3460288048341],"sales":{"202602":395}},{"id":"MA010120220810135792","name":"대동산업","industry":"부동산 중개/대리업","coordinates":[127.376711098197,36.3407870281946],"sales":{"202602":12419}},{"id":"MA010120220810164974","name":"행복한맛집","industry":"백반/한정식","coordinates":[127.374805330703,36.3475518408148],"sales":{"202602":1897}},{"id":"MA010120220810201444","name":"잔치국수","industry":"국수/칼국수","coordinates":[127.371828565659,36.3493905264802],"sales":{"202602":1160}},{"id":"MA010120220810206035","name":"꽃돼지","industry":"돼지고기 구이/찜","coordinates":[127.370058202442,36.3472332005881],"sales":{"202602":1315}},{"id":"MA010120220810209603","name":"강박사모바일","industry":"핸드폰 소매업","coordinates":[127.371828565659,36.3493905264802],"sales":{"202602":383}},{"id":"MA010120220810321583","name":"한움아로마교육센터","industry":"기타 기술/직업 훈련학원","coordinates":[127.373731103638,36.3418868080589],"sales":{"202602":1379}},{"id":"MA010120220810339436","name":"장호덕손만두","industry":"김밥/만두/분식","coordinates":[127.369621131269,36.3490369045362],"sales":{"202602":203}},{"id":"MA010120220810361710","name":"대성종합개발","industry":"부동산 중개/대리업","coordinates":[127.3735745209,36.3440861677729],"sales":{"202602":3638}},{"id":"MA010120220810368341","name":"코튼","industry":"경양식","coordinates":[127.374554338239,36.3486430501148],"sales":{"202602":4610}},{"id":"MA010120220810395077","name":"스카이당구장","industry":"당구장","coordinates":[127.374496918204,36.3459577267595],"sales":{"202602":578}},{"id":"MA010120220810425818","name":"마이점핑","industry":"스쿼시/라켓볼장","coordinates":[127.370125979238,36.3474312493469],"sales":{}},{"id":"MA010120220810440744","name":"디에르","industry":"화장품 소매업","coordinates":[127.369802712701,36.347387191369],"sales":{"202602":809}},{"id":"MA010120220810488075","name":"이지네일","industry":"네일숍","coordinates":[127.370803668102,36.3470416428695],"sales":{"202602":148}},{"id":"MA010120220810495157","name":"스무살에머물다","industry":"피부 관리실","coordinates":[127.376932224789,36.3450669178791],"sales":{"202602":739}},{"id":"MA010120220810552811","name":"현대건축적산사무소","industry":"건축 설계 및 관련 서비스업","coordinates":[127.373325457672,36.3455828982793],"sales":{"202602":1113}},{"id":"MA010120220810583699","name":"속눈썹퀸","industry":"피부 관리실","coordinates":[127.370803668102,36.3470416428695],"sales":{"202602":220}},{"id":"MA010120220810594553","name":"캠프마스터대전충청지점","industry":"운동용품 소매업","coordinates":[127.370830280505,36.3432566208953],"sales":{"202602":6885}},{"id":"MA010120220811107710","name":"통영통큰푸드","industry":"백반/한정식","coordinates":[127.375146056522,36.3419454571048],"sales":{"202602":1196}},{"id":"MA010120220811124667","name":"대전생수","industry":"생수/음료 소매업","coordinates":[127.373560059469,36.3410582604415],"sales":{"202602":122}},{"id":"MA010120220811217064","name":"세븐나잇","industry":"요리 주점","coordinates":[127.378031793869,36.3420895636092],"sales":{"202602":383}},{"id":"MA010120220811287351","name":"스터디카페숭어리샘점","industry":"독서실/스터디 카페","coordinates":[127.377622087092,36.3425955176188],"sales":{"202602":761}},{"id":"MA010120220811304414","name":"엄튜터영어교습소","industry":"입시·교과학원","coordinates":[127.377683222988,36.3460288048341],"sales":{"202602":2295}},{"id":"MA010120220811387571","name":"태백인력","industry":"임시/일용 인력 공급업","coordinates":[127.369954521336,36.3488646495151],"sales":{"202602":62236}},{"id":"MA010120220811507062","name":"미싱박옷수선","industry":"의류/이불 수선업","coordinates":[127.377683222988,36.3460288048341],"sales":{"202602":110}},{"id":"MA010120220811549992","name":"인형나라","industry":"기타 오락장","coordinates":[127.369981162168,36.3474316977978],"sales":{"202602":1549}},{"id":"MA010120220811630039","name":"지티에스버거","industry":"버거","coordinates":[127.373722287992,36.3493665954786],"sales":{"202602":2084}},{"id":"MA010120220811684470","name":"코너","industry":"카페","coordinates":[127.371359669758,36.3468326459135],"sales":{"202602":754}},{"id":"MA010120220811685675","name":"일호인테리어","industry":"인테리어 디자인업","coordinates":[127.372489093253,36.3453962611983],"sales":{"202602":700}},{"id":"MA010120220811691685","name":"서영헤어","industry":"미용실","coordinates":[127.37319388903,36.3483589303809],"sales":{"202602":138}},{"id":"MA010120220811726364","name":"디지털아트토이","industry":"그 외 기타 교육기관","coordinates":[127.377915673277,36.3457216702111],"sales":{"202602":1104}},{"id":"MA010120220811738741","name":"파인드보이스","industry":"음악학원","coordinates":[127.371379613027,36.3510320615807],"sales":{"202602":261}},{"id":"MA010120220811791572","name":"범이네숯불구이","industry":"돼지고기 구이/찜","coordinates":[127.375619876829,36.3478286476735],"sales":{"202602":1132}},{"id":"MA010120220811799851","name":"가나안농장식당","industry":"돼지고기 구이/찜","coordinates":[127.379121930452,36.3440777094406],"sales":{"202602":1825}},{"id":"MA010120220811850431","name":"윤이불닭발","industry":"닭/오리고기 구이/찜","coordinates":[127.37740814008,36.3421185700467],"sales":{"202602":515}},{"id":"MA010120220811852287","name":"몬스터,몬스터PC카페","industry":"노래방","coordinates":[127.370336994821,36.3472954192275],"sales":{"202602":624}},{"id":"MA010120220811866644","name":"제이와이푸드맘스터치대전","industry":"버거","coordinates":[127.371868114154,36.3506790840642],"sales":{"202602":5520}},{"id":"MA010120220811904650","name":"노래야노래야코인노래연습장","industry":"노래방","coordinates":[127.369597980483,36.346495660696],"sales":{"202602":422}},{"id":"MA010120220811929851","name":"자매샵","industry":"카페","coordinates":[127.374923641332,36.3489933504027],"sales":{"202602":219}},{"id":"MA010120220811955333","name":"돈대패야","industry":"돼지고기 구이/찜","coordinates":[127.371707098861,36.3472731418534],"sales":{"202602":1871}},{"id":"MA010120220811962795","name":"태서건축","industry":"기타 의류 소매업","coordinates":[127.374351738091,36.3412270067324],"sales":{"202602":2334}},{"id":"MA010120220811985895","name":"귀인","industry":"광고 대행업","coordinates":[127.378626028561,36.3451877279693],"sales":{"202602":4454}},{"id":"MA010120220811991004","name":"하나공인중개사사무소","industry":"부동산 중개/대리업","coordinates":[127.37086433892,36.3504388862495],"sales":{"202602":6193}},{"id":"MA010120220812021444","name":"이마트24","industry":"편의점","coordinates":[127.373716029402,36.34572586564],"sales":{"202602":2069}},{"id":"MA010120220812043698","name":"떡볶이참잘하는집떡참대전","industry":"김밥/만두/분식","coordinates":[127.374525546654,36.3449573318062],"sales":{"202602":1220}},{"id":"MA010120220812047187","name":"피아노스토리","industry":"음악학원","coordinates":[127.37806699675,36.3424589345131],"sales":{"202602":372}},{"id":"MA010120220812056159","name":"세정클린","industry":"건축물 일반 청소업","coordinates":[127.377683222988,36.3460288048341],"sales":{"202602":449}},{"id":"MA010120220812072588","name":"아삭달콤아이스크림세계과자","industry":"슈퍼마켓","coordinates":[127.377988500767,36.3423510416656],"sales":{"202602":15092}},{"id":"MA010120220812093303","name":"단지컴퍼니","industry":"가전제품 수리업","coordinates":[127.370317446396,36.3478722322524],"sales":{"202602":606}},{"id":"MA010120220812106052","name":"에스앤이솔루션","industry":"기타 엔지니어링 서비스업","coordinates":[127.375256068028,36.3486228250611],"sales":{"202602":1827}},{"id":"MA010120220812110328","name":"슈퍼스타갈마동노래뮤비방","industry":"노래방","coordinates":[127.374805330703,36.3475518408148],"sales":{"202602":744}},{"id":"MA010120220812118280","name":"다설치보안시스템","industry":"철물/공구 소매업","coordinates":[127.369526918328,36.3503168649843],"sales":{"202602":871}},{"id":"MA010120220812170964","name":"이마트24","industry":"편의점","coordinates":[127.37125284213,36.3431021089499],"sales":{"202602":2745}},{"id":"MA010120220812171993","name":"네일혜림","industry":"네일숍","coordinates":[127.369351569874,36.3509302062781],"sales":{"202602":296}},{"id":"MA010120220812183257","name":"옥토CRG공인중개사사무소,옥토주택관리","industry":"부동산 중개/대리업","coordinates":[127.370229783109,36.3458268347937],"sales":{"202602":5944}},{"id":"MA010120220812189839","name":"씨유갈마","industry":"편의점","coordinates":[127.370896162272,36.3477532846379],"sales":{"202602":6573}},{"id":"MA010120220812203925","name":"맛있는이야기","industry":"경양식","coordinates":[127.374027827416,36.3433728206983],"sales":{"202602":7664}},{"id":"MA010120220812238500","name":"헤어피플","industry":"미용실","coordinates":[127.377915673277,36.3457216702111],"sales":{"202602":470}},{"id":"MA010120220812241140","name":"명성공인중개사사무소","industry":"부동산 중개/대리업","coordinates":[127.375542893408,36.3480361599891],"sales":{"202602":6396}},{"id":"MA010120220812253846","name":"빤짝","industry":"네일숍","coordinates":[127.377683222988,36.3460288048341],"sales":{"202602":120}},{"id":"MA010120220812266377","name":"김태성오피스컨설턴트","industry":"가구 소매업","coordinates":[127.377463824272,36.3467324150481],"sales":{"202602":2077}},{"id":"MA010120220812267246","name":"글로리문구","industry":"문구/회화용품 소매업","coordinates":[127.377689443729,36.3427034459087],"sales":{"202602":3013}},{"id":"MA010120220812296852","name":"홈플러스익스프레스대전","industry":"슈퍼마켓","coordinates":[127.370336994821,36.3472954192275],"sales":{"202602":19439}},{"id":"MA010120220812315782","name":"하이스트","industry":"고용 알선업","coordinates":[127.369954521336,36.3488646495151],"sales":{"202602":3526}},{"id":"MA010120220812335999","name":"니니언니","industry":"기타 의류 소매업","coordinates":[127.376921455304,36.3474550674291],"sales":{"202602":428}},{"id":"MA010120220812337060","name":"지니스케어","industry":"산업설비, 운송장비 및 공공장소 청소업","coordinates":[127.373597608043,36.3419232725178],"sales":{"202602":193}},{"id":"MA010120220812346843","name":"광세족발","industry":"족발/보쌈","coordinates":[127.375115256302,36.347136327581],"sales":{"202602":1429}},{"id":"MA010120220812350823","name":"제이엘로","industry":"네일숍","coordinates":[127.376932224789,36.3450669178791],"sales":{"202602":291}},{"id":"MA010120220812357054","name":"가자오케이셀프빨래방","industry":"셀프 빨래방","coordinates":[127.369802712701,36.347387191369],"sales":{"202602":174}},{"id":"MA010120220812390791","name":"한일기획","industry":"문구/회화용품 소매업","coordinates":[127.373737863943,36.3433016337738],"sales":{"202602":5189}},{"id":"MA010120220812414299","name":"케어","industry":"고용 알선업","coordinates":[127.378626028561,36.3451877279693],"sales":{"202602":6949}},{"id":"MA010120220812430326","name":"예정","industry":"요리 주점","coordinates":[127.378145536518,36.34257583893],"sales":{"202602":453}},{"id":"MA010120220812431858","name":"비앤에프테크","industry":"가전제품 수리업","coordinates":[127.373862333331,36.3437067737383],"sales":{"202602":473}},{"id":"MA010120220812455128","name":"더샘부동산중개법인","industry":"부동산 중개/대리업","coordinates":[127.376844894278,36.3408136416687],"sales":{"202602":4217}},{"id":"MA010120220812468599","name":"포바이컴퍼니","industry":"광고 대행업","coordinates":[127.372626870426,36.3485950054521],"sales":{"202602":1892}},{"id":"MA010120220812473327","name":"쿨노래연습장","industry":"노래방","coordinates":[127.374510603864,36.3464893775757],"sales":{"202602":505}},{"id":"MA010120220812522899","name":"다이아네일","industry":"네일숍","coordinates":[127.370655605719,36.3463572085839],"sales":{"202602":487}},{"id":"MA010120220812533428","name":"달떡볶이","industry":"김밥/만두/분식","coordinates":[127.370300712287,36.3513958798735],"sales":{"202602":463}},{"id":"MA010120220812550253","name":"주인공인중개사사무소","industry":"부동산 중개/대리업","coordinates":[127.370486208993,36.3482231676478],"sales":{"202602":4999}},{"id":"MA010120220812552783","name":"라라파스타","industry":"파스타/스테이크","coordinates":[127.373629389254,36.3415807261017],"sales":{"202602":2041}},{"id":"MA010120220812559186","name":"라솔뷰티헤어","industry":"미용실","coordinates":[127.376114888308,36.3418883413334],"sales":{"202602":305}},{"id":"MA010120220812568427","name":"예쁜헤어","industry":"미용실","coordinates":[127.376932224789,36.3450669178791],"sales":{"202602":292}},{"id":"MA010120220812569845","name":"둔원랜드","industry":"문구/회화용품 소매업","coordinates":[127.376114888308,36.3418883413334],"sales":{"202602":3552}},{"id":"MA010120220812575484","name":"해든마트","industry":"슈퍼마켓","coordinates":[127.3709364471,36.3468519838788],"sales":{"202602":12564}},{"id":"MA010120220812590383","name":"리크앤","industry":"주류 소매업","coordinates":[127.371046473513,36.3512583902612],"sales":{"202602":1427}},{"id":"MA010120220812599956","name":"미장원","industry":"미용실","coordinates":[127.372162027415,36.3468932321303],"sales":{"202602":107}},{"id":"MA010120220812602999","name":"마리몽","industry":"카페","coordinates":[127.374479176747,36.3445789832045],"sales":{"202602":555}},{"id":"MA010120220812611329","name":"보아스","industry":"기타 의류 소매업","coordinates":[127.369859818019,36.3476844026254],"sales":{"202602":1530}},{"id":"MA010120220812612146","name":"하은헤어","industry":"미용실","coordinates":[127.372708876719,36.3447647527351],"sales":{"202602":134}},{"id":"MA010120220812630950","name":"경성분식","industry":"김밥/만두/분식","coordinates":[127.377683222988,36.3460288048341],"sales":{"202602":514}},{"id":"MA010120220812681051","name":"잡채몰","industry":"사진촬영업","coordinates":[127.374346755252,36.3448407391299],"sales":{"202602":682}},{"id":"MA010120220812726682","name":"아랑고고장구","industry":"전시/컨벤션/행사 대행 서비스업","coordinates":[127.369630632744,36.346333348043],"sales":{"202602":1136}},{"id":"MA010120220812737721","name":"두마리찜닭두찜대전","industry":"닭/오리고기 구이/찜","coordinates":[127.369723502572,36.3518392429805],"sales":{"202602":1487}},{"id":"MA010120220812754938","name":"벤츠","industry":"노래방","coordinates":[127.375733613168,36.3483149248618],"sales":{"202602":790}},{"id":"MA010120220812760014","name":"큰맘할매순대국","industry":"국/탕/찌개류","coordinates":[127.370336994821,36.3472954192275],"sales":{"202602":1967}},{"id":"MA010120220812775011","name":"워시팡팡무인셀프빨래방대전","industry":"셀프 빨래방","coordinates":[127.373173546548,36.3464304780462],"sales":{"202602":262}},{"id":"MA010120220812816165","name":"대전아이폰수리애플픽스","industry":"핸드폰/통신장비 수리업","coordinates":[127.373316126819,36.3482954662875],"sales":{"202602":399}},{"id":"MA010120220812830309","name":"입주청소","industry":"건축물 일반 청소업","coordinates":[127.372124234567,36.3459741504929],"sales":{"202602":221}},{"id":"MA010120220812830338","name":"파리바게뜨경성","industry":"빵/도넛","coordinates":[127.376932224789,36.3450669178791],"sales":{"202602":3429}},{"id":"MA010120220812836275","name":"오래된이야기","industry":"카페","coordinates":[127.377220316458,36.3470576071695],"sales":{"202602":585}},{"id":"MA010120220812840820","name":"사랑손님","industry":"요리 주점","coordinates":[127.372780123162,36.3480267869025],"sales":{"202602":353}},{"id":"MA010120220812842286","name":"대전캔유여행사","industry":"여행사","coordinates":[127.375733613168,36.3483149248618],"sales":{"202602":4712}},{"id":"MA010120220812844033","name":"갈마전자담배멀티샵","industry":"담배/전자담배 소매업","coordinates":[127.374446225472,36.3470032494623],"sales":{"202602":1342}},{"id":"MA010120220812876534","name":"성원공인중개사사무소","industry":"부동산 중개/대리업","coordinates":[127.372848251272,36.3482969270162],"sales":{"202602":2774}},{"id":"MA010120220812884750","name":"조이엘로","industry":"네일숍","coordinates":[127.373855666952,36.3493030959971],"sales":{"202602":320}},{"id":"MA010120220812903557","name":"루틴에스테틱","industry":"피부 관리실","coordinates":[127.376921455304,36.3474550674291],"sales":{"202602":419}},{"id":"MA010120220812906779","name":"축협정육식당","industry":"소고기 구이/찜","coordinates":[127.376997044345,36.3469591824357],"sales":{"202602":1600}},{"id":"MA010120220812923191","name":"인센스카페","industry":"카페","coordinates":[127.3752280372,36.3474243496952],"sales":{"202602":853}},{"id":"MA010120220812944775","name":"행복디자인건축사사무소","industry":"건축 설계 및 관련 서비스업","coordinates":[127.372696638308,36.342196438619],"sales":{"202602":926}},{"id":"MA010120220812966112","name":"워시프렌즈셀프빨래방","industry":"셀프 빨래방","coordinates":[127.369461141686,36.3505423621946],"sales":{"202602":174}},{"id":"MA010120220812991656","name":"준플라워","industry":"꽃집","coordinates":[127.376932224789,36.3450669178791],"sales":{"202602":343}},{"id":"MA010120220813038044","name":"태승앤밥스커피","industry":"카페","coordinates":[127.378626028561,36.3451877279693],"sales":{"202602":1127}},{"id":"MA010120220813048877","name":"동이스카이","industry":"건설기계/장비 대여업","coordinates":[127.376231348734,36.3406263276996],"sales":{}},{"id":"MA010120220813050276","name":"대성건기","industry":"건설기계/장비 대여업","coordinates":[127.377683222988,36.3460288048341],"sales":{}},{"id":"MA010120220813053029","name":"모들디자인","industry":"광고물 설계/제작업","coordinates":[127.378626028561,36.3451877279693],"sales":{"202602":423}},{"id":"MA010120220813067137","name":"홍's쭈꾸미","industry":"해산물 구이/찜","coordinates":[127.377071623906,36.3416329970764],"sales":{"202602":1484}},{"id":"MA010120220813078297","name":"헤어","industry":"미용실","coordinates":[127.373949959466,36.3457251338501],"sales":{"202602":222}},{"id":"MA010120220813117604","name":"오마켓","industry":"생맥주 전문","coordinates":[127.373447438621,36.3477994094554],"sales":{"202602":476}},{"id":"MA010120220813122368","name":"루아헤어&스토어","industry":"미용실","coordinates":[127.372061542351,36.3421623704924],"sales":{"202602":282}},{"id":"MA010120220813135844","name":"흑룡각","industry":"중국집","coordinates":[127.372708876719,36.3447647527351],"sales":{"202602":4123}},{"id":"MA010120220813138911","name":"씨엔씨","industry":"기타 의류 소매업","coordinates":[127.371868114154,36.3506790840642],"sales":{"202602":834}},{"id":"MA010120220813141090","name":"뮤토PC방","industry":"PC방","coordinates":[127.370574549042,36.343356543561],"sales":{"202602":1373}},{"id":"MA010120220813153336","name":"보양미역국","industry":"백반/한정식","coordinates":[127.374432807304,36.3442006345584],"sales":{"202602":5330}},{"id":"MA010120220813156212","name":"아는언니포차","industry":"요리 주점","coordinates":[127.373549504971,36.3481775841707],"sales":{"202602":615}},{"id":"MA010120220813163420","name":"에잇나인","industry":"기타 의류 소매업","coordinates":[127.37290038409,36.3475487886265],"sales":{"202602":635}},{"id":"MA010120220813180911","name":"송원상사","industry":"화장품 소매업","coordinates":[127.37295634983,36.3452686392197],"sales":{"202602":2060}},{"id":"MA010120220813276507","name":"뉴키즈센터","industry":"입시·교과학원","coordinates":[127.372552689477,36.3470542264831],"sales":{"202602":1995}},{"id":"MA010120220813281532","name":"청솔푸드","industry":"경양식","coordinates":[127.372708876719,36.3447647527351],"sales":{"202602":9324}},{"id":"MA010120220813295425","name":"하얼번","industry":"돼지고기 구이/찜","coordinates":[127.374094687099,36.3457066573606],"sales":{"202602":1311}},{"id":"MA010120220813297219","name":"아시아뉴스애드","industry":"광고 대행업","coordinates":[127.369954521336,36.3488646495151],"sales":{"202602":4228}},{"id":"MA010120220813305144","name":"풍성묵은지갈비찜","industry":"백반/한정식","coordinates":[127.36976586125,36.3443052835719],"sales":{"202602":1366}},{"id":"MA010120220813314034","name":"신화신가네매운떡볶이","industry":"김밥/만두/분식","coordinates":[127.376704559681,36.3417422958417],"sales":{"202602":1078}},{"id":"MA010120220813314863","name":"최애뭉티기소국밥","industry":"국/탕/찌개류","coordinates":[127.372756597756,36.3477655193715],"sales":{"202602":1449}},{"id":"MA010120220813345949","name":"30초커피","industry":"카페","coordinates":[127.37235547845,36.3477487463987],"sales":{"202602":532}},{"id":"MA010120220813384856","name":"아이스꽁꽁","industry":"수산물 소매업","coordinates":[127.372906400209,36.3488104155903],"sales":{"202602":5232}},{"id":"MA010120220813409657","name":"메가엠지씨커피대전","industry":"카페","coordinates":[127.370350055035,36.3477009078211],"sales":{"202602":493}},{"id":"MA010120220813436213","name":"주원항공여행사","industry":"여행사","coordinates":[127.377683222988,36.3460288048341],"sales":{"202602":4212}},{"id":"MA010120220813475415","name":"소담족발서구","industry":"족발/보쌈","coordinates":[127.371346191132,36.3439939834277],"sales":{"202602":2119}},{"id":"MA010120220813479888","name":"대박노래연습장","industry":"노래방","coordinates":[127.370896162272,36.3477532846379],"sales":{"202602":995}},{"id":"MA010120220813484742","name":"굿에프터눈","industry":"안경렌즈 소매업","coordinates":[127.371651068469,36.3425151065284],"sales":{"202602":991}},{"id":"MA010120220813500108","name":"둔산그랜드볼링센터","industry":"볼링장","coordinates":[127.376932224789,36.3450669178791],"sales":{"202602":3137}},{"id":"MA010120220813550654","name":"돈돈대패삼겹살","industry":"돼지고기 구이/찜","coordinates":[127.377707848916,36.3419013408657],"sales":{"202602":1241}},{"id":"MA010120220813553305","name":"배떡","industry":"백반/한정식","coordinates":[127.377651718935,36.3418114006203],"sales":{"202602":1141}},{"id":"MA010120220813557219","name":"워낭","industry":"돼지고기 구이/찜","coordinates":[127.375160204283,36.3472172922846],"sales":{"202602":635}},{"id":"MA010120220813595507","name":"혜성아이비에스","industry":"건축물 일반 청소업","coordinates":[127.369954521336,36.3488646495151],"sales":{"202602":295}},{"id":"MA010120220813642925","name":"그린당구장","industry":"당구장","coordinates":[127.370058202442,36.3472332005881],"sales":{"202602":284}},{"id":"MA010120220813669561","name":"그랜드마트","industry":"슈퍼마켓","coordinates":[127.376932224789,36.3450669178791],"sales":{"202602":20218}},{"id":"MA010120220813688047","name":"태양","industry":"건축물 일반 청소업","coordinates":[127.373559482558,36.3479342355891],"sales":{"202602":190}},{"id":"MA010120220813691363","name":"소리샘모바일","industry":"핸드폰 소매업","coordinates":[127.369580172853,36.3474419503717],"sales":{"202602":281}},{"id":"MA010120220813694530","name":"악어수학교습소","industry":"입시·교과학원","coordinates":[127.375970254862,36.3419248434924],"sales":{"202602":1935}},{"id":"MA010120220813697530","name":"호박꽃마차","industry":"일식 회/초밥","coordinates":[127.373692859218,36.3478707362874],"sales":{"202602":2694}},{"id":"MA010120220813765771","name":"엄마찬스분식","industry":"김밥/만두/분식","coordinates":[127.37235547845,36.3477487463987],"sales":{"202602":384}},{"id":"MA010120220813782510","name":"세븐대전갈마둔원점","industry":"편의점","coordinates":[127.376724407073,36.3412375744858],"sales":{"202602":3214}},{"id":"MA010120220813786150","name":"푸른세탁소","industry":"세탁소","coordinates":[127.37125284213,36.3431021089499],"sales":{"202602":152}},{"id":"MA010120220813786222","name":"에바다","industry":"여성 의류 소매업","coordinates":[127.377964393752,36.3419726238755],"sales":{"202602":204}},{"id":"MA010120220813814908","name":"땅스부대찌개","industry":"국/탕/찌개류","coordinates":[127.37806699675,36.3424589345131],"sales":{"202602":1249}},{"id":"MA010120220813849230","name":"뷰티앤제이","industry":"화장품 소매업","coordinates":[127.376932224789,36.3450669178791],"sales":{"202602":573}},{"id":"MA010120220813859752","name":"보강한방병원","industry":"한방병원","coordinates":[127.371868114154,36.3506790840642],"sales":{"202602":25263}},{"id":"MA010120220813938091","name":"아임일리터","industry":"카페","coordinates":[127.372688771066,36.3475584605337],"sales":{"202602":633}},{"id":"MA010120220813939886","name":"뉴새우리공인중개사","industry":"부동산 중개/대리업","coordinates":[127.372166058673,36.3477403247142],"sales":{"202602":2387}},{"id":"MA010120220813941046","name":"동양구조기술사사무소","industry":"건축 설계 및 관련 서비스업","coordinates":[127.374471575495,36.3453179713147],"sales":{"202602":366}},{"id":"MA010120220813942873","name":"고기싸롱","industry":"돼지고기 구이/찜","coordinates":[127.376853183626,36.3471578948215],"sales":{"202602":543}},{"id":"MA010120220813947169","name":"현성이엔씨","industry":"건축 설계 및 관련 서비스업","coordinates":[127.377932283052,36.3422430783127],"sales":{"202602":974}},{"id":"MA010120220813995633","name":"봉숙이네","industry":"백반/한정식","coordinates":[127.37290145837,36.3477740791754],"sales":{"202602":612}},{"id":"MA010120220814017952","name":"에스노래연습장","industry":"노래방","coordinates":[127.373692859218,36.3478707362874],"sales":{"202602":1070}},{"id":"MA010120220814032484","name":"벨라터치아이","industry":"피부 관리실","coordinates":[127.372454706726,36.3475321550184],"sales":{"202602":534}},{"id":"MA010120220814033298","name":"로보티머","industry":"카페","coordinates":[127.3747807622,36.3470742948023],"sales":{"202602":602}},{"id":"MA010120220814033713","name":"행복식당","industry":"백반/한정식","coordinates":[127.373768253775,36.3473297951419],"sales":{"202602":1028}},{"id":"MA010120220814050384","name":"정민세무회계","industry":"세무사","coordinates":[127.378626028561,36.3451877279693],"sales":{"202602":1061}},{"id":"MA010120220814062136","name":"늘푸른건강원","industry":"건강보조식품 소매업","coordinates":[127.37125284213,36.3431021089499],"sales":{"202602":840}},{"id":"MA010120220814066556","name":"이성과감성","industry":"광고물 설계/제작업","coordinates":[127.374541530643,36.3413165297212],"sales":{"202602":477}},{"id":"MA010120220814084528","name":"알-키친","industry":"돼지고기 구이/찜","coordinates":[127.376231348734,36.3406263276996],"sales":{"202602":1188}},{"id":"MA010120220814121244","name":"미스대패삼겹","industry":"돼지고기 구이/찜","coordinates":[127.374095592322,36.3458959014549],"sales":{"202602":1333}},{"id":"MA010120220814129569","name":"메이헤어","industry":"미용실","coordinates":[127.374687758464,36.3485885613267],"sales":{"202602":339}},{"id":"MA010120220814141289","name":"오","industry":"요리 주점","coordinates":[127.370896162272,36.3477532846379],"sales":{"202602":919}},{"id":"MA010120220814160801","name":"아수라","industry":"돼지고기 구이/찜","coordinates":[127.374409924733,36.3440745415997],"sales":{"202602":4930}},{"id":"MA010120220814175472","name":"아이예뻐","industry":"피부 관리실","coordinates":[127.372552689477,36.3470542264831],"sales":{"202602":569}},{"id":"MA010120220814235242","name":"만점24스터디카페경성큰","industry":"독서실/스터디 카페","coordinates":[127.376709322179,36.3473566070318],"sales":{"202602":2494}},{"id":"MA010120220814239777","name":"더벨류컨설팅","industry":"그 외 기타 교육기관","coordinates":[127.376133307616,36.3434022594791],"sales":{"202602":1389}},{"id":"MA010120220814251647","name":"떡미르","industry":"떡/한과","coordinates":[127.379121930452,36.3440777094406],"sales":{"202602":758}},{"id":"MA010120220814302000","name":"권홍패밀리헤어","industry":"미용실","coordinates":[127.376997044345,36.3469591824357],"sales":{"202602":244}},{"id":"MA010120220814390806","name":"대림석쇠구이","industry":"돼지고기 구이/찜","coordinates":[127.377915673277,36.3457216702111],"sales":{"202602":874}},{"id":"MA0101202209A0028404","name":"알파네트웍스","industry":"핸드폰/통신장비 수리업","coordinates":[127.371379613027,36.3510320615807],"sales":{"202602":275}},{"id":"MA0101202209A0028569","name":"감성커피대전","industry":"카페","coordinates":[127.374510603864,36.3464893775757],"sales":{"202602":392}},{"id":"MA0101202209A0036525","name":"지에스25","industry":"편의점","coordinates":[127.370574549042,36.343356543561],"sales":{"202602":4259}},{"id":"MA0101202209A0048660","name":"삼십구","industry":"컴퓨터/노트북/프린터 수리업","coordinates":[127.372542408339,36.3472344936736],"sales":{"202602":595}},{"id":"MA0101202209A0052428","name":"덩이덩이","industry":"애완동물/애완용품 소매업","coordinates":[127.371828565659,36.3493905264802],"sales":{"202602":299}},{"id":"MA0101202209A0063724","name":"위너스타트","industry":"광고 대행업","coordinates":[127.372949785172,36.3415558135869],"sales":{"202602":2361}},{"id":"MA0101202209A0090797","name":"이예원디자인스튜디오","industry":"시각 디자인업","coordinates":[127.373887799657,36.3443735643945],"sales":{"202602":130}},{"id":"MA0101202209A0091740","name":"더온리원클린","industry":"산업설비, 운송장비 및 공공장소 청소업","coordinates":[127.372500296068,36.3477482950672],"sales":{"202602":117}},{"id":"MA0101202210A0003081","name":"온리유공인중개사사무소","industry":"부동산 중개/대리업","coordinates":[127.374149625681,36.3432192394749],"sales":{"202602":3486}},{"id":"MA0101202210A0042026","name":"커피마루","industry":"카페","coordinates":[127.370176729971,36.3463857282172],"sales":{"202602":1634}},{"id":"MA0101202210A0057183","name":"쏭라벨","industry":"여성 의류 소매업","coordinates":[127.377220316458,36.3470576071695],"sales":{"202602":551}},{"id":"MA0101202210A0081081","name":"포시즌","industry":"가발 소매업","coordinates":[127.374227485799,36.3408669252558],"sales":{"202602":896}},{"id":"MA0101202211A0000443","name":"알리몰","industry":"산업설비, 운송장비 및 공공장소 청소업","coordinates":[127.376179555191,36.3414375495927],"sales":{"202602":254}},{"id":"MA0101202211A0005577","name":"나무인테리어","industry":"인테리어 디자인업","coordinates":[127.370474431837,36.3504400957123],"sales":{"202602":1028}},{"id":"MA0101202211A0025290","name":"가온미리내","industry":"장례식장","coordinates":[127.372259239076,36.3462530945351],"sales":{"202602":6711}},{"id":"MA0101202211A0026341","name":"지에스25경성스카이","industry":"편의점","coordinates":[127.377306193679,36.3417674331854],"sales":{"202602":2754}},{"id":"MA0101202211A0029591","name":"대전필","industry":"슈퍼마켓","coordinates":[127.369790745621,36.3495680732979],"sales":{"202602":3383}},{"id":"MA0101202211A0038498","name":"둔산간호학원부설국민안전교육원","industry":"기타 교육지원 서비스업","coordinates":[127.375967984179,36.3484043052551],"sales":{"202602":1307}},{"id":"MA0101202211A0045910","name":"글로벌엔터","industry":"임시/일용 인력 공급업","coordinates":[127.374584952242,36.348057190113],"sales":{"202602":31764}},{"id":"MA0101202211A0050502","name":"윤이나클린","industry":"건축물 일반 청소업","coordinates":[127.374215182946,36.3406236460967],"sales":{"202602":192}},{"id":"MA0101202211A0057463","name":"벳크라","industry":"경영 컨설팅업","coordinates":[127.371128815466,36.3474822096182],"sales":{"202602":4072}},{"id":"MA0101202211A0075887","name":"플로델디아","industry":"꽃집","coordinates":[127.370229783109,36.3458268347937],"sales":{"202602":249}},{"id":"MA0101202211A0080828","name":"순수클린","industry":"건축물 일반 청소업","coordinates":[127.370609845451,36.3437529516743],"sales":{"202602":128}},{"id":"MA0101202212A0014310","name":"리코공방","industry":"예술품 소매업","coordinates":[127.374835460441,36.3422167846095],"sales":{"202602":201}},{"id":"MA0101202212A0018280","name":"회랑","industry":"횟집","coordinates":[127.37396829534,36.3472300399743],"sales":{"202602":937}},{"id":"MA0101202212A0034828","name":"포차1번지먹새통","industry":"요리 주점","coordinates":[127.374533401024,36.3465974472154],"sales":{"202602":488}},{"id":"MA0101202212A0035348","name":"그린아일스튜디오","industry":"사진촬영업","coordinates":[127.373503504553,36.3408782018889],"sales":{"202602":614}},{"id":"MA0101202212A0045893","name":"이마트24","industry":"편의점","coordinates":[127.370171312903,36.34524125152],"sales":{"202602":1043}},{"id":"MA0101202212A0049607","name":"육이네","industry":"백반/한정식","coordinates":[127.375309345718,36.3481179995067],"sales":{"202602":680}},{"id":"MA0101202212A0051285","name":"러프스튜디오","industry":"사진촬영업","coordinates":[127.373503504553,36.3408782018889],"sales":{"202602":776}},{"id":"MA0101202212A0065138","name":"헤어존","industry":"미용실","coordinates":[127.373671742185,36.348114119715],"sales":{"202602":580}},{"id":"MA0101202212A0092167","name":"대프리카","industry":"정육점","coordinates":[127.369790745621,36.3495680732979],"sales":{"202602":3786}},{"id":"MA0101202301A0022293","name":"더웰플러스","industry":"경영 컨설팅업","coordinates":[127.369840734817,36.3483603434206],"sales":{"202602":497}},{"id":"MA0101202301A0041370","name":"드림공인중개사사무소","industry":"부동산 중개/대리업","coordinates":[127.37769619045,36.346407257633],"sales":{"202602":4824}},{"id":"MA0101202301A0079456","name":"마숑","industry":"백반/한정식","coordinates":[127.372756597756,36.3477655193715],"sales":{"202602":461}},{"id":"MA0101202302A0008624","name":"철길부산집","industry":"요리 주점","coordinates":[127.374221275204,36.3465533662651],"sales":{"202602":486}},{"id":"MA0101202302A0016448","name":"크레타PC방","industry":"PC방","coordinates":[127.374439580874,36.3456154596108],"sales":{"202602":2517}},{"id":"MA0101202302A0019509","name":"로운헤어","industry":"미용실","coordinates":[127.372183557029,36.3420538493865],"sales":{"202602":468}},{"id":"MA0101202302A0034405","name":"세븐일레븐대전뉴둔원점","industry":"편의점","coordinates":[127.376633994269,36.3409675065157],"sales":{"202602":5867}},{"id":"MA0101202302A0035780","name":"달달회","industry":"수산물 소매업","coordinates":[127.370911816993,36.3463564136254],"sales":{"202602":3883}},{"id":"MA0101202302A0056731","name":"로하뷰티","industry":"피부 관리실","coordinates":[127.374909071075,36.3413063655111],"sales":{"202602":359}},{"id":"MA0101202302A0064622","name":"베리유네일VERYUNAIL","industry":"네일숍","coordinates":[127.372183557029,36.3420538493865],"sales":{"202602":74}},{"id":"MA0101202302A0068542","name":"커피폴인","industry":"카페","coordinates":[127.371707098861,36.3472731418534],"sales":{"202602":721}},{"id":"MA0101202302A0075653","name":"청소응급실","industry":"건축물 일반 청소업","coordinates":[127.373975406192,36.3440578786402],"sales":{"202602":190}},{"id":"MA0101202302A0097512","name":"눕시","industry":"카페","coordinates":[127.374470885122,36.3451737853308],"sales":{"202602":1516}},{"id":"MA0101202302A0099344","name":"올리브영대전","industry":"화장품 소매업","coordinates":[127.370336994821,36.3472954192275],"sales":{"202602":422}},{"id":"MA0101202302A0105301","name":"오케이노래연습장","industry":"노래방","coordinates":[127.374221275204,36.3465533662651],"sales":{"202602":648}},{"id":"MA0101202303A0003760","name":"네일루아","industry":"네일숍","coordinates":[127.369899617437,36.3513881103906],"sales":{"202602":123}},{"id":"MA0101202303A0006537","name":"오지네소국밥","industry":"국/탕/찌개류","coordinates":[127.374129743846,36.3460489944301],"sales":{"202602":1866}},{"id":"MA0101202303A0015927","name":"큰마을GDR","industry":"골프 연습장","coordinates":[127.376932224789,36.3450669178791],"sales":{"202602":265}},{"id":"MA0101202303A0020255","name":"노무컨설팅창천","industry":"공인노무사","coordinates":[127.374584952242,36.348057190113],"sales":{}},{"id":"MA0101202303A0023534","name":"서서히이루어지는","industry":"빵/도넛","coordinates":[127.37086433892,36.3504388862495],"sales":{"202602":1041}},{"id":"MA0101202303A0031042","name":"뷰티피크","industry":"피부 관리실","coordinates":[127.36954783586,36.3500284241925],"sales":{"202602":200}},{"id":"MA0101202303A0035683","name":"엠에스종합상사","industry":"그 외 기타 개인/가정용품 수리업","coordinates":[127.375042737827,36.3413059461107],"sales":{"202602":7916}},{"id":"MA0101202303A0036508","name":"연리지건강생활","industry":"건강보조식품 소매업","coordinates":[127.373066750073,36.3473950695091],"sales":{"202602":1118}},{"id":"MA0101202303A0059475","name":"미소상사","industry":"벽지/장판/마루 소매업","coordinates":[127.376968593923,36.3410565691977],"sales":{"202602":23}},{"id":"MA0101202303A0060284","name":"연세보건환경컨설팅","industry":"환경 관련 엔지니어링 서비스업","coordinates":[127.373149719373,36.3461061291597],"sales":{}},{"id":"MA0101202303A0076041","name":"자금통","industry":"경영 컨설팅업","coordinates":[127.374215182946,36.3406236460967],"sales":{"202602":1659}},{"id":"MA0101202303A0088163","name":"요가솔필라테스","industry":"요가/필라테스 학원","coordinates":[127.371379613027,36.3510320615807],"sales":{"202602":308}},{"id":"MA0101202303A0091975","name":"슈슈PMU","industry":"화장품 소매업","coordinates":[127.373071565059,36.3484043711084],"sales":{"202602":1034}},{"id":"MA0101202303A0112292","name":"일공일김밥","industry":"김밥/만두/분식","coordinates":[127.37125284213,36.3431021089499],"sales":{"202602":1024}},