[{"id":"MA010120220800083574","name":"디모에드","industry":"시각 디자인업","coordinates":[127.387194135846,36.3590383613246],"sales":{"202602":149}},{"id":"MA010120220800084998","name":"썰스데이파티","industry":"요리 주점","coordinates":[127.374620571918,36.3508417100773],"sales":{"202602":372}},{"id":"MA010120220800102926","name":"테이크어픽쳐","industry":"사진촬영업","coordinates":[127.377276465284,36.3540775834152],"sales":{"202602":375}},{"id":"MA010120220800103913","name":"연세W의원","industry":"피부/비뇨기과 의원","coordinates":[127.378168576315,36.3519479912434],"sales":{"202602":21688}},{"id":"MA010120220800104182","name":"멘야산다이메","industry":"일식 회/초밥","coordinates":[127.377267942483,36.3523113080357],"sales":{"202602":3648}},{"id":"MA010120220800140000","name":"대패촌","industry":"돼지고기 구이/찜","coordinates":[127.389778896649,36.3590209456752],"sales":{"202602":1858}},{"id":"MA010120220800257372","name":"플로스유화","industry":"꽃집","coordinates":[127.377071963104,36.3555651666805],"sales":{"202602":551}},{"id":"MA010120220800292835","name":"디에스성형외과","industry":"성형외과 의원","coordinates":[127.37698788456,36.3496807609778],"sales":{"202602":26494}},{"id":"MA010120220800296476","name":"김미연아임산부인과","industry":"산부인과 의원","coordinates":[127.37698788456,36.3496807609778],"sales":{"202602":7020}},{"id":"MA010120220800299638","name":"어메이징크리갤러리아","industry":"기타 의류 소매업","coordinates":[127.378168576315,36.3519479912434],"sales":{"202602":2711}},{"id":"MA010120220800382958","name":"바로바로설비","industry":"그 외 기타 개인/가정용품 수리업","coordinates":[127.380075395952,36.3500224389507],"sales":{"202602":2478}},{"id":"MA010120220800385588","name":"케이투갤러리아","industry":"기타 의류 소매업","coordinates":[127.378168576315,36.3519479912434],"sales":{"202602":1373}},{"id":"MA010120220800456554","name":"위짐","industry":"헬스장","coordinates":[127.377810522699,36.3539317081003],"sales":{"202602":561}},{"id":"MA010120220800549114","name":"훈에듀케이션","industry":"레크리에이션 교육기관","coordinates":[127.378270037816,36.354497994224],"sales":{"202602":601}},{"id":"MA010120220800567212","name":"커피광장","industry":"카페","coordinates":[127.380835806905,36.3460368231081],"sales":{"202602":2346}},{"id":"MA010120220800603511","name":"갤러리아타임월드타임옴므손완섭","industry":"남성 의류 소매업","coordinates":[127.378168576315,36.3519479912434],"sales":{"202602":4785}},{"id":"MA010120220800634610","name":"김수현헤어플러스","industry":"미용실","coordinates":[127.381382151859,36.3484231955638],"sales":{"202602":1744}},{"id":"MA010120220800679501","name":"스튜디오나무","industry":"사진촬영업","coordinates":[127.37538455539,36.3521820632166],"sales":{"202602":753}},{"id":"MA010120220800681803","name":"어나더","industry":"요리 주점","coordinates":[127.376827557968,36.3510870997799],"sales":{"202602":2522}},{"id":"MA010120220800681815","name":"엘린요가앤필라테스","industry":"요가/필라테스 학원","coordinates":[127.389090327706,36.3594647648483],"sales":{"202602":405}},{"id":"MA010120220800693745","name":"짬뽕관","industry":"중국집","coordinates":[127.381695982948,36.3533786551983],"sales":{"202602":3131}},{"id":"MA010120220800700377","name":"제니키친","industry":"백반/한정식","coordinates":[127.374153888586,36.3510955012398],"sales":{"202602":1583}},{"id":"MA010120220800757666","name":"블루밍식당","industry":"요리 주점","coordinates":[127.380598458515,36.3544906005236],"sales":{"202602":1283}},{"id":"MA010120220800759674","name":"능두네","industry":"베트남식 전문","coordinates":[127.378168576315,36.3519479912434],"sales":{"202602":6842}},{"id":"MA010120220800759853","name":"서보통신","industry":"핸드폰 소매업","coordinates":[127.381382151859,36.3484231955638],"sales":{"202602":234}},{"id":"MA010120220800760249","name":"터닝포인트헤어대전","industry":"미용실","coordinates":[127.377808040557,36.353418046456],"sales":{"202602":1572}},{"id":"MA010120220800766721","name":"이삭","industry":"피자","coordinates":[127.37538455539,36.3521820632166],"sales":{"202602":1987}},{"id":"MA010120220800778937","name":"산오징어양푼무침","industry":"횟집","coordinates":[127.377152843084,36.3515456727669],"sales":{"202602":1171}},{"id":"MA010120220800801854","name":"이로갤러리아타임월드남성","industry":"기타 의류 소매업","coordinates":[127.378168576315,36.3519479912434],"sales":{"202602":2561}},{"id":"MA010120220800811941","name":"연세해맑은치과의원","industry":"치과의원","coordinates":[127.376752398308,36.3516731004729],"sales":{"202602":6142}},{"id":"MA010120220800814598","name":"태진기술주","industry":"기타 엔지니어링 서비스업","coordinates":[127.380678296849,36.3594468029934],"sales":{"202602":462}},{"id":"MA010120220800830769","name":"디앤알","industry":"시장 조사 및 여론 조사업","coordinates":[127.377809782405,36.3537785107725],"sales":{"202602":10498}},{"id":"MA010120220800930156","name":"세무법인한울세무그룹","industry":"세무사","coordinates":[127.382589435076,36.3469954794433],"sales":{"202602":703}},{"id":"MA010120220801051725","name":"둔산한증막백반","industry":"백반/한정식","coordinates":[127.381683005614,36.3507202313707],"sales":{"202602":2145}},{"id":"MA010120220801052274","name":"원클래스피티","industry":"헬스장","coordinates":[127.379985847704,36.3545195854458],"sales":{"202602":183}},{"id":"MA010120220801054161","name":"이아이하이컨설팅","industry":"경영 컨설팅업","coordinates":[127.379986898875,36.3547358639438],"sales":{"202602":1064}},{"id":"MA010120220801142057","name":"주원김의중세무사무소","industry":"세무사","coordinates":[127.382612596255,36.3471756403669],"sales":{"202602":849}},{"id":"MA010120220801145940","name":"바운스테니스샵","industry":"운동용품 소매업","coordinates":[127.377802952814,36.3546706950867],"sales":{"202602":7884}},{"id":"MA010120220801147961","name":"꿀잼동전노래연습장","industry":"노래방","coordinates":[127.37602281377,36.3505399180467],"sales":{"202602":789}},{"id":"MA010120220801249466","name":"에이앤씨항공아카데미주","industry":"기타 기술/직업 훈련학원","coordinates":[127.376207474027,36.3518730757825],"sales":{"202602":620}},{"id":"MA010120220801318489","name":"봉명순대","industry":"국/탕/찌개류","coordinates":[127.378271345848,36.3547683424],"sales":{"202602":1712}},{"id":"MA010120220801516595","name":"닥스갤러리아대전","industry":"신발 소매업","coordinates":[127.378168576315,36.3519479912434],"sales":{"202602":218}},{"id":"MA010120220801521387","name":"갤러리아타임월드FILA","industry":"기타 의류 소매업","coordinates":[127.378168576315,36.3519479912434],"sales":{"202602":2532}},{"id":"MA010120220801573647","name":"알레르망대전","industry":"침구류/커튼 소매업","coordinates":[127.37898339658,36.354567827786],"sales":{"202602":606}},{"id":"MA010120220801940177","name":"갤러리아타임월드트랜짓","industry":"기타 의류 소매업","coordinates":[127.378168576315,36.3519479912434],"sales":{"202602":1228}},{"id":"MA010120220801956074","name":"한국지문심리상담협동조합","industry":"유사 의료업","coordinates":[127.378841672693,36.3529101161085],"sales":{"202602":909}},{"id":"MA010120220802056231","name":"엄경희갈비김치찌개","industry":"백반/한정식","coordinates":[127.381386155946,36.3538122082134],"sales":{"202602":2405}},{"id":"MA010120220802084871","name":"생태명가","industry":"백반/한정식","coordinates":[127.389110367729,36.3590141129115],"sales":{"202602":5801}},{"id":"MA010120220802243559","name":"닥스셔츠갤러리아","industry":"기타 의류 소매업","coordinates":[127.378168576315,36.3519479912434],"sales":{"202602":250}},{"id":"MA010120220802277458","name":"별달돈까스카페","industry":"경양식","coordinates":[127.377152843084,36.3515456727669],"sales":{"202602":4369}},{"id":"MA010120220802278556","name":"세븐데이즈왁싱","industry":"피부 관리실","coordinates":[127.375739663839,36.3518925711808],"sales":{"202602":362}},{"id":"MA010120220802288432","name":"리더스","industry":"공인노무사","coordinates":[127.378902762082,36.3471243785024],"sales":{}},{"id":"MA010120220802288433","name":"파이메이커스","industry":"광고 대행업","coordinates":[127.382252704868,36.3533137933499],"sales":{"202602":5535}},{"id":"MA010120220802477667","name":"바이미로","industry":"액세서리/잡화 소매업","coordinates":[127.375544996583,36.3507937496729],"sales":{"202602":1319}},{"id":"MA010120220802500815","name":"브라이튼휘트니스","industry":"헬스장","coordinates":[127.376752398308,36.3516731004729],"sales":{"202602":1037}},{"id":"MA010120220802506681","name":"비케이치과의원","industry":"치과의원","coordinates":[127.376830620539,36.3494109044474],"sales":{"202602":6190}},{"id":"MA010120220802512008","name":"정김밥","industry":"김밥/만두/분식","coordinates":[127.377071963104,36.3555651666805],"sales":{"202602":883}},{"id":"MA010120220802587001","name":"헤어플로우","industry":"미용실","coordinates":[127.378270037816,36.354497994224],"sales":{"202602":1689}},{"id":"MA010120220802587917","name":"특허법률사무소헤브론","industry":"변리사","coordinates":[127.387194135846,36.3590383613246],"sales":{"202602":119}},{"id":"MA010120220802647861","name":"샤인톡스의원","industry":"성형외과 의원","coordinates":[127.379865770793,36.352735641742],"sales":{"202602":13035}},{"id":"MA010120220802648611","name":"오일릴리","industry":"기타 의류 소매업","coordinates":[127.378168576315,36.3519479912434],"sales":{"202602":1995}},{"id":"MA010120220802677017","name":"세븐데이즈","industry":"화장품 소매업","coordinates":[127.375739663839,36.3518925711808],"sales":{"202602":748}},{"id":"MA010120220802679663","name":"샘머리치과의원","industry":"치과의원","coordinates":[127.39432744682,36.3617816339284],"sales":{"202602":4295}},{"id":"MA010120220802686950","name":"갤러리아타임월드EnC","industry":"기타 의류 소매업","coordinates":[127.378168576315,36.3519479912434],"sales":{"202602":2699}},{"id":"MA010120220802739667","name":"닥터부스터","industry":"피부 관리실","coordinates":[127.376902262065,36.3527179906439],"sales":{"202602":1723}},{"id":"MA010120220802741678","name":"아이스왕국","industry":"슈퍼마켓","coordinates":[127.376303623277,36.3533326761399],"sales":{"202602":6290}},{"id":"MA010120220802754634","name":"애프터스쿨사회적협동조합","industry":"기타 교육지원 서비스업","coordinates":[127.380234731956,36.3507158367826],"sales":{"202602":1739}},{"id":"MA010120220802801621","name":"팬트하우스리빙텔","industry":"기숙사/고시원","coordinates":[127.389090327706,36.3594647648483],"sales":{"202602":1123}},{"id":"MA010120220802834524","name":"대전둔산아이스크림","industry":"슈퍼마켓","coordinates":[127.39432744682,36.3617816339284],"sales":{"202602":12591}},{"id":"MA010120220802847988","name":"나우고","industry":"여행사","coordinates":[127.378384145358,36.3504513584919],"sales":{"202602":1553}},{"id":"MA010120220802859851","name":"타임월드스노우피크","industry":"기타 의류 소매업","coordinates":[127.378168576315,36.3519479912434],"sales":{"202602":1174}},{"id":"MA010120220802887055","name":"유소춘의낙곱새","industry":"해산물 구이/찜","coordinates":[127.377251140096,36.3534468411863],"sales":{"202602":4019}},{"id":"MA010120220802897524","name":"벤츠노래연습장","industry":"노래방","coordinates":[127.376885758414,36.3539166049564],"sales":{"202602":591}},{"id":"MA010120220802914380","name":"엘에스엠컴퍼니","industry":"자동차 대여업","coordinates":[127.376885758414,36.3539166049564],"sales":{"202602":935}},{"id":"MA010120220802924334","name":"세무법인송촌","industry":"세무사","coordinates":[127.382172864605,36.3483756106214],"sales":{"202602":771}},{"id":"MA010120220802933623","name":"나우","industry":"기타 의류 소매업","coordinates":[127.378168576315,36.3519479912434],"sales":{"202602":1480}},{"id":"MA010120220802939448","name":"주원세무회계","industry":"세무사","coordinates":[127.382194178734,36.3504572568232],"sales":{"202602":710}},{"id":"MA010120220802943439","name":"그란데","industry":"미용실","coordinates":[127.377071963104,36.3555651666805],"sales":{"202602":1815}},{"id":"MA010120220802947507","name":"GGPX","industry":"기타 의류 소매업","coordinates":[127.378168576315,36.3519479912434],"sales":{"202602":1067}},{"id":"MA010120220802953253","name":"코코","industry":"기타 의류 소매업","coordinates":[127.376902262065,36.3527179906439],"sales":{"202602":1974}},{"id":"MA010120220802953254","name":"세븐즈헤븐","industry":"요리 주점","coordinates":[127.376265556769,36.3500525193972],"sales":{"202602":1070}},{"id":"MA010120220802955546","name":"론테니스존","industry":"테니스장","coordinates":[127.374883883465,36.3523188112285],"sales":{"202602":275}},{"id":"MA010120220802974146","name":"닥스숙녀갤러리아타임월드","industry":"기타 의류 소매업","coordinates":[127.378168576315,36.3519479912434],"sales":{"202602":578}},{"id":"MA010120220802982689","name":"푸른청소","industry":"건축물 일반 청소업","coordinates":[127.378270037816,36.354497994224],"sales":{"202602":121}},{"id":"MA010120220802993751","name":"리움세무사사무소","industry":"세무사","coordinates":[127.377257942182,36.3502386372781],"sales":{"202602":781}},{"id":"MA010120220802995763","name":"씨큐브","industry":"광고 대행업","coordinates":[127.377809782405,36.3537785107725],"sales":{"202602":4022}},{"id":"MA010120220803006089","name":"굿모닝레지던스호텔휴운영","industry":"사업시설 유지·관리 서비스업","coordinates":[127.381679519384,36.3522882865771],"sales":{"202602":1012}},{"id":"MA010120220803026524","name":"시오리일본어학원","industry":"외국어학원","coordinates":[127.374883883465,36.3523188112285],"sales":{"202602":1744}},{"id":"MA010120220803029979","name":"레드페이스","industry":"기타 의류 소매업","coordinates":[127.37776666297,36.3563830409352],"sales":{"202602":1122}},{"id":"MA010120220803030713","name":"갤러리아타임월드배리","industry":"남성 의류 소매업","coordinates":[127.378168576315,36.3519479912434],"sales":{"202602":859}},{"id":"MA010120220803039259","name":"규카츠정","industry":"일식 카레/돈가스/덮밥","coordinates":[127.378270037816,36.354497994224],"sales":{"202602":909}},{"id":"MA010120220803042393","name":"학화호두과자","industry":"빵/도넛","coordinates":[127.377071963104,36.3555651666805],"sales":{"202602":1451}},{"id":"MA010120220803054576","name":"페세리코","industry":"여성 의류 소매업","coordinates":[127.378168576315,36.3519479912434],"sales":{"202602":607}},{"id":"MA010120220803061548","name":"커스텀멜로우","industry":"남성 의류 소매업","coordinates":[127.378168576315,36.3519479912434],"sales":{"202602":1380}},{"id":"MA010120220803067139","name":"엔제리너스커피둔산한방","industry":"카페","coordinates":[127.379533702521,36.3462932948054],"sales":{"202602":1255}},{"id":"MA010120220803070965","name":"부동산1107번지","industry":"경양식","coordinates":[127.376487665356,36.3499076318042],"sales":{"202602":10490}},{"id":"MA010120220803077342","name":"피피","industry":"경양식","coordinates":[127.374798427237,36.3507600466109],"sales":{"202602":1487}},{"id":"MA010120220803079606","name":"명화사진관","industry":"사진촬영업","coordinates":[127.377809782405,36.3537785107725],"sales":{"202602":888}},{"id":"MA010120220803087051","name":"핑크하우스","industry":"꽃집","coordinates":[127.377071963104,36.3555651666805],"sales":{"202602":421}},{"id":"MA010120220803093698","name":"갤러리아타임월드아페쎄","industry":"기타 의류 소매업","coordinates":[127.378168576315,36.3519479912434],"sales":{"202602":824}},{"id":"MA010120220803112743","name":"갤러리아타임월드DKNY","industry":"남성 의류 소매업","coordinates":[127.378168576315,36.3519479912434],"sales":{"202602":2903}},{"id":"MA010120220803119391","name":"더스타헤어","industry":"미용실","coordinates":[127.377272638628,36.3532845618812],"sales":{"202602":1196}},{"id":"MA010120220803126789","name":"마왕족발대전둔산","industry":"족발/보쌈","coordinates":[127.378271345848,36.3547683424],"sales":{"202602":1950}},{"id":"MA010120220803133510","name":"상무초밥둔산","industry":"일식 회/초밥","coordinates":[127.377802952814,36.3546706950867],"sales":{"202602":2717}},{"id":"MA010120220803142373","name":"올랑올랑대전","industry":"김밥/만두/분식","coordinates":[127.374033586962,36.3515644888658],"sales":{"202602":1008}},{"id":"MA010120220803147222","name":"소사이어티","industry":"전시/컨벤션/행사 대행 서비스업","coordinates":[127.378914935923,36.3542346103697],"sales":{"202602":2868}},{"id":"MA010120220803152314","name":"블리비의원","industry":"피부/비뇨기과 의원","coordinates":[127.378920748333,36.3531351590337],"sales":{"202602":23470}},{"id":"MA010120220803157545","name":"금조종합건설","industry":"건물 및 토목 엔지니어링 서비스업","coordinates":[127.380199169658,36.3594393167938],"sales":{}},{"id":"MA010120220803160608","name":"새솔공인중개사사무소","industry":"부동산 중개/대리업","coordinates":[127.387194135846,36.3590383613246],"sales":{"202602":2030}},{"id":"MA010120220803162000","name":"페이퍼","industry":"기타 의류 소매업","coordinates":[127.377756386715,36.3542563020707],"sales":{"202602":1866}},{"id":"MA010120220803162946","name":"굽돌이","industry":"돼지고기 구이/찜","coordinates":[127.374311362539,36.3514104193253],"sales":{"202602":2209}},{"id":"MA010120220803169480","name":"프라임모텔","industry":"여관/모텔","coordinates":[127.381347151813,36.3526678410791],"sales":{"202602":11076}},{"id":"MA010120220803173611","name":"야도헤어","industry":"미용실","coordinates":[127.377251140096,36.3534468411863],"sales":{"202602":1911}},{"id":"MA010120220803178438","name":"사랑꽃","industry":"꽃집","coordinates":[127.377071963104,36.3555651666805],"sales":{"202602":397}},{"id":"MA010120220803182420","name":"베스킨라빈스31","industry":"아이스크림/빙수","coordinates":[127.37776666297,36.3563830409352],"sales":{"202602":888}},{"id":"MA010120220803188961","name":"아리유","industry":"가방 소매업","coordinates":[127.377288562712,36.3542758036064],"sales":{"202602":485}},{"id":"MA010120220803194721","name":"엠브레이스카페","industry":"카페","coordinates":[127.382177577079,36.3493398529458],"sales":{"202602":5227}},{"id":"MA010120220803213349","name":"파비아나필리피","industry":"여성 의류 소매업","coordinates":[127.378168576315,36.3519479912434],"sales":{"202602":338}},{"id":"MA010120220803219614","name":"타임월드간트","industry":"기타 의류 소매업","coordinates":[127.378168576315,36.3519479912434],"sales":{"202602":325}},{"id":"MA010120220803240384","name":"우정의무대","industry":"요리 주점","coordinates":[127.376087747947,36.3501431966535],"sales":{"202602":890}},{"id":"MA010120220803248476","name":"시노드","industry":"광고 대행업","coordinates":[127.382238039803,36.3525929006477],"sales":{"202602":1966}},{"id":"MA010120220803248730","name":"정돈갤러리아타임월드","industry":"일식 회/초밥","coordinates":[127.378168576315,36.3519479912434],"sales":{"202602":5695}},{"id":"MA010120220803251228","name":"어니언디자인스튜디오","industry":"광고 대행업","coordinates":[127.382572298718,36.3526008426937],"sales":{"202602":2660}},{"id":"MA010120220803253167","name":"티에스푸드","industry":"백반/한정식","coordinates":[127.37726749881,36.3545281989602],"sales":{"202602":1753}},{"id":"MA010120220803256469","name":"갤러리아타임월드라코스테우먼","industry":"기타 의류 소매업","coordinates":[127.378168576315,36.3519479912434],"sales":{"202602":886}},{"id":"MA010120220803270867","name":"깝툰","industry":"만화방","coordinates":[127.376902262065,36.3527179906439],"sales":{"202602":629}},{"id":"MA010120220803275187","name":"힐링몽냥","industry":"카페","coordinates":[127.377809782405,36.3537785107725],"sales":{"202602":3219}},{"id":"MA010120220803275392","name":"김밥나라","industry":"김밥/만두/분식","coordinates":[127.388141110568,36.3590262771513],"sales":{"202602":3102}},{"id":"MA010120220803278840","name":"알앤디테크","industry":"경영 컨설팅업","coordinates":[127.387194135846,36.3590383613246],"sales":{"202602":2967}},{"id":"MA010120220803285860","name":"라엘","industry":"시계/귀금속 소매업","coordinates":[127.375544996583,36.3507937496729],"sales":{"202602":1101}},{"id":"MA010120220803298451","name":"마이폰수리둔산","industry":"핸드폰/통신장비 수리업","coordinates":[127.378841672693,36.3529101161085],"sales":{"202602":477}},{"id":"MA010120220803303843","name":"알파문구문고대전","industry":"문구/회화용품 소매업","coordinates":[127.384905791764,36.3626864947272],"sales":{"202602":15230}},{"id":"MA010120220803305228","name":"안나엔","industry":"기타 의류 소매업","coordinates":[127.376902262065,36.3527179906439],"sales":{"202602":1193}},{"id":"MA010120220803308167","name":"라드커피둔산","industry":"카페","coordinates":[127.377297007198,36.3537170487435],"sales":{"202602":1220}},{"id":"MA010120220803316013","name":"렌즈미안경","industry":"안경렌즈 소매업","coordinates":[127.37602281377,36.3505399180467],"sales":{"202602":2772}},{"id":"MA010120220803344108","name":"비오비","industry":"남성 의류 소매업","coordinates":[127.378168576315,36.3519479912434],"sales":{"202602":1587}},{"id":"MA010120220803344857","name":"레망아카데미","industry":"기타 기술/직업 훈련학원","coordinates":[127.376885758414,36.3539166049564],"sales":{"202602":1392}},{"id":"MA010120220803351765","name":"케이엠피","industry":"의료기기 소매업","coordinates":[127.377950495098,36.3483169456552],"sales":{"202602":747}},{"id":"MA010120220803352600","name":"워낭명가","industry":"돼지고기 구이/찜","coordinates":[127.382483294712,36.3503481907853],"sales":{"202602":378}},{"id":"MA010120220803365906","name":"앤드지갤러리아","industry":"기타 의류 소매업","coordinates":[127.378168576315,36.3519479912434],"sales":{"202602":768}},{"id":"MA010120220803387415","name":"샤브작","industry":"백반/한정식","coordinates":[127.37836960394,36.3497484879828],"sales":{"202602":1140}},{"id":"MA010120220803388347","name":"하상인행정사사무소","industry":"행정사","coordinates":[127.378270037816,36.354497994224],"sales":{"202602":290}},{"id":"MA010120220803392455","name":"이비블라주","industry":"기타 기술/직업 훈련학원","coordinates":[127.374505711941,36.3524461615302],"sales":{"202602":447}},{"id":"MA010120220803394679","name":"더디자인성형외과의원","industry":"성형외과 의원","coordinates":[127.378619965731,36.3508381167776],"sales":{"202602":12933}},{"id":"MA010120220803396330","name":"신전떡볶이","industry":"김밥/만두/분식","coordinates":[127.376907127498,36.3537272908987],"sales":{"202602":1123}},{"id":"MA010120220803410947","name":"플라워위크앤드","industry":"꽃집","coordinates":[127.377071963104,36.3555651666805],"sales":{"202602":268}},{"id":"MA010120220803418847","name":"본죽&비빔밥대전","industry":"백반/한정식","coordinates":[127.380585606917,36.3541391834549],"sales":{"202602":917}},{"id":"MA010120220803419973","name":"대교에듀캠프대전충청지부","industry":"컴퓨터 학원","coordinates":[127.378914935923,36.3542346103697],"sales":{"202602":25372}},{"id":"MA010120220803441977","name":"이태리국시","industry":"경양식","coordinates":[127.37726080231,36.3531404113097],"sales":{"202602":3170}},{"id":"MA010120220803445690","name":"바니짐","industry":"요가/필라테스 학원","coordinates":[127.377251140096,36.3534468411863],"sales":{"202602":1298}},{"id":"MA010120220803506703","name":"제이제이세무회계","industry":"세무사","coordinates":[127.379680223589,36.3466442878435],"sales":{"202602":2108}},{"id":"MA010120220803530119","name":"나홀로비즈니스스쿨","industry":"경영 컨설팅업","coordinates":[127.378270037816,36.354497994224],"sales":{"202602":1088}},{"id":"MA010120220803530939","name":"돈가츠모다","industry":"일식 카레/돈가스/덮밥","coordinates":[127.37823496385,36.3495506556927],"sales":{"202602":1532}},{"id":"MA010120220803532370","name":"연안식당","industry":"백반/한정식","coordinates":[127.379865770793,36.352735641742],"sales":{"202602":3719}},{"id":"MA010120220803552406","name":"서울여성병원","industry":"일반병원","coordinates":[127.380587754457,36.3454248139112],"sales":{"202602":13277}},{"id":"MA010120220803556462","name":"메모리스","industry":"요리 주점","coordinates":[127.382144023343,36.347032951643],"sales":{"202602":600}},{"id":"MA010120220803573152","name":"디퍼니온","industry":"광고 대행업","coordinates":[127.374883883465,36.3523188112285],"sales":{"202602":737}},{"id":"MA010120220803574350","name":"킹당구장","industry":"당구장","coordinates":[127.388720418704,36.3590153821647],"sales":{"202602":258}},{"id":"MA010120220803576348","name":"갤러리아타임월드잇미샤","industry":"기타 의류 소매업","coordinates":[127.378168576315,36.3519479912434],"sales":{"202602":1133}},{"id":"MA010120220803577821","name":"둔산테니스앤줌바","industry":"기타 예술/스포츠 교육기관","coordinates":[127.37726749881,36.3545281989602],"sales":{"202602":522}},{"id":"MA010120220803579584","name":"청사노래연습장","industry":"노래방","coordinates":[127.388141110568,36.3590262771513],"sales":{"202602":1773}},{"id":"MA010120220803583908","name":"캄헤어클럽","industry":"미용실","coordinates":[127.377810522699,36.3539317081003],"sales":{"202602":566}},{"id":"MA010120220803707443","name":"컴프프로","industry":"가구 소매업","coordinates":[127.378168576315,36.3519479912434],"sales":{"202602":1372}},{"id":"MA010120220803707566","name":"삼백당","industry":"베트남식 전문","coordinates":[127.381315378071,36.3507214050461],"sales":{"202602":3083}},{"id":"MA010120220803712703","name":"이함국제특허법률사무소","industry":"변리사","coordinates":[127.387194135846,36.3590383613246],"sales":{"202602":188}},{"id":"MA010120220803806885","name":"삼성스마일안과의원","industry":"안과 의원","coordinates":[127.37790890611,36.3512368846108],"sales":{"202602":57988}},{"id":"MA010120220803819993","name":"갤러리아타임월드에뜨와","industry":"기타 의류 소매업","coordinates":[127.378168576315,36.3519479912434],"sales":{"202602":3985}},{"id":"MA010120220803844860","name":"픽스업사이클링","industry":"가구 소매업","coordinates":[127.378407317814,36.348333523456],"sales":{"202602":1081}},{"id":"MA010120220803850856","name":"제이유애드","industry":"광고물 설계/제작업","coordinates":[127.375544996583,36.3507937496729],"sales":{"202602":916}},{"id":"MA010120220803864342","name":"이병조헤어","industry":"미용실","coordinates":[127.398948400381,36.3590177167396],"sales":{"202602":2652}},{"id":"MA010120220803877989","name":"동민수산스시츠카무","industry":"일식 회/초밥","coordinates":[127.378168576315,36.3519479912434],"sales":{"202602":506}},{"id":"MA010120220803917091","name":"씨유","industry":"편의점","coordinates":[127.380199169658,36.3594393167938],"sales":{"202602":11641}},{"id":"MA010120220803923581","name":"둔산을지약국","industry":"약국","coordinates":[127.382245441329,36.3541068500607],"sales":{"202602":5029}},{"id":"MA010120220803925328","name":"스튜디오토리","industry":"사진촬영업","coordinates":[127.38159551098,36.3510539454998],"sales":{"202602":630}},{"id":"MA010120220803925992","name":"파리바게뜨","industry":"빵/도넛","coordinates":[127.392653648896,36.3590656036205],"sales":{"202602":1092}},{"id":"MA010120220804047841","name":"탑텐키즈이마트","industry":"유아용 의류 소매업","coordinates":[127.37776666297,36.3563830409352],"sales":{"202602":66}},{"id":"MA010120220804106612","name":"케이에스글로벌통상","industry":"운동용품 소매업","coordinates":[127.378168576315,36.3519479912434],"sales":{"202602":2043}},{"id":"MA010120220804117445","name":"던킨도너츠","industry":"빵/도넛","coordinates":[127.37821775861,36.352903080791],"sales":{"202602":1520}},{"id":"MA010120220804158819","name":"케이더블유","industry":"예식장업","coordinates":[127.3876508888,36.3590278686021],"sales":{"202602":22384}},{"id":"MA010120220804206879","name":"둔산스타공인중개사사무소","industry":"부동산 중개/대리업","coordinates":[127.382238039803,36.3525929006477],"sales":{"202602":3539}},{"id":"MA010120220804286031","name":"헤지스남성갤러리아타임월드","industry":"기타 의류 소매업","coordinates":[127.378168576315,36.3519479912434],"sales":{"202602":522}},{"id":"MA010120220804318592","name":"아비쥬의원","industry":"피부/비뇨기과 의원","coordinates":[127.37874036014,36.3526941553509],"sales":{"202602":19823}},{"id":"MA010120220804324413","name":"돈치킨","industry":"치킨","coordinates":[127.376914556439,36.3552682757785],"sales":{"202602":1476}},{"id":"MA010120220804327894","name":"딥디크갤러리아타임월드","industry":"화장품 소매업","coordinates":[127.378168576315,36.3519479912434],"sales":{"202602":289}},{"id":"MA010120220804329667","name":"365디지털치과","industry":"치과의원","coordinates":[127.376308295898,36.3496738912443],"sales":{"202602":7639}},{"id":"MA010120220804332024","name":"더큐이스케이프","industry":"기타 오락장","coordinates":[127.376207474027,36.3518730757825],"sales":{"202602":2460}},{"id":"MA010120220804338980","name":"제일홍익학원","industry":"입시·교과학원","coordinates":[127.382189201596,36.3494389450239],"sales":{"202602":1696}},{"id":"MA010120220804391110","name":"채플린","industry":"요리 주점","coordinates":[127.374868206503,36.35137262675],"sales":{"202602":1140}},{"id":"MA010120220804414042","name":"풍전","industry":"경영 컨설팅업","coordinates":[127.37581448479,36.3512344781928],"sales":{"202602":2352}},{"id":"MA010120220804501074","name":"둔산힐정신건강의학과의원","industry":"내과/소아과 의원","coordinates":[127.379985847704,36.3545195854458],"sales":{"202602":14118}},{"id":"MA010120220804606738","name":"이비자태닝","industry":"피부 관리실","coordinates":[127.375544996583,36.3507937496729],"sales":{"202602":687}},{"id":"MA010120220804610571","name":"에이노이","industry":"미용실","coordinates":[127.376308295898,36.3496738912443],"sales":{"202602":1870}},{"id":"MA010120220804660574","name":"준우디앤씨","industry":"부동산 중개/대리업","coordinates":[127.378374927768,36.3554529069255],"sales":{"202602":4080}},{"id":"MA010120220804661050","name":"디와이엘피트니스","industry":"헬스장","coordinates":[127.380611222501,36.3548239943632],"sales":{"202602":565}},{"id":"MA010120220804662500","name":"마리앤쥬","industry":"기타 오락장","coordinates":[127.37581448479,36.3512344781928],"sales":{"202602":1579}},{"id":"MA010120220804760298","name":"새늘국제특허법률사무소","industry":"변리사","coordinates":[127.378841672693,36.3529101161085],"sales":{"202602":263}},{"id":"MA010120220804766420","name":"을지나은약국","industry":"약국","coordinates":[127.382245441329,36.3541068500607],"sales":{"202602":8651}},{"id":"MA010120220804792339","name":"피자마루","industry":"피자","coordinates":[127.380075395952,36.3500224389507],"sales":{"202602":1774}},{"id":"MA010120220804798107","name":"제이유아헤어살롱","industry":"미용실","coordinates":[127.373898265161,36.3512224658576],"sales":{"202602":644}},{"id":"MA010120220804813463","name":"카일이삼제스퍼","industry":"자동차 대여업","coordinates":[127.380199169658,36.3594393167938],"sales":{"202602":2132}},{"id":"MA010120220804818885","name":"지오다노갤러리아타임월드","industry":"기타 의류 소매업","coordinates":[127.378168576315,36.3519479912434],"sales":{"202602":1900}},{"id":"MA010120220804839215","name":"향촌114공인중개사사무소","industry":"부동산 중개/대리업","coordinates":[127.376303623277,36.3533326761399],"sales":{"202602":2181}},{"id":"MA010120220804841800","name":"피앤디건축발전소","industry":"건축 설계 및 관련 서비스업","coordinates":[127.382174009671,36.348609912509],"sales":{"202602":2897}},{"id":"MA010120220804844791","name":"의치약스카이제일학원","industry":"입시·교과학원","coordinates":[127.382201486835,36.3496732112393],"sales":{"202602":1723}},{"id":"MA010120220804849646","name":"꼼꼼에스테틱","industry":"피부 관리실","coordinates":[127.375657394808,36.3510006666392],"sales":{"202602":586}},{"id":"MA010120220804855333","name":"법무사윤영근사무소","industry":"변리사","coordinates":[127.387194135846,36.3590383613246],"sales":{"202602":371}},{"id":"MA010120220804866076","name":"유우호르몬","industry":"백반/한정식","coordinates":[127.374620571918,36.3508417100773],"sales":{"202602":2630}},{"id":"MA010120220804867536","name":"하이파켓","industry":"요리 주점","coordinates":[127.374443104613,36.3510044778183],"sales":{"202602":979}},{"id":"MA010120220804869370","name":"컬러링네일","industry":"네일숍","coordinates":[127.376303623277,36.3533326761399],"sales":{"202602":891}},{"id":"MA010120220804876897","name":"갤러리아타임월드매직에디션","industry":"기타 의류 소매업","coordinates":[127.378168576315,36.3519479912434],"sales":{"202602":4355}},{"id":"MA010120220804886937","name":"노리노리대전서구","industry":"그 외 기타 교육기관","coordinates":[127.378270037816,36.354497994224],"sales":{"202602":1063}},{"id":"MA010120220804888494","name":"자연약국","industry":"약국","coordinates":[127.389825889032,36.3595074259664],"sales":{"202602":4128}},{"id":"MA010120220804925106","name":"대전둔산빽다방","industry":"카페","coordinates":[127.376356239328,36.3503766568675],"sales":{"202602":2019}},{"id":"MA010120220804930849","name":"한돈한우축산","industry":"정육점","coordinates":[127.380075395952,36.3500224389507],"sales":{"202602":4405}},{"id":"MA010120220804933729","name":"한길특허법률사무소","industry":"변리사","coordinates":[127.388861491318,36.3582579374314],"sales":{"202602":383}},{"id":"MA010120220804945627","name":"티앤티","industry":"화장품 소매업","coordinates":[127.37538455539,36.3521820632166],"sales":{"202602":320}},{"id":"MA010120220804946492","name":"세븐둔산수정점","industry":"편의점","coordinates":[127.37576546299,36.3503064220569],"sales":{"202602":1701}},{"id":"MA010120220804966476","name":"파운드커피대전을지대학교","industry":"카페","coordinates":[127.381983876087,36.3552972365294],"sales":{"202602":2796}},{"id":"MA010120220804978284","name":"스튜디오팍스호원담음","industry":"사진촬영업","coordinates":[127.375013808761,36.3515343813875],"sales":{"202602":368}},{"id":"MA010120220804979484","name":"한솥도시락둔산미라클점","industry":"백반/한정식","coordinates":[127.379723813064,36.3510328726446],"sales":{"202602":826}},{"id":"MA010120220804990988","name":"아프리카공인중개사사무소","industry":"부동산 중개/대리업","coordinates":[127.380945215457,36.3524888882041],"sales":{"202602":1379}},{"id":"MA010120220805005155","name":"에이드포유","industry":"행정사","coordinates":[127.378270037816,36.354497994224],"sales":{"202602":359}},{"id":"MA010120220805056119","name":"도군샤부","industry":"백반/한정식","coordinates":[127.378717521905,36.3502790791405],"sales":{"202602":2317}},{"id":"MA010120220805057011","name":"법무법인마중대전분사무소","industry":"변호사","coordinates":[127.382510421991,36.358170296988],"sales":{"202602":4706}},{"id":"MA010120220805066797","name":"와이비에프","industry":"인테리어 디자인업","coordinates":[127.38261300832,36.3495367180657],"sales":{"202602":359}},{"id":"MA010120220805067243","name":"리하이브","industry":"임시/일용 인력 공급업","coordinates":[127.376885758414,36.3539166049564],"sales":{"202602":67495}},{"id":"MA010120220805070359","name":"둔산밸리공인중개사사무소","industry":"부동산 중개/대리업","coordinates":[127.374393142042,36.3522031970709],"sales":{"202602":902}},{"id":"MA010120220805072528","name":"향마루뜸북장","industry":"백반/한정식","coordinates":[127.382182947495,36.3481592963208],"sales":{"202602":5406}},{"id":"MA010120220805073519","name":"썬스포츠","industry":"운동용품 소매업","coordinates":[127.39432744682,36.3617816339284],"sales":{"202602":5214}},{"id":"MA010120220805086791","name":"다이아미아트센터","industry":"화장품 소매업","coordinates":[127.377152843084,36.3515456727669],"sales":{"202602":575}},{"id":"MA010120220805107392","name":"대전시니어커피협동조합","industry":"카페","coordinates":[127.383471891711,36.354301178784],"sales":{"202602":2201}},{"id":"MA010120220805108857","name":"둥지머리염색","industry":"미용실","coordinates":[127.392653648896,36.3590656036205],"sales":{"202602":2297}},{"id":"MA010120220805110223","name":"화수국제특허법률사무소","industry":"변리사","coordinates":[127.387194135846,36.3590383613246],"sales":{"202602":475}},{"id":"MA010120220805130365","name":"코데즈컴바인갤러리아","industry":"여성 의류 소매업","coordinates":[127.378168576315,36.3519479912434],"sales":{"202602":455}},{"id":"MA010120220805132382","name":"뉴향촌인테리어","industry":"인테리어 디자인업","coordinates":[127.376303623277,36.3533326761399],"sales":{"202602":429}},{"id":"MA010120220805138393","name":"진플학원","industry":"입시·교과학원","coordinates":[127.389090327706,36.3594647648483],"sales":{"202602":2837}},{"id":"MA010120220805145905","name":"파인픽스튜디오","industry":"사진촬영업","coordinates":[127.376902262065,36.3527179906439],"sales":{"202602":816}},{"id":"MA010120220805148623","name":"연화","industry":"꽃집","coordinates":[127.377071963104,36.3555651666805],"sales":{"202602":545}},{"id":"MA010120220805168371","name":"제이아이앤케이","industry":"전시/컨벤션/행사 대행 서비스업","coordinates":[127.374883883465,36.3523188112285],"sales":{"202602":3458}},{"id":"MA010120220805183332","name":"컴퓨터수리","industry":"컴퓨터/노트북/프린터 수리업","coordinates":[127.378270037816,36.354497994224],"sales":{"202602":1004}},{"id":"MA010120220805185000","name":"고릴라","industry":"가방 소매업","coordinates":[127.380123299071,36.3484181948192],"sales":{"202602":657}},{"id":"MA010120220805188525","name":"임대장대전","industry":"돼지고기 구이/찜","coordinates":[127.377205545201,36.3509236957113],"sales":{"202602":587}},{"id":"MA010120220805205457","name":"공주칼국수","industry":"국수/칼국수","coordinates":[127.389090327706,36.3594647648483],"sales":{"202602":3455}},{"id":"MA010120220805205596","name":"차오름타임","industry":"의류/이불 수선업","coordinates":[127.37821775861,36.352903080791],"sales":{"202602":47}},{"id":"MA010120220805210101","name":"이디야","industry":"카페","coordinates":[127.37776666297,36.3563830409352],"sales":{"202602":1830}},{"id":"MA010120220805224068","name":"가현회계법인","industry":"공인회계사","coordinates":[127.382256708132,36.3518538777355],"sales":{"202602":640}},{"id":"MA010120220805234261","name":"레전드야구존","industry":"당구장","coordinates":[127.375739663839,36.3518925711808],"sales":{"202602":557}},{"id":"MA010120220805242435","name":"할리스커피대전둔산","industry":"카페","coordinates":[127.377295319547,36.3510585885374],"sales":{"202602":2785}},{"id":"MA010120220805259703","name":"알파리서치","industry":"시장 조사 및 여론 조사업","coordinates":[127.380835806905,36.3460368231081],"sales":{"202602":14588}},{"id":"MA010120220805265980","name":"굽네치킨","industry":"치킨","coordinates":[127.374524496508,36.3517161509955],"sales":{"202602":1108}},{"id":"MA010120220805284463","name":"사리원사무소","industry":"경영 컨설팅업","coordinates":[127.377071963104,36.3555651666805],"sales":{"202602":867}},{"id":"MA010120220805287049","name":"대전시계수리중고명품IT매입마니줌","industry":"시계/귀금속 소매업","coordinates":[127.376767601205,36.3502041373021],"sales":{"202602":5781}},{"id":"MA010120220805299079","name":"붙임머리24시신파람붙임머리","industry":"미용실","coordinates":[127.374311362539,36.3514104193253],"sales":{"202602":2586}},{"id":"MA010120220805313655","name":"중고폰매입,판매에코폰대전둔산","industry":"중고 상품 소매업","coordinates":[127.376207474027,36.3518730757825],"sales":{"202602":873}},{"id":"MA010120220805347982","name":"갤러리아타임월드바인드","industry":"기타 의류 소매업","coordinates":[127.378168576315,36.3519479912434],"sales":{"202602":1933}},{"id":"MA010120220805348530","name":"에잇피","industry":"제품 디자인업","coordinates":[127.382172864605,36.3483756106214],"sales":{"202602":134}},{"id":"MA010120220805365624","name":"위에드","industry":"광고 대행업","coordinates":[127.376902262065,36.3527179906439],"sales":{"202602":3605}},{"id":"MA010120220805370080","name":"올리브영대전정부","industry":"화장품 소매업","coordinates":[127.389825889032,36.3595074259664],"sales":{"202602":589}},{"id":"MA010120220805377733","name":"더인컴퍼니","industry":"경영 컨설팅업","coordinates":[127.378255321953,36.3537590777468],"sales":{"202602":999}},{"id":"MA010120220805397517","name":"애플약국","industry":"약국","coordinates":[127.376830620539,36.3494109044474],"sales":{"202602":4159}},{"id":"MA010120220805415491","name":"한국대중음악인협회대전시지회","industry":"기타 교육지원 서비스업","coordinates":[127.380199169658,36.3594393167938],"sales":{"202602":693}},{"id":"MA010120220805425825","name":"루미가넷네일죤","industry":"네일숍","coordinates":[127.378168576315,36.3519479912434],"sales":{"202602":829}},{"id":"MA010120220805435308","name":"팔구포차","industry":"생맥주 전문","coordinates":[127.37609056524,36.3507289515943],"sales":{"202602":921}},{"id":"MA010120220805443805","name":"피에노","industry":"경양식","coordinates":[127.377808040557,36.353418046456],"sales":{"202602":2029}},{"id":"MA010120220805445928","name":"세무법인경원","industry":"세무사","coordinates":[127.382194178734,36.3504572568232],"sales":{"202602":888}},{"id":"MA010120220805446230","name":"구본컴퍼니","industry":"기타 교육지원 서비스업","coordinates":[127.374883883465,36.3523188112285],"sales":{"202602":2248}},{"id":"MA010120220805451162","name":"비안이즈둔산트랜드점","industry":"미용실","coordinates":[127.378230512126,36.3532364750347],"sales":{"202602":1825}},{"id":"MA010120220805454837","name":"명랑핫도그","industry":"빵/도넛","coordinates":[127.376902262065,36.3527179906439],"sales":{"202602":2742}},{"id":"MA010120220805456015","name":"릴공식서비스센터","industry":"가전제품 수리업","coordinates":[127.389778896649,36.3590209456752],"sales":{"202602":355}},{"id":"MA010120220805461685","name":"샤인빔의원","industry":"피부/비뇨기과 의원","coordinates":[127.379505425101,36.3519437529929],"sales":{"202602":29503}},{"id":"MA010120220805461748","name":"레브헤어살롱","industry":"미용실","coordinates":[127.373674296185,36.3509798491736],"sales":{"202602":956}},{"id":"MA010120220805462540","name":"와플하우스","industry":"그 외 기타 간이 음식점","coordinates":[127.377233086339,36.352014030397],"sales":{"202602":703}},{"id":"MA010120220805467464","name":"이브제이","industry":"화장품 소매업","coordinates":[127.377071963104,36.3555651666805],"sales":{"202602":460}},{"id":"MA010120220805476925","name":"선우이엔지","industry":"기타 엔지니어링 서비스업","coordinates":[127.382584423421,36.348248129168],"sales":{"202602":1053}},{"id":"MA010120220805494135","name":"커피심포니","industry":"카페","coordinates":[127.378582792753,36.3500632240457],"sales":{"202602":1026}},{"id":"MA010120220805507894","name":"웰쳐국제특허법률사무소","industry":"변리사","coordinates":[127.374936439903,36.3539858195576],"sales":{"202602":286}},{"id":"MA010120220805527212","name":"제이디엠","industry":"부동산 중개/대리업","coordinates":[127.38261300832,36.3495367180657],"sales":{"202602":2207}},{"id":"MA010120220805529257","name":"정성현스킨앤바디","industry":"피부 관리실","coordinates":[127.379723813064,36.3510328726446],"sales":{"202602":1224}},{"id":"MA010120220805552339","name":"대전서비스센터","industry":"그 외 기타 개인/가정용품 수리업","coordinates":[127.378264762266,36.3534075897894],"sales":{"202602":6760}},{"id":"MA010120220805595308","name":"마에스트로신사갤러리아타임월드","industry":"남성 의류 소매업","coordinates":[127.378168576315,36.3519479912434],"sales":{"202602":974}},{"id":"MA010120220805601919","name":"둔산행복한약국","industry":"약국","coordinates":[127.379928173218,36.3541142403652],"sales":{"202602":8515}},{"id":"MA010120220805608994","name":"갤러리아타임월드사만사타바사","industry":"가방 소매업","coordinates":[127.378168576315,36.3519479912434],"sales":{"202602":882}},{"id":"MA010120220805609949","name":"송사부수제쌀고로케이마트","industry":"빵/도넛","coordinates":[127.37776666297,36.3563830409352],"sales":{"202602":1868}},{"id":"MA010120220805637741","name":"민트통신","industry":"핸드폰 소매업","coordinates":[127.381382151859,36.3484231955638],"sales":{"202602":57}},{"id":"MA010120220805646094","name":"보플","industry":"기타 오락장","coordinates":[127.377385007217,36.3511754580671],"sales":{"202602":4532}},{"id":"MA010120220805647331","name":"특허와우수조달","industry":"변리사","coordinates":[127.387194135846,36.3590383613246],"sales":{"202602":801}},{"id":"MA010120220805659206","name":"서울온누리약국","industry":"약국","coordinates":[127.380587754457,36.3454248139112],"sales":{"202602":7725}},{"id":"MA010120220805683316","name":"본테이블","industry":"경양식","coordinates":[127.389110367729,36.3590141129115],"sales":{"202602":6148}},{"id":"MA010120220805691507","name":"반스갤러리아","industry":"신발 소매업","coordinates":[127.378168576315,36.3519479912434],"sales":{"202602":112}},{"id":"MA010120220805692214","name":"갤러리아타임월드예작셔츠","industry":"기타 의류 소매업","coordinates":[127.378168576315,36.3519479912434],"sales":{"202602":1286}},{"id":"MA010120220805730938","name":"에프엠통신","industry":"핸드폰 소매업","coordinates":[127.380985298559,36.3515695622226],"sales":{"202602":94}},{"id":"MA010120220805741047","name":"아이잗바바","industry":"여성 의류 소매업","coordinates":[127.378168576315,36.3519479912434],"sales":{"202602":728}},{"id":"MA010120220805741116","name":"멀티플러스","industry":"노래방","coordinates":[127.37576546299,36.3503064220569],"sales":{"202602":359}},{"id":"MA010120220805744272","name":"모텔코보스","industry":"여관/모텔","coordinates":[127.381691891605,36.3525405759505],"sales":{"202602":2805}},{"id":"MA010120220805745341","name":"한국지문적성연구원","industry":"교육컨설팅업","coordinates":[127.378841672693,36.3529101161085],"sales":{"202602":2503}},{"id":"MA010120220805746250","name":"남동후,남상혁세무회계사무소","industry":"세무사","coordinates":[127.380915954113,36.3510561136535],"sales":{"202602":1158}},{"id":"MA010120220805746264","name":"넥서스공인중개사사무소","industry":"부동산 중개/대리업","coordinates":[127.379986898875,36.3547358639438],"sales":{"202602":2381}},{"id":"MA010120220805748127","name":"마포갈매기","industry":"돼지고기 구이/찜","coordinates":[127.374179748489,36.3518433955104],"sales":{"202602":3463}},{"id":"MA010120220805748667","name":"오영자세무회계사무소","industry":"세무사","coordinates":[127.382572298718,36.3526008426937],"sales":{"202602":1054}},{"id":"MA010120220805749103","name":"가온건축사사무소","industry":"건축 설계 및 관련 서비스업","coordinates":[127.387194135846,36.3590383613246],"sales":{"202602":3750}},{"id":"MA010120220805749434","name":"토종남원추어탕","industry":"국/탕/찌개류","coordinates":[127.381315378071,36.3507214050461],"sales":{"202602":1795}},{"id":"MA010120220805749992","name":"미라인더아트","industry":"피부 관리실","coordinates":[127.379986898875,36.3547358639438],"sales":{"202602":725}},{"id":"MA010120220805751068","name":"대전갤러리아타임월드SOUP","industry":"여성 의류 소매업","coordinates":[127.378168576315,36.3519479912434],"sales":{"202602":300}},{"id":"MA010120220805752312","name":"녹원세탁소","industry":"세탁소","coordinates":[127.381382151859,36.3484231955638],"sales":{"202602":106}},{"id":"MA010120220805754145","name":"오백호모텔","industry":"여관/모텔","coordinates":[127.380937148346,36.3531197361285],"sales":{"202602":3195}},{"id":"MA010120220805754500","name":"더올제스튜디오","industry":"사진촬영업","coordinates":[127.380985298559,36.3515695622226],"sales":{"202602":1261}},{"id":"MA010120220805756332","name":"뷰티웰빙","industry":"화장품 소매업","coordinates":[127.377071963104,36.3555651666805],"sales":{"202602":1378}},{"id":"MA010120220805757416","name":"육사구이","industry":"돼지고기 구이/찜","coordinates":[127.374393142042,36.3522031970709],"sales":{"202602":3076}},{"id":"MA010120220805760124","name":"중부리서치","industry":"시장 조사 및 여론 조사업","coordinates":[127.380835806905,36.3460368231081],"sales":{"202602":10623}},{"id":"MA010120220805761402","name":"건강한삶하늘의삶","industry":"건강보조식품 소매업","coordinates":[127.374613747823,36.356392967349],"sales":{"202602":3100}},{"id":"MA010120220805761850","name":"갤러리아센트럴포스트슈랩","industry":"신발 소매업","coordinates":[127.378168576315,36.3519479912434],"sales":{"202602":232}},{"id":"MA010120220805763996","name":"쓰리데이","industry":"시각 디자인업","coordinates":[127.373898265161,36.3512224658576],"sales":{"202602":130}},{"id":"MA010120220805764428","name":"세정세무회계사무소","industry":"세무사","coordinates":[127.382252655061,36.3510248099354],"sales":{"202602":1519}},{"id":"MA010120220805767334","name":"맛있어행복한집","industry":"구내식당","coordinates":[127.382589361398,36.3492574295142],"sales":{"202602":5084}},{"id":"MA010120220805769499","name":"달빛스쿠터","industry":"사진촬영업","coordinates":[127.382593006151,36.3477254200423],"sales":{"202602":1680}},{"id":"MA010120220805769559","name":"갤러리아타임월드폴로남성","industry":"기타 의류 소매업","coordinates":[127.378168576315,36.3519479912434],"sales":{"202602":2551}},{"id":"MA010120220805771238","name":"루멘","industry":"시계/귀금속 소매업","coordinates":[127.378255321953,36.3537590777468],"sales":{"202602":750}},{"id":"MA010120220805772220","name":"이안레지던스호텔","industry":"여관/모텔","coordinates":[127.380946137485,36.3526781319337],"sales":{"202602":9396}},{"id":"MA010120220805772280","name":"킴스바디","industry":"마사지/안마","coordinates":[127.377809782405,36.3537785107725],"sales":{"202602":260}},{"id":"MA010120220805773072","name":"금촌","industry":"백반/한정식","coordinates":[127.389110367729,36.3590141129115],"sales":{"202602":4337}},{"id":"MA010120220805773127","name":"한화월드시스템","industry":"기타 의류 소매업","coordinates":[127.378168576315,36.3519479912434],"sales":{"202602":595}},{"id":"MA010120220805775490","name":"캘빈클라인진악세사리","industry":"가방 소매업","coordinates":[127.378168576315,36.3519479912434],"sales":{"202602":479}},{"id":"MA010120220805775880","name":"브레인팩토리","industry":"명함/간판/광고물 제작","coordinates":[127.378841672693,36.3529101161085],"sales":{"202602":219}},{"id":"MA010120220805777861","name":"럭스마레","industry":"중고 상품 소매업","coordinates":[127.37726749881,36.3545281989602],"sales":{"202602":88}},{"id":"MA010120220805779003","name":"세븐즈헤븐","industry":"생맥주 전문","coordinates":[127.376265556769,36.3500525193972],"sales":{"202602":772}},{"id":"MA010120220805779534","name":"마티니","industry":"기타 의류 소매업","coordinates":[127.377806472921,36.3530936285525],"sales":{"202602":5471}},{"id":"MA010120220805780729","name":"영광디엔씨","industry":"건물 및 토목 엔지니어링 서비스업","coordinates":[127.378841672693,36.3529101161085],"sales":{}},{"id":"MA010120220805780929","name":"커피광장","industry":"카페","coordinates":[127.380254139783,36.3455430287688],"sales":{"202602":3962}},{"id":"MA010120220805781852","name":"둔산건강약국","industry":"약국","coordinates":[127.378374927768,36.3554529069255],"sales":{"202602":19725}},{"id":"MA010120220805782708","name":"처갓집양념치킨","industry":"치킨","coordinates":[127.380992375388,36.346162488627],"sales":{"202602":1358}},{"id":"MA010120220805785068","name":"더예쁜손톱&레푸스","industry":"네일숍","coordinates":[127.388720418704,36.3590153821647],"sales":{"202602":521}},{"id":"MA010120220805785085","name":"디자인홀릭","industry":"광고물 설계/제작업","coordinates":[127.376885758414,36.3539166049564],"sales":{"202602":301}},{"id":"MA010120220805787862","name":"엑스타투","industry":"기타 엔지니어링 서비스업","coordinates":[127.374524496508,36.3517161509955],"sales":{"202602":2120}},{"id":"MA010120220805787972","name":"골드문DNC3","industry":"광고 대행업","coordinates":[127.382180836304,36.3500067120319],"sales":{"202602":5144}},{"id":"MA010120220805790080","name":"사과나무","industry":"채소/과일 소매업","coordinates":[127.380915954113,36.3510561136535],"sales":{"202602":2722}},{"id":"MA010120220805790496","name":"봉달이김밥","industry":"김밥/만두/분식","coordinates":[127.376303623277,36.3533326761399],"sales":{"202602":2266}},{"id":"MA010120220805790882","name":"상록약국","industry":"약국","coordinates":[127.39432744682,36.3617816339284],"sales":{"202602":47368}},{"id":"MA010120220805797404","name":"디스커버리갤러리아","industry":"기타 의류 소매업","coordinates":[127.378168576315,36.3519479912434],"sales":{"202602":2742}},{"id":"MA010120220805797432","name":"미즈노갤러리아","industry":"기타 의류 소매업","coordinates":[127.378168576315,36.3519479912434],"sales":{"202602":718}},{"id":"MA010120220805797468","name":"닥스키즈갤러리아","industry":"기타 의류 소매업","coordinates":[127.378168576315,36.3519479912434],"sales":{"202602":574}},{"id":"MA010120220805799647","name":"고기맛집","industry":"돼지고기 구이/찜","coordinates":[127.39432744682,36.3617816339284],"sales":{"202602":2128}},{"id":"MA010120220805804375","name":"바디＆스킨","industry":"화장품 소매업","coordinates":[127.377267942483,36.3523113080357],"sales":{"202602":487}},{"id":"MA010120220805809753","name":"대양해외여행사주","industry":"여행사","coordinates":[127.378168576315,36.3519479912434],"sales":{"202602":1699}},{"id":"MA010120220805809929","name":"나래항공여행사주","industry":"여행사","coordinates":[127.382186338755,36.34885319037],"sales":{"202602":3318}},{"id":"MA010120220805810566","name":"태영조경","industry":"조경 유지·관리 서비스업","coordinates":[127.378407317814,36.348333523456],"sales":{}},{"id":"MA010120220805810633","name":"기분좋은여행","industry":"여행사","coordinates":[127.378841672693,36.3529101161085],"sales":{"202602":2880}},{"id":"MA010120220805812166","name":"에이치케이나라렌트카","industry":"자동차 대여업","coordinates":[127.389110367729,36.3590141129115],"sales":{"202602":2736}},{"id":"MA010120220805812587","name":"범한관광여행사주","industry":"여행사","coordinates":[127.382572298718,36.3526008426937],"sales":{"202602":3077}},{"id":"MA010120220805812844","name":"월드원여행사주","industry":"여행사","coordinates":[127.37538455539,36.3521820632166],"sales":{"202602":2199}},{"id":"MA010120220805813922","name":"학교법인을지학원대전을지대학교병원","industry":"종합병원","coordinates":[127.381983876087,36.3552972365294],"sales":{"202602":414194}},{"id":"MA010120220805814023","name":"중앙의료재단의","industry":"방사선 진단/병리 검사 의원","coordinates":[127.387413123071,36.3582626422853],"sales":{"202602":25158}},{"id":"MA010120220805814035","name":"마리아의료재단마리아의원","industry":"산부인과 의원","coordinates":[127.380199169658,36.3594393167938],"sales":{"202602":6610}},{"id":"MA010120220805814827","name":"대전광역시장애인댄스스포츠연맹","industry":"레크리에이션 교육기관","coordinates":[127.378127687561,36.3481001030154],"sales":{"202602":976}},{"id":"MA010120220805815774","name":"세무법인비전","industry":"세무사","coordinates":[127.382252655061,36.3510248099354],"sales":{"202602":1252}},{"id":"MA010120220805816769","name":"관성개발","industry":"골프 연습장","coordinates":[127.3876508888,36.3590278686021],"sales":{"202602":359}},{"id":"MA010120220805817381","name":"현대산업관리주","industry":"건축물 일반 청소업","coordinates":[127.37997689682,36.3549702010691],"sales":{"202602":433}},{"id":"MA010120220805817621","name":"플러스人교육연구소","industry":"직원 훈련기관","coordinates":[127.379723813064,36.3510328726446],"sales":{}},{"id":"MA010120220805818767","name":"대전렌트카","industry":"자동차 대여업","coordinates":[127.382603220078,36.3475361405262],"sales":{"202602":225}},{"id":"MA010120220805825895","name":"궁죽","industry":"백반/한정식","coordinates":[127.378374927768,36.3554529069255],"sales":{"202602":1322}},{"id":"MA010120220805826326","name":"미래조이약국","industry":"약국","coordinates":[127.377950495098,36.3483169456552],"sales":{"202602":13994}},{"id":"MA010120220805827446","name":"카피뱅크","industry":"복사업","coordinates":[127.387194135846,36.3590383613246],"sales":{"202602":538}},{"id":"MA010120220805828293","name":"정진오세무회계사무소","industry":"세무사","coordinates":[127.381508894994,36.3515678916957],"sales":{"202602":517}},{"id":"MA010120220805828396","name":"M.A건축사사무소","industry":"건축 설계 및 관련 서비스업","coordinates":[127.380985298559,36.3515695622226],"sales":{"202602":3180}},{"id":"MA010120220805828469","name":"정관장","industry":"건강보조식품 소매업","coordinates":[127.389778896649,36.3590209456752],"sales":{"202602":1503}},{"id":"MA010120220805828763","name":"어명","industry":"횟집","coordinates":[127.382603220078,36.3475361405262],"sales":{"202602":990}},{"id":"MA010120220805835536","name":"지존할인마트","industry":"슈퍼마켓","coordinates":[127.382182198791,36.3480060989223],"sales":{"202602":9809}},{"id":"MA010120220805836633","name":"마이홈고시원","industry":"기숙사/고시원","coordinates":[127.382182198791,36.3480060989223],"sales":{"202602":489}},{"id":"MA010120220805841543","name":"라인적산","industry":"건축 설계 및 관련 서비스업","coordinates":[127.387194135846,36.3590383613246],"sales":{"202602":3280}},{"id":"MA010120220805847139","name":"올리프트의원","industry":"피부/비뇨기과 의원","coordinates":[127.378841672693,36.3529101161085],"sales":{"202602":18592}},{"id":"MA010120220805847307","name":"영남한약방","industry":"약국","coordinates":[127.377695586169,36.3508951125741],"sales":{"202602":18495}},{"id":"MA010120220805849614","name":"둔산시온약국","industry":"약국","coordinates":[127.377662685821,36.3486963492266],"sales":{"202602":3924}},{"id":"MA010120220805849935","name":"다복공인중개사사무소","industry":"부동산 중개/대리업","coordinates":[127.374033586962,36.3515644888658],"sales":{"202602":2936}},{"id":"MA010120220805853284","name":"천사약국","industry":"약국","coordinates":[127.389090327706,36.3594647648483],"sales":{"202602":5682}},{"id":"MA010120220805853452","name":"11에비뉴","industry":"액세서리/잡화 소매업","coordinates":[127.377006975701,36.3513298510893],"sales":{"202602":1123}},{"id":"MA010120220805857542","name":"중앙기념기획","industry":"기념품점","coordinates":[127.387194135846,36.3590383613246],"sales":{"202602":869}},{"id":"MA010120220805859677","name":"동정보이차","industry":"의료기기 소매업","coordinates":[127.377815051681,36.3548689151965],"sales":{"202602":1324}},{"id":"MA010120220805861187","name":"타임월드띠어리맨","industry":"기타 의류 소매업","coordinates":[127.378168576315,36.3519479912434],"sales":{"202602":878}},{"id":"MA010120220805862678","name":"오리엔탈항공여행사","industry":"여행사","coordinates":[127.380604071765,36.353355102871],"sales":{"202602":4091}},{"id":"MA010120220805870417","name":"새둥지공인중개사사무소","industry":"부동산 중개/대리업","coordinates":[127.392653648896,36.3590656036205],"sales":{"202602":1892}},{"id":"MA010120220805872716","name":"체형복원신전운동","industry":"헬스장","coordinates":[127.387194135846,36.3590383613246],"sales":{"202602":346}},{"id":"MA010120220805886560","name":"청사안경원","industry":"안경렌즈 소매업","coordinates":[127.384905791764,36.3626864947272],"sales":{"202602":3511}},{"id":"MA010120220805890886","name":"동백카츠","industry":"일식 카레/돈가스/덮밥","coordinates":[127.377756386715,36.3542563020707],"sales":{"202602":4398}},{"id":"MA010120220805913380","name":"수노래연습장","industry":"노래방","coordinates":[127.376614112939,36.3507182909337],"sales":{"202602":1171}},{"id":"MA010120220805925972","name":"대전유성전자담배","industry":"담배/전자담배 소매업","coordinates":[127.376776961077,36.3498346259871],"sales":{"202602":858}},{"id":"MA010120220805943200","name":"리더스족부족관절연구회","industry":"전시/컨벤션/행사 대행 서비스업","coordinates":[127.378270037816,36.354497994224],"sales":{"202602":2472}},{"id":"MA010120220805947349","name":"쇼노래연습장","industry":"노래방","coordinates":[127.376265556769,36.3500525193972],"sales":{"202602":434}},{"id":"MA010120220805950950","name":"청담수치과","industry":"치과의원","coordinates":[127.378921796505,36.3533514376086],"sales":{"202602":11322}},{"id":"MA010120220805955153","name":"바이러브하니","industry":"빵/도넛","coordinates":[127.378168576315,36.3519479912434],"sales":{"202602":3221}},{"id":"MA010120220805965438","name":"고기명작","industry":"돼지고기 구이/찜","coordinates":[127.380568412905,36.3528956174274],"sales":{"202602":1489}},{"id":"MA010120220805976973","name":"둔산탑약국","industry":"약국","coordinates":[127.376308295898,36.3496738912443],"sales":{"202602":7424}},{"id":"MA010120220805977421","name":"엘케이코스메틱","industry":"화장품 소매업","coordinates":[127.379723813064,36.3510328726446],"sales":{"202602":1915}},{"id":"MA010120220805978161","name":"플라스틱아일랜드","industry":"기타 의류 소매업","coordinates":[127.378168576315,36.3519479912434],"sales":{"202602":924}},{"id":"MA010120220805983989","name":"다인","industry":"의류 대여업","coordinates":[127.377809782405,36.3537785107725],"sales":{"202602":556}},{"id":"MA010120220805999854","name":"스튜디오모이다","industry":"광고 대행업","coordinates":[127.378270037816,36.354497994224],"sales":{"202602":2262}},{"id":"MA010120220806030020","name":"투썸플레이스대전","industry":"카페","coordinates":[127.389825889032,36.3595074259664],"sales":{"202602":1585}},{"id":"MA010120220806030089","name":"업소명없음","industry":"사진촬영업","coordinates":[127.374798427237,36.3507600466109],"sales":{"202602":649}},{"id":"MA010120220806038577","name":"밀본대전지점","industry":"화장품 소매업","coordinates":[127.37698788456,36.3496807609778],"sales":{"202602":396}},{"id":"MA010120220806044427","name":"씨오","industry":"경영 컨설팅업","coordinates":[127.389090327706,36.3594647648483],"sales":{"202602":1354}},{"id":"MA010120220806050498","name":"타임건축사사무소","industry":"건축 설계 및 관련 서비스업","coordinates":[127.376886627223,36.3540968371215],"sales":{"202602":1947}},{"id":"MA010120220806087479","name":"대대로감자탕","industry":"국/탕/찌개류","coordinates":[127.388141110568,36.3590262771513],"sales":{"202602":970}},{"id":"MA010120220806158520","name":"다우닝가구","industry":"가구 소매업","coordinates":[127.378168576315,36.3519479912434],"sales":{"202602":1523}},{"id":"MA010120220806171298","name":"미스터스피드","industry":"가죽/가방/신발 수선업","coordinates":[127.378168576315,36.3519479912434],"sales":{"202602":188}},{"id":"MA010120220806171782","name":"모카플라워","industry":"꽃집","coordinates":[127.377071963104,36.3555651666805],"sales":{"202602":221}},{"id":"MA010120220806171823","name":"리더스모텔","industry":"여관/모텔","coordinates":[127.381694487169,36.3530722606483],"sales":{"202602":12515}},{"id":"MA010120220806172153","name":"멕시카나둔산","industry":"치킨","coordinates":[127.39432744682,36.3617816339284],"sales":{"202602":810}},{"id":"MA010120220806172284","name":"로타리공인중개사무소","industry":"부동산 중개/대리업","coordinates":[127.382186338755,36.34885319037],"sales":{"202602":1109}},{"id":"MA010120220806172292","name":"경보약국","industry":"약국","coordinates":[127.38129718441,36.351559555684],"sales":{"202602":3004}},{"id":"MA010120220806172499","name":"교통카드충전소","industry":"기타 여행 보조/예약 서비스업","coordinates":[127.384905791764,36.3626864947272],"sales":{"202602":62}},{"id":"MA010120220806172565","name":"육대장","industry":"백반/한정식","coordinates":[127.382194178734,36.3504572568232],"sales":{"202602":3063}},{"id":"MA010120220806173967","name":"샘머리신흥떡집","industry":"떡/한과","coordinates":[127.39432744682,36.3617816339284],"sales":{"202602":904}},{"id":"MA010120220806174690","name":"혜성당","industry":"문구/회화용품 소매업","coordinates":[127.379633159534,36.3507177494624],"sales":{"202602":6492}},{"id":"MA010120220806174988","name":"고운약국","industry":"약국","coordinates":[127.377616908045,36.3507511732321],"sales":{"202602":42923}},{"id":"MA010120220806175001","name":"오행생식원","industry":"건강보조식품 소매업","coordinates":[127.380611222501,36.3548239943632],"sales":{"202602":5761}},{"id":"MA010120220806175151","name":"아로마포미","industry":"화장품 소매업","coordinates":[127.37581448479,36.3512344781928],"sales":{"202602":663}},{"id":"MA010120220806175379","name":"세무사강영환사무소","industry":"세무사","coordinates":[127.380791743406,36.3507140630827],"sales":{"202602":3086}},{"id":"MA010120220806175382","name":"건축사사무소아트원","industry":"건축 설계 및 관련 서비스업","coordinates":[127.382189774175,36.3495560959477],"sales":{"202602":3178}},{"id":"MA010120220806175388","name":"조은연세무회계사무소","industry":"세무사","coordinates":[127.378496506951,36.3506492611466],"sales":{"202602":1117}},{"id":"MA010120220806175390","name":"김용은세무회계사무소","industry":"세무사","coordinates":[127.382633954874,36.353817230809],"sales":{"202602":1960}},{"id":"MA010120220806175433","name":"건축사사무소좋은생각","industry":"건축 설계 및 관련 서비스업","coordinates":[127.387194135846,36.3590383613246],"sales":{"202602":1815}},{"id":"MA010120220806175453","name":"이동모특허법률사무소","industry":"변리사","coordinates":[127.389110367729,36.3590141129115],"sales":{"202602":414}},{"id":"MA010120220806175463","name":"이흥준세무사무소","industry":"세무사","coordinates":[127.382633954874,36.353817230809],"sales":{"202602":1613}},{"id":"MA010120220806175474","name":"안종헌세무회계사무소","industry":"세무사","coordinates":[127.379633159534,36.3507177494624],"sales":{"202602":479}},{"id":"MA010120220806175477","name":"전단지제작배포아파트거울광고전문그린피플","industry":"기타 광고 관련 서비스업","coordinates":[127.382572298718,36.3526008426937],"sales":{"202602":703}},{"id":"MA010120220806175545","name":"이정규，이진성세무사무소","industry":"세무사","coordinates":[127.382255172141,36.3538184431352],"sales":{"202602":766}},{"id":"MA010120220806175621","name":"건축사사무소다솔","industry":"건축 설계 및 관련 서비스업","coordinates":[127.379680223589,36.3466442878435],"sales":{"202602":1269}},{"id":"MA010120220806175644","name":"법무사","industry":"법무사","coordinates":[127.387194135846,36.3590383613246],"sales":{"202602":344}},{"id":"MA010120220806175670","name":"가가테크건축사사무소","industry":"건축 설계 및 관련 서비스업","coordinates":[127.382174009671,36.348609912509],"sales":{"202602":2120}},{"id":"MA010120220806175736","name":"분식마을","industry":"김밥/만두/분식","coordinates":[127.374613747823,36.356392967349],"sales":{"202602":421}},{"id":"MA010120220806175931","name":"T.S건축사사무소","industry":"건축 설계 및 관련 서비스업","coordinates":[127.387194135846,36.3590383613246],"sales":{"202602":4142}},{"id":"MA010120220806176699","name":"가자주류대전","industry":"주류 소매업","coordinates":[127.378374927768,36.3554529069255],"sales":{"202602":642}},{"id":"MA010120220806176800","name":"우리집","industry":"백반/한정식","coordinates":[127.389778896649,36.3590209456752],"sales":{"202602":2248}},{"id":"MA010120220806177188","name":"이레사","industry":"문구/회화용품 소매업","coordinates":[127.383471891711,36.354301178784],"sales":{"202602":1190}},{"id":"MA010120220806177589","name":"둔산기독교","industry":"서점","coordinates":[127.377519691509,36.3513823028689],"sales":{"202602":11836}},{"id":"MA010120220806178268","name":"만다린식당","industry":"중국집","coordinates":[127.377806472921,36.3530936285525],"sales":{"202602":1351}},{"id":"MA010120220806178833","name":"홍연대세무회계사무소","industry":"세무사","coordinates":[127.382255172141,36.3538184431352],"sales":{"202602":910}},{"id":"MA010120220806179385","name":"금백고기촌","industry":"돼지고기 구이/찜","coordinates":[127.382144023343,36.347032951643],"sales":{"202602":1130}},{"id":"MA010120220806179634","name":"사리원면옥","industry":"냉면/밀면","coordinates":[127.37727102118,36.3552581390879],"sales":{"202602":2815}},{"id":"MA010120220806179757","name":"향촌랜드공인중개사사무소","industry":"부동산 중개/대리업","coordinates":[127.376303623277,36.3533326761399],"sales":{"202602":2286}},{"id":"MA010120220806179821","name":"사철생돌구이","industry":"돼지고기 구이/찜","coordinates":[127.382189774175,36.3495560959477],"sales":{"202602":407}},{"id":"MA010120220806180321","name":"모드니안경원","industry":"안경렌즈 소매업","coordinates":[127.398948400381,36.3590177167396],"sales":{"202602":2202}},{"id":"MA010120220806180672","name":"우상안프로헤어","industry":"미용실","coordinates":[127.39432744682,36.3617816339284],"sales":{"202602":991}},{"id":"MA010120220806181126","name":"로젠","industry":"미용실","coordinates":[127.389090327706,36.3594647648483],"sales":{"202602":926}},{"id":"MA010120220806181703","name":"일영약국","industry":"약국","coordinates":[127.389090327706,36.3594647648483],"sales":{"202602":13154}},{"id":"MA010120220806181881","name":"뉴스공인중개사사무소","industry":"부동산 중개/대리업","coordinates":[127.375544996583,36.3507937496729],"sales":{"202602":1884}},{"id":"MA010120220806182268","name":"둔산수정공인중개사사무소","industry":"부동산 중개/대리업","coordinates":[127.398948400381,36.3590177167396],"sales":{"202602":1681}},{"id":"MA010120220806182271","name":"우리팜약국","industry":"약국","coordinates":[127.37874036014,36.3526941553509],"sales":{"202602":22815}},{"id":"MA010120220806182591","name":"우두령","industry":"백반/한정식","coordinates":[127.388141110568,36.3590262771513],"sales":{"202602":2231}},{"id":"MA010120220806182726","name":"이호경헤어터치","industry":"미용실","coordinates":[127.381382151859,36.3484231955638],"sales":{"202602":1547}},{"id":"MA010120220806183194","name":"mmNDAssociates","industry":"시각 디자인업","coordinates":[127.378270037816,36.354497994224],"sales":{"202602":122}},{"id":"MA010120220806183563","name":"웰빙주먹구이","industry":"돼지고기 구이/찜","coordinates":[127.381694487169,36.3530722606483],"sales":{"202602":978}},{"id":"MA010120220806183629","name":"황토우렁쌈밥","industry":"백반/한정식","coordinates":[127.381386155946,36.3538122082134],"sales":{"202602":4648}},{"id":"MA010120220806183718","name":"앤디앤뎁","industry":"여성 의류 소매업","coordinates":[127.378168576315,36.3519479912434],"sales":{"202602":489}},{"id":"MA010120220806185274","name":"페리카나","industry":"치킨","coordinates":[127.39432744682,36.3617816339284],"sales":{"202602":447}},{"id":"MA010120220806185355","name":"태원","industry":"중국집","coordinates":[127.381716492024,36.3461691895828],"sales":{"202602":7769}},{"id":"MA010120220806185880","name":"웰니스자세관리센터","industry":"유사 의료업","coordinates":[127.376207474027,36.3518730757825],"sales":{"202602":384}},{"id":"MA010120220806186147","name":"구자경피부과의원","industry":"피부/비뇨기과 의원","coordinates":[127.377796545142,36.3510389814192],"sales":{"202602":19267}},{"id":"MA010120220806186155","name":"선진상사","industry":"기타 의류 소매업","coordinates":[127.378168576315,36.3519479912434],"sales":{"202602":945}},{"id":"MA010120220806186930","name":"조순희","industry":"여성 의류 소매업","coordinates":[127.378168576315,36.3519479912434],"sales":{"202602":186}},{"id":"MA010120220806187598","name":"MD","industry":"화장품 소매업","coordinates":[127.377817054951,36.3552834490573],"sales":{"202602":790}},{"id":"MA010120220806188008","name":"프랜치캣","industry":"기타 의류 소매업","coordinates":[127.378168576315,36.3519479912434],"sales":{"202602":611}},{"id":"MA010120220806188153","name":"남한산성","industry":"백반/한정식","coordinates":[127.382255172141,36.3538184431352],"sales":{"202602":3886}},{"id":"MA010120220806188176","name":"플리츠플리즈","industry":"여성 의류 소매업","coordinates":[127.378168576315,36.3519479912434],"sales":{"202602":343}},{"id":"MA010120220806188257","name":"엑스포아구","industry":"백반/한정식","coordinates":[127.381386155946,36.3538122082134],"sales":{"202602":3509}},{"id":"MA010120220806188547","name":"상아","industry":"건강보조식품 소매업","coordinates":[127.398948400381,36.3590177167396],"sales":{"202602":1803}},{"id":"MA010120220806189101","name":"아우네부대찌개","industry":"백반/한정식","coordinates":[127.388720418704,36.3590153821647],"sales":{"202602":2031}},{"id":"MA010120220806189835","name":"장원두세무회계사무소","industry":"세무사","coordinates":[127.38261300832,36.3495367180657],"sales":{"202602":780}},{"id":"MA010120220806189934","name":"녹원이용원","industry":"미용실","coordinates":[127.381382151859,36.3484231955638],"sales":{"202602":377}},{"id":"MA010120220806190002","name":"수정분식","industry":"김밥/만두/분식","coordinates":[127.398948400381,36.3590177167396],"sales":{"202602":797}},{"id":"MA010120220806190009","name":"아름다운세상안경원","industry":"안경렌즈 소매업","coordinates":[127.392653648896,36.3590656036205],"sales":{"202602":4828}},{"id":"MA010120220806190029","name":"오린스뷰티","industry":"화장품 소매업","coordinates":[127.382589435076,36.3469954794433],"sales":{"202602":693}},{"id":"MA010120220806190471","name":"청사공인노무사","industry":"공인노무사","coordinates":[127.389090327706,36.3594647648483],"sales":{}},{"id":"MA010120220806190548","name":"영동올갱이","industry":"백반/한정식","coordinates":[127.381694487169,36.3530722606483],"sales":{"202602":2801}},{"id":"MA010120220806190744","name":"아라상담연구소","industry":"유사 의료업","coordinates":[127.387194135846,36.3590383613246],"sales":{"202602":1300}},{"id":"MA010120220806191389","name":"혜성약국","industry":"약국","coordinates":[127.381382151859,36.3484231955638],"sales":{"202602":10000}},{"id":"MA010120220806191407","name":"라라스튜디오대전사","industry":"사진촬영업","coordinates":[127.376207474027,36.3518730757825],"sales":{"202602":1108}},{"id":"MA010120220806191529","name":"돼지깡장","industry":"돼지고기 구이/찜","coordinates":[127.37997689682,36.3549702010691],"sales":{"202602":1255}},{"id":"MA010120220806191540","name":"엠포리오아르마니언더웨어","industry":"기타 의류 소매업","coordinates":[127.378168576315,36.3519479912434],"sales":{"202602":2976}},{"id":"MA010120220806191594","name":"디에스뷰티","industry":"미용실","coordinates":[127.380398323472,36.3522833602673],"sales":{"202602":1091}},{"id":"MA010120220806191632","name":"김동훈악기사","industry":"악기 소매업","coordinates":[127.377808040557,36.353418046456],"sales":{"202602":1614}},{"id":"MA010120220806191641","name":"이명식세무회계사무소","industry":"세무사","coordinates":[127.382252704868,36.3533137933499],"sales":{"202602":783}},{"id":"MA010120220806191939","name":"매그놀리아공인중개사사무소","industry":"부동산 중개/대리업","coordinates":[127.380199169658,36.3594393167938],"sales":{"202602":1823}},{"id":"MA010120220806192070","name":"소비자마켓","industry":"슈퍼마켓","coordinates":[127.374613747823,36.356392967349],"sales":{"202602":42747}},{"id":"MA010120220806192595","name":"알파문구","industry":"문구/회화용품 소매업","coordinates":[127.389778896649,36.3590209456752],"sales":{"202602":10501}},{"id":"MA010120220806192656","name":"우리집삼식이무침","industry":"횟집","coordinates":[127.380646920434,36.3507145244945],"sales":{"202602":1777}},{"id":"MA010120220806192765","name":"둥지홈마트","industry":"슈퍼마켓","coordinates":[127.392653648896,36.3590656036205],"sales":{"202602":19941}},{"id":"MA010120220806192852","name":"수정슈퍼","industry":"슈퍼마켓","coordinates":[127.398948400381,36.3590177167396],"sales":{"202602":36334}},{"id":"MA010120220806193325","name":"왕창문구사","industry":"문구/회화용품 소매업","coordinates":[127.378374927768,36.3554529069255],"sales":{"202602":1822}},{"id":"MA010120220806193481","name":"을지실로암약국","industry":"약국","coordinates":[127.382255172141,36.3538184431352],"sales":{"202602":8192}},{"id":"MA010120220806193548","name":"오늘사진관","industry":"사진촬영업","coordinates":[127.377806472921,36.3530936285525],"sales":{"202602":872}},{"id":"MA010120220806193614","name":"미소바디앤스킨케어","industry":"피부 관리실","coordinates":[127.377802952814,36.3546706950867],"sales":{"202602":1046}},{"id":"MA010120220806193880","name":"은하수약국","industry":"약국","coordinates":[127.382586716023,36.3487167329215],"sales":{"202602":5089}},{"id":"MA010120220806194069","name":"녹원떡방앗간","industry":"떡/한과","coordinates":[127.381382151859,36.3484231955638],"sales":{"202602":625}},{"id":"MA010120220806194072","name":"사바비안","industry":"화장품 소매업","coordinates":[127.377071963104,36.3555651666805],"sales":{"202602":664}},{"id":"MA010120220806194149","name":"둔산마루공인중개사사무소","industry":"부동산 중개/대리업","coordinates":[127.376303623277,36.3533326761399],"sales":{"202602":925}},{"id":"MA010120220806194188","name":"나기호세무회계사무소","industry":"세무사","coordinates":[127.382255172141,36.3538184431352],"sales":{"202602":393}},{"id":"MA010120220806194442","name":"가든파티","industry":"꽃집","coordinates":[127.377071963104,36.3555651666805],"sales":{"202602":167}},{"id":"MA010120220806194593","name":"성진상사","industry":"기타 의류 소매업","coordinates":[127.378168576315,36.3519479912434],"sales":{"202602":4222}},{"id":"MA010120220806194831","name":"오한균세무회계사무소","industry":"세무사","coordinates":[127.378374927768,36.3554529069255],"sales":{"202602":995}},{"id":"MA010120220806195436","name":"M트레이닝센터","industry":"헬스장","coordinates":[127.377817054951,36.3552834490573],"sales":{"202602":752}},{"id":"MA010120220806195597","name":"둔산의료기","industry":"의료기기 소매업","coordinates":[127.380964391277,36.354137976412],"sales":{"202602":4594}},{"id":"MA010120220806195766","name":"을지참조은약국","industry":"약국","coordinates":[127.382635322065,36.3540965904808],"sales":{"202602":23809}},{"id":"MA010120220806195799","name":"조마루감자탕","industry":"국/탕/찌개류","coordinates":[127.38129718441,36.351559555684],"sales":{"202602":662}},{"id":"MA010120220806195871","name":"해맑은인지학습치료센타","industry":"유사 의료업","coordinates":[127.377687751294,36.3492730221721],"sales":{"202602":637}},{"id":"MA010120220806195899","name":"파리바게뜨","industry":"빵/도넛","coordinates":[127.379985847704,36.3545195854458],"sales":{"202602":1650}},{"id":"MA010120220806195996","name":"을지식당가","industry":"백반/한정식","coordinates":[127.381983876087,36.3552972365294],"sales":{"202602":2037}},{"id":"MA010120220806196649","name":"박춘배세무회계사무소","industry":"세무사","coordinates":[127.382252655061,36.3510248099354],"sales":{"202602":1693}},{"id":"MA010120220806196683","name":"한국특허법무연구원","industry":"변리사","coordinates":[127.387194135846,36.3590383613246],"sales":{"202602":205}},{"id":"MA010120220806196788","name":"슈필리안","industry":"레크리에이션 교육기관","coordinates":[127.378374927768,36.3554529069255],"sales":{"202602":583}},{"id":"MA010120220806197036","name":"갤러리아타임월드바쏘","industry":"남성 의류 소매업","coordinates":[127.378168576315,36.3519479912434],"sales":{"202602":2105}},{"id":"MA010120220806197139","name":"강은숙한복침구","industry":"한복 소매업","coordinates":[127.376904347221,36.353150547917],"sales":{"202602":602}},{"id":"MA010120220806197158","name":"삼화문구오피스","industry":"문구/회화용품 소매업","coordinates":[127.377279509322,36.3547083959235],"sales":{"202602":7347}},{"id":"MA010120220806197497","name":"세빈국제특허법률사무소","industry":"변리사","coordinates":[127.389090327706,36.3594647648483],"sales":{"202602":160}},{"id":"MA010120220806197551","name":"뷰티케어","industry":"피부 관리실","coordinates":[127.376752398308,36.3516731004729],"sales":{"202602":592}},{"id":"MA010120220806197607","name":"선화콩나물밥","industry":"백반/한정식","coordinates":[127.37836960394,36.3497484879828],"sales":{"202602":1955}},{"id":"MA010120220806197717","name":"향촌열쇠","industry":"철물/공구 소매업","coordinates":[127.37538455539,36.3521820632166],"sales":{"202602":300}},{"id":"MA010120220806197898","name":"김용관세무회계사무소","industry":"세무사","coordinates":[127.382255172141,36.3538184431352],"sales":{"202602":1129}},{"id":"MA010120220806197945","name":"미순환피부","industry":"피부 관리실","coordinates":[127.377071963104,36.3555651666805],"sales":{"202602":340}},{"id":"MA010120220806198260","name":"씨유","industry":"편의점","coordinates":[127.374685815723,36.3505080707342],"sales":{"202602":5955}},{"id":"MA010120220806198386","name":"빈폴골프","industry":"기타 의류 소매업","coordinates":[127.378168576315,36.3519479912434],"sales":{"202602":1808}},{"id":"MA010120220806198479","name":"정순희세무회계사무소","industry":"세무사","coordinates":[127.382255172141,36.3538184431352],"sales":{"202602":564}},{"id":"MA010120220806198483","name":"화평국제특허법률사무소","industry":"변리사","coordinates":[127.389778896649,36.3590209456752],"sales":{"202602":146}},{"id":"MA010120220806198623","name":"머슴촌감자탕","industry":"국/탕/찌개류","coordinates":[127.380585606917,36.3541391834549],"sales":{"202602":1760}},{"id":"MA010120220806198690","name":"이안경원","industry":"안경렌즈 소매업","coordinates":[127.377519691509,36.3513823028689],"sales":{"202602":2482}},{"id":"MA010120220806199287","name":"박종용세무회계사무소","industry":"세무사","coordinates":[127.382255172141,36.3538184431352],"sales":{"202602":447}},{"id":"MA010120220806199959","name":"케이티공인중개사","industry":"부동산 중개/대리업","coordinates":[127.382572298718,36.3526008426937],"sales":{"202602":2245}},{"id":"MA010120220806200056","name":"메세나국제특허법률사무소","industry":"변리사","coordinates":[127.387194135846,36.3590383613246],"sales":{"202602":145}},{"id":"MA010120220806200061","name":"건축사사무소인디","industry":"건축 설계 및 관련 서비스업","coordinates":[127.387194135846,36.3590383613246],"sales":{"202602":8446}},{"id":"MA010120220806200095","name":"씨유","industry":"편의점","coordinates":[127.378255321953,36.3537590777468],"sales":{"202602":4417}},{"id":"MA010120220806200250","name":"둔산대전떡방앗간","industry":"떡/한과","coordinates":[127.376303623277,36.3533326761399],"sales":{"202602":1132}},{"id":"MA010120220806200401","name":"김한수세무회계사무소","industry":"세무사","coordinates":[127.381508894994,36.3515678916957],"sales":{"202602":2395}},{"id":"MA010120220806200458","name":"곱돌곱창","industry":"곱창 전골/구이","coordinates":[127.376886627223,36.3540968371215],"sales":{"202602":2138}},{"id":"MA010120220806200727","name":"삼우공인노무사사무소","industry":"행정사","coordinates":[127.382255172141,36.3538184431352],"sales":{"202602":180}},{"id":"MA010120220806200808","name":"황진수세무회계사무소","industry":"세무사","coordinates":[127.382572298718,36.3526008426937],"sales":{"202602":892}},{"id":"MA010120220806200933","name":"그린국제특허법률사무소","industry":"변리사","coordinates":[127.381809092951,36.3582896926701],"sales":{"202602":549}},{"id":"MA010120220806201038","name":"명품수선","industry":"의류/이불 수선업","coordinates":[127.378841672693,36.3529101161085],"sales":{"202602":128}},{"id":"MA010120220806201165","name":"홀리크로스","industry":"카페","coordinates":[127.376899481926,36.3521412475642],"sales":{"202602":1714}},{"id":"MA010120220806201356","name":"미향","industry":"일식 회/초밥","coordinates":[127.381691891605,36.3525405759505],"sales":{"202602":3102}},{"id":"MA010120220806201485","name":"키브","industry":"카페","coordinates":[127.38224781456,36.3523135052559],"sales":{"202602":1581}},{"id":"MA010120220806202789","name":"신용일세무회계사무소","industry":"세무사","coordinates":[127.381508894994,36.3515678916957],"sales":{"202602":831}},{"id":"MA010120220806202790","name":"이순우세무회계사무소","industry":"세무사","coordinates":[127.380604071765,36.353355102871],"sales":{"202602":1057}},{"id":"MA010120220806202834","name":"땡이와뚱이네","industry":"김밥/만두/분식","coordinates":[127.381683005614,36.3507202313707],"sales":{"202602":712}},{"id":"MA010120220806202997","name":"김낙범세무회계사무소","industry":"세무사","coordinates":[127.382255172141,36.3538184431352],"sales":{"202602":935}},{"id":"MA010120220806203092","name":"건강시티","industry":"건강보조식품 소매업","coordinates":[127.377071963104,36.3555651666805],"sales":{"202602":499}},{"id":"MA010120220806203222","name":"정국제특허법률사무소","industry":"변리사","coordinates":[127.387194135846,36.3590383613246],"sales":{"202602":172}},{"id":"MA010120220806203253","name":"한밭적산사무소","industry":"건축 설계 및 관련 서비스업","coordinates":[127.382192549024,36.3501238273152],"sales":{"202602":3407}},{"id":"MA010120220806203467","name":"에스파니","industry":"시계/귀금속 소매업","coordinates":[127.378168576315,36.3519479912434],"sales":{"202602":2700}},{"id":"MA010120220806203960","name":"부엉","industry":"요리 주점","coordinates":[127.376767601205,36.3502041373021],"sales":{"202602":3597}},{"id":"MA010120220806203979","name":"더타임약국","industry":"약국","coordinates":[127.37725862822,36.352689830834],"sales":{"202602":13235}},{"id":"MA010120220806204121","name":"우리비전안경원","industry":"안경렌즈 소매업","coordinates":[127.37874036014,36.3526941553509],"sales":{"202602":2193}},{"id":"MA010120220806204272","name":"송주연헤어빌","industry":"미용실","coordinates":[127.377071963104,36.3555651666805],"sales":{"202602":3602}},{"id":"MA010120220806204352","name":"샘머리뜨게방","industry":"실/섬유제품 소매업","coordinates":[127.39432744682,36.3617816339284],"sales":{"202602":626}},{"id":"MA010120220806204396","name":"교촌치킨","industry":"치킨","coordinates":[127.374393142042,36.3522031970709],"sales":{"202602":1172}},{"id":"MA010120220806204401","name":"드림애드","industry":"광고물 설계/제작업","coordinates":[127.377817054951,36.3552834490573],"sales":{"202602":358}},{"id":"MA010120220806204537","name":"쁘렝땅갤러리아","industry":"여성 의류 소매업","coordinates":[127.378168576315,36.3519479912434],"sales":{"202602":216}},{"id":"MA010120220806204613","name":"타임월드지방시","industry":"남성 의류 소매업","coordinates":[127.378168576315,36.3519479912434],"sales":{"202602":648}},{"id":"MA010120220806204626","name":"밀레","industry":"기타 의류 소매업","coordinates":[127.378168576315,36.3519479912434],"sales":{"202602":556}},{"id":"MA010120220806204998","name":"올갱이마을","industry":"백반/한정식","coordinates":[127.380964391277,36.354137976412],"sales":{"202602":1716}},{"id":"MA010120220806205361","name":"일공공일안경원","industry":"안경렌즈 소매업","coordinates":[127.378619965731,36.3508381167776],"sales":{"202602":2883}},{"id":"MA010120220806205605","name":"정우영세무회계사무소","industry":"세무사","coordinates":[127.382174009671,36.348609912509],"sales":{"202602":685}},{"id":"MA010120220806205686","name":"을지의료기","industry":"의료기기 소매업","coordinates":[127.381983876087,36.3552972365294],"sales":{"202602":3877}},{"id":"MA010120220806206286","name":"중일국제특허법률사무소","industry":"변리사","coordinates":[127.387194135846,36.3590383613246],"sales":{"202602":750}},{"id":"MA010120220806206562","name":"업소명없음","industry":"부동산 중개/대리업","coordinates":[127.376506051763,36.351412536195],"sales":{"202602":1305}},{"id":"MA010120220806206728","name":"타조안경원","industry":"안경렌즈 소매업","coordinates":[127.376830620539,36.3494109044474],"sales":{"202602":4546}},{"id":"MA010120220806206773","name":"양평호성할매해장국","industry":"국/탕/찌개류","coordinates":[127.378374927768,36.3554529069255],"sales":{"202602":2868}},{"id":"MA010120220806207101","name":"이쁜네일","industry":"피부 관리실","coordinates":[127.39432744682,36.3617816339284],"sales":{"202602":969}},{"id":"MA010120220806207297","name":"둔산랜드공인중개사사무소","industry":"부동산 중개/대리업","coordinates":[127.376914556439,36.3552682757785],"sales":{"202602":1019}},{"id":"MA010120220806207748","name":"수노래연습장","industry":"노래방","coordinates":[127.382255172141,36.3538184431352],"sales":{"202602":522}},{"id":"MA010120220806207828","name":"만나또만나","industry":"백반/한정식","coordinates":[127.379967971788,36.346255867768],"sales":{"202602":616}},{"id":"MA010120220806207911","name":"제시카","industry":"요리 주점","coordinates":[127.382255172141,36.3538184431352],"sales":{"202602":1846}},{"id":"MA010120220806207928","name":"산드로갤러리아","industry":"여성 의류 소매업","coordinates":[127.378168576315,36.3519479912434],"sales":{"202602":905}},{"id":"MA010120220806207978","name":"익스트림마샬아츠","industry":"레크리에이션 교육기관","coordinates":[127.381332143676,36.3518748552835],"sales":{"202602":1073}},{"id":"MA010120220806208584","name":"슈퍼맨","industry":"일반 유흥 주점","coordinates":[127.377784932004,36.3532468963436],"sales":{"202602":218}},{"id":"MA010120220806208800","name":"청사참치","industry":"일식 회/초밥","coordinates":[127.388720418704,36.3590153821647],"sales":{"202602":1781}},{"id":"MA010120220806208932","name":"가르텐비어","industry":"생맥주 전문","coordinates":[127.388720418704,36.3590153821647],"sales":{"202602":1753}},{"id":"MA010120220806209082","name":"세인피부관리실","industry":"화장품 소매업","coordinates":[127.382190875296,36.3497813861794],"sales":{"202602":263}},{"id":"MA010120220806209417","name":"더희망약국","industry":"약국","coordinates":[127.382411263219,36.3515650073185],"sales":{"202602":6677}},{"id":"MA010120220806210074","name":"갤러리비타민약국","industry":"약국","coordinates":[127.37790890611,36.3512368846108],"sales":{"202602":7085}},{"id":"MA010120220806210341","name":"갤러리","industry":"건강보조식품 소매업","coordinates":[127.37790890611,36.3512368846108],"sales":{"202602":625}},{"id":"MA010120220806210366","name":"굴마당막창","industry":"곱창 전골/구이","coordinates":[127.381636551455,36.3594617696271],"sales":{"202602":245}},{"id":"MA010120220806211181","name":"미루나무","industry":"김밥/만두/분식","coordinates":[127.378374927768,36.3554529069255],"sales":{"202602":1344}},{"id":"MA010120220806211461","name":"덕원세무회계사무소","industry":"세무사","coordinates":[127.382255172141,36.3538184431352],"sales":{"202602":512}},{"id":"MA010120220806211555","name":"정관장홍삼둔산","industry":"건강보조식품 소매업","coordinates":[127.378374927768,36.3554529069255],"sales":{"202602":790}},{"id":"MA010120220806211955","name":"제주갈치마당","industry":"백반/한정식","coordinates":[127.382193077576,36.3502319666171],"sales":{"202602":2361}},{"id":"MA010120220806212395","name":"수통골촌두부식당","industry":"백반/한정식","coordinates":[127.378493148211,36.3499553670089],"sales":{"202602":1218}},{"id":"MA010120220806212771","name":"블랙펄","industry":"네일숍","coordinates":[127.377784932004,36.3532468963436],"sales":{"202602":847}},{"id":"MA010120220806212791","name":"B&B근육관리센타","industry":"유사 의료업","coordinates":[127.380199169658,36.3594393167938],"sales":{"202602":490}},{"id":"MA010120220806212969","name":"쌈채우리","industry":"백반/한정식","coordinates":[127.378902762082,36.3471243785024],"sales":{"202602":1799}},{"id":"MA010120220806213134","name":"모현혜세무회계사무소","industry":"세무사","coordinates":[127.382186338755,36.34885319037],"sales":{"202602":546}},{"id":"MA010120220806213308","name":"둔산공주칼국수","industry":"국수/칼국수","coordinates":[127.378374927768,36.3554529069255],"sales":{"202602":948}},{"id":"MA010120220806213339","name":"화평","industry":"변리사","coordinates":[127.389778896649,36.3590209456752],"sales":{"202602":443}},{"id":"MA010120220806213873","name":"LSG국제특허법률사무소","industry":"변리사","coordinates":[127.389090327706,36.3594647648483],"sales":{"202602":423}},{"id":"MA010120220806214390","name":"케네스레이디갤러리아","industry":"여성 의류 소매업","coordinates":[127.378168576315,36.3519479912434],"sales":{"202602":746}},{"id":"MA010120220806214949","name":"손국제특허법률사무소","industry":"변리사","coordinates":[127.387194135846,36.3590383613246],"sales":{"202602":281}},{"id":"MA010120220806215173","name":"시티의료기","industry":"의료기기 소매업","coordinates":[127.382252655061,36.3510248099354],"sales":{"202602":1704}},{"id":"MA010120220806215267","name":"손춘지콩나물국밥","industry":"국/탕/찌개류","coordinates":[127.380611222501,36.3548239943632],"sales":{"202602":3520}},{"id":"MA010120220806215321","name":"하나","industry":"일식 회/초밥","coordinates":[127.375197054502,36.350254137596],"sales":{"202602":1790}},{"id":"MA010120220806215650","name":"콩디자인기획","industry":"시각 디자인업","coordinates":[127.378841672693,36.3529101161085],"sales":{"202602":190}},{"id":"MA010120220806215673","name":"길국제특허법률사무소","industry":"변리사","coordinates":[127.387194135846,36.3590383613246],"sales":{"202602":485}},{"id":"MA010120220806215687","name":"둔산이내훈의원","industry":"건강보조식품 소매업","coordinates":[127.382586716023,36.3487167329215],"sales":{"202602":1023}},{"id":"MA010120220806215789","name":"보브","industry":"기타 의류 소매업","coordinates":[127.378168576315,36.3519479912434],"sales":{"202602":1867}},{"id":"MA010120220806215896","name":"마더스약국","industry":"약국","coordinates":[127.37776666297,36.3563830409352],"sales":{"202602":18854}},{"id":"MA010120220806216223","name":"쿤","industry":"요리 주점","coordinates":[127.37602281377,36.3505399180467],"sales":{"202602":1190}},{"id":"MA010120220806216245","name":"쌍둥이수육국밥","industry":"국/탕/찌개류","coordinates":[127.373898265161,36.3512224658576],"sales":{"202602":1406}},{"id":"MA010120220806216434","name":"노블국제특허법률사무소","industry":"변리사","coordinates":[127.387194135846,36.3590383613246],"sales":{"202602":371}},{"id":"MA010120220806216468","name":"012베네통","industry":"기타 의류 소매업","coordinates":[127.378168576315,36.3519479912434],"sales":{"202602":1643}},{"id":"MA010120220806216760","name":"고향떡방앗간","industry":"떡/한과","coordinates":[127.392653648896,36.3590656036205],"sales":{"202602":1518}},{"id":"MA010120220806216845","name":"설천순대국밥","industry":"백반/한정식","coordinates":[127.380585606917,36.3541391834549],"sales":{"202602":1485}},{"id":"MA010120220806217123","name":"세븐일레븐둔산","industry":"편의점","coordinates":[127.37576546299,36.3503064220569],"sales":{"202602":2530}},{"id":"MA010120220806217481","name":"삼성","industry":"슈퍼마켓","coordinates":[127.378374927768,36.3554529069255],"sales":{"202602":7254}},{"id":"MA010120220806217575","name":"둥지하우스","industry":"기타 의류 소매업","coordinates":[127.392653648896,36.3590656036205],"sales":{"202602":1674}},{"id":"MA010120220806218573","name":"캠브리지멤버스","industry":"남성 의류 소매업","coordinates":[127.378168576315,36.3519479912434],"sales":{"202602":1870}},{"id":"MA010120220806218579","name":"슈아브메이크업&네일","industry":"네일숍","coordinates":[127.376207474027,36.3518730757825],"sales":{"202602":320}},{"id":"MA010120220806218883","name":"이디야대전","industry":"카페","coordinates":[127.388141110568,36.3590262771513],"sales":{"202602":1506}},{"id":"MA010120220806219200","name":"은하수세탁소","industry":"세탁소","coordinates":[127.380075395952,36.3500224389507],"sales":{"202602":235}},{"id":"MA010120220806219263","name":"타미갤러리아아동","industry":"기타 의류 소매업","coordinates":[127.378168576315,36.3519479912434],"sales":{"202602":1525}},{"id":"MA010120220806219605","name":"에이엔건축사사무소","industry":"건축 설계 및 관련 서비스업","coordinates":[127.389090327706,36.3594647648483],"sales":{"202602":5941}},{"id":"MA010120220806219879","name":"아름다운차이","industry":"화장품 소매업","coordinates":[127.377802952814,36.3546706950867],"sales":{"202602":465}},{"id":"MA010120220806219894","name":"동양월드수선","industry":"의류/이불 수선업","coordinates":[127.378168576315,36.3519479912434],"sales":{"202602":269}},{"id":"MA010120220806220641","name":"둔산스포츠웨어","industry":"기타 의류 소매업","coordinates":[127.378168576315,36.3519479912434],"sales":{"202602":1275}},{"id":"MA010120220806220782","name":"정은종합공사","industry":"철물/공구 소매업","coordinates":[127.39432744682,36.3617816339284],"sales":{"202602":619}},{"id":"MA010120220806220808","name":"선진국제특허법률사무소","industry":"변리사","coordinates":[127.387194135846,36.3590383613246],"sales":{"202602":165}},{"id":"MA010120220806220824","name":"SNPE체형교정요가센터","industry":"요가/필라테스 학원","coordinates":[127.389090327706,36.3594647648483],"sales":{"202602":460}},{"id":"MA010120220806221602","name":"엠제이클리닉","industry":"건강보조식품 소매업","coordinates":[127.376830620539,36.3494109044474],"sales":{"202602":747}},{"id":"MA010120220806222011","name":"아름다운컨디셔닝","industry":"마사지/안마","coordinates":[127.382255172141,36.3538184431352],"sales":{"202602":546}},{"id":"MA010120220806222012","name":"RnD국제특허법률사무소","industry":"변리사","coordinates":[127.387194135846,36.3590383613246],"sales":{"202602":325}},{"id":"MA010120220806222025","name":"갤러리성형외과","industry":"성형외과 의원","coordinates":[127.377519691509,36.3513823028689],"sales":{"202602":13693}},{"id":"MA010120220806222040","name":"시티성형외과","industry":"성형외과 의원","coordinates":[127.382252655061,36.3510248099354],"sales":{"202602":14843}},{"id":"MA010120220806222041","name":"미엘성형외과","industry":"성형외과 의원","coordinates":[127.378384145358,36.3504513584919],"sales":{"202602":16575}},{"id":"MA010120220806222063","name":"이헌주성형외과의원","industry":"성형외과 의원","coordinates":[127.377471040888,36.3505353520911],"sales":{"202602":24581}},{"id":"MA010120220806222077","name":"김재룡성형외과의원","industry":"성형외과 의원","coordinates":[127.376830620539,36.3494109044474],"sales":{"202602":8124}},{"id":"MA010120220806222090","name":"양승돈성형외과의원","industry":"성형외과 의원","coordinates":[127.378496506951,36.3506492611466],"sales":{"202602":11471}},{"id":"MA010120220806222098","name":"오라클피부과의원","industry":"피부/비뇨기과 의원","coordinates":[127.377687751294,36.3492730221721],"sales":{"202602":12726}},{"id":"MA010120220806222113","name":"제네스성형외과","industry":"성형외과 의원","coordinates":[127.379723813064,36.3510328726446],"sales":{"202602":12106}},{"id":"MA010120220806222123","name":"엘젠느의원","industry":"기타 의원","coordinates":[127.377662685821,36.3486963492266],"sales":{"202602":10111}},{"id":"MA010120220806222130","name":"닥터스미성형외과","industry":"성형외과 의원","coordinates":[127.377123390962,36.3500588269681],"sales":{"202602":7750}},{"id":"MA010120220806222148","name":"이종락성형외과","industry":"성형외과 의원","coordinates":[127.378193280153,36.3501455631969],"sales":{"202602":11102}},{"id":"MA010120220806222179","name":"카라의원","industry":"피부/비뇨기과 의원","coordinates":[127.376752398308,36.3516731004729],"sales":{"202602":24117}},{"id":"MA010120220806222249","name":"상지국제특허법률사무소","industry":"변리사","coordinates":[127.387194135846,36.3590383613246],"sales":{"202602":154}},{"id":"MA010120220806222337","name":"두리이비인후과의원","industry":"이비인후과 의원","coordinates":[127.376830620539,36.3494109044474],"sales":{"202602":4111}},{"id":"MA010120220806222548","name":"보드람치킨","industry":"치킨","coordinates":[127.374505711941,36.3524461615302],"sales":{"202602":1718}},{"id":"MA010120220806222691","name":"김정규세무사사무소","industry":"세무사","coordinates":[127.381508894994,36.3515678916957],"sales":{"202602":899}},{"id":"MA010120220806222803","name":"트라이엄프","industry":"기타 의류 소매업","coordinates":[127.378168576315,36.3519479912434],"sales":{"202602":750}},{"id":"MA010120220806222809","name":"명가제화","industry":"신발 소매업","coordinates":[127.378168576315,36.3519479912434],"sales":{"202602":517}},{"id":"MA010120220806222979","name":"황토불낙보쌈","industry":"족발/보쌈","coordinates":[127.387194135846,36.3590383613246],"sales":{"202602":3496}},{"id":"MA010120220806223049","name":"비에스지대체요법","industry":"건강보조식품 소매업","coordinates":[127.380234731956,36.3507158367826],"sales":{"202602":1242}},{"id":"MA010120220806223152","name":"건강미내과의원","industry":"치과의원","coordinates":[127.382586716023,36.3487167329215],"sales":{"202602":8488}},{"id":"MA010120220806223312","name":"아이원","industry":"독서실/스터디 카페","coordinates":[127.376083976051,36.3516752060546],"sales":{"202602":3835}},{"id":"MA010120220806223378","name":"틈새라면","industry":"김밥/만두/분식","coordinates":[127.377784932004,36.3532468963436],"sales":{"202602":495}},{"id":"MA010120220806223473","name":"도드건축사사무소","industry":"건축 설계 및 관련 서비스업","coordinates":[127.389090327706,36.3594647648483],"sales":{"202602":5188}},{"id":"MA010120220806223525","name":"위모","industry":"경양식","coordinates":[127.380985298559,36.3515695622226],"sales":{"202602":2923}},{"id":"MA010120220806223581","name":"지엔티국제특허법률사무소","industry":"변리사","coordinates":[127.389090327706,36.3594647648483],"sales":{"202602":175}},{"id":"MA010120220806223649","name":"주문진막국수","industry":"국수/칼국수","coordinates":[127.376885758414,36.3539166049564],"sales":{"202602":2242}},{"id":"MA010120220806223676","name":"갤러리스크린골프","industry":"골프 연습장","coordinates":[127.375739663839,36.3518925711808],"sales":{"202602":606}},{"id":"MA010120220806223819","name":"스마트하우징","industry":"건축물 일반 청소업","coordinates":[127.374798427237,36.3507600466109],"sales":{"202602":258}},{"id":"MA010120220806223986","name":"레지던스호텔라미아","industry":"호텔/리조트","coordinates":[127.380602755735,36.3530847547041],"sales":{"202602":2056}},{"id":"MA010120220806224393","name":"둔산이마트허쉬파피","industry":"신발 소매업","coordinates":[127.37776666297,36.3563830409352],"sales":{"202602":240}},{"id":"MA010120220806224444","name":"고운님","industry":"기타 의류 소매업","coordinates":[127.381683005614,36.3507202313707],"sales":{"202602":1060}},{"id":"MA010120220806224831","name":"미담건축사사무소","industry":"건축 설계 및 관련 서비스업","coordinates":[127.382603220078,36.3475361405262],"sales":{"202602":4842}},{"id":"MA010120220806224907","name":"스파더문","industry":"피부 관리실","coordinates":[127.377152843084,36.3515456727669],"sales":{"202602":226}},{"id":"MA010120220806224977","name":"업소명없음","industry":"부동산 중개/대리업","coordinates":[127.380199169658,36.3594393167938],"sales":{"202602":2729}},{"id":"MA010120220806225005","name":"미탐의원","industry":"피부/비뇨기과 의원","coordinates":[127.377695586169,36.3508951125741],"sales":{"202602":24285}},{"id":"MA010120220806225028","name":"동안미소한의원","industry":"한의원","coordinates":[127.376207474027,36.3518730757825],"sales":{"202602":5923}},{"id":"MA010120220806225343","name":"한화월드","industry":"여성 의류 소매업","coordinates":[127.378168576315,36.3519479912434],"sales":{"202602":322}},{"id":"MA010120220806225567","name":"새우리국제특허법률사무소","industry":"변리사","coordinates":[127.387194135846,36.3590383613246],"sales":{"202602":304}},{"id":"MA010120220806225826","name":"아가방둔산이마트","industry":"유아용 의류 소매업","coordinates":[127.37776666297,36.3563830409352],"sales":{"202602":471}},{"id":"MA010120220806225875","name":"보아스","industry":"광고 대행업","coordinates":[127.37831342389,36.3496495365905],"sales":{"202602":5453}},{"id":"MA010120220806225891","name":"아름다운선택","industry":"화장품 소매업","coordinates":[127.37538455539,36.3521820632166],"sales":{"202602":407}},{"id":"MA010120220806226170","name":"드림바디휘트니스","industry":"헬스장","coordinates":[127.377796545142,36.3510389814192],"sales":{"202602":403}},{"id":"MA010120220806226173","name":"둔산라파엘","industry":"건강보조식품 소매업","coordinates":[127.37821775861,36.352903080791],"sales":{"202602":2598}},{"id":"MA010120220806226254","name":"숨은그림성형외과","industry":"성형외과 의원","coordinates":[127.379985847704,36.3545195854458],"sales":{"202602":26451}},{"id":"MA010120220806226326","name":"깻잎두마리치킨","industry":"치킨","coordinates":[127.392653648896,36.3590656036205],"sales":{"202602":644}},{"id":"MA010120220806226700","name":"애니","industry":"기타 의류 소매업","coordinates":[127.377817054951,36.3552834490573],"sales":{"202602":716}},{"id":"MA010120220806227123","name":"리바이스","industry":"남성 의류 소매업","coordinates":[127.378168576315,36.3519479912434],"sales":{"202602":1251}},{"id":"MA010120220806227648","name":"에이치알인사이트컨설팅","industry":"경영 컨설팅업","coordinates":[127.382589435076,36.3469954794433],"sales":{"202602":1836}},{"id":"MA010120220806227895","name":"미소퀸","industry":"화장품 소매업","coordinates":[127.398948400381,36.3590177167396],"sales":{"202602":892}},{"id":"MA010120220806228034","name":"비이커갤러리아","industry":"기타 의류 소매업","coordinates":[127.378168576315,36.3519479912434],"sales":{"202602":1139}},{"id":"MA010120220806228657","name":"법률사무소재성","industry":"변호사","coordinates":[127.389090327706,36.3594647648483],"sales":{"202602":3719}},{"id":"MA010120220806228785","name":"대한서비스교육협회","industry":"그 외 기타 교육기관","coordinates":[127.37831342389,36.3496495365905],"sales":{"202602":994}},{"id":"MA010120220806228960","name":"희노래연습장","industry":"노래방","coordinates":[127.382255172141,36.3538184431352],"sales":{"202602":615}},{"id":"MA010120220806228971","name":"로브드수와레","industry":"의류 대여업","coordinates":[127.379967787205,36.3530957872297],"sales":{"202602":1081}},{"id":"MA010120220806228997","name":"신보회계사무소","industry":"세무사","coordinates":[127.38261687303,36.3480497667238],"sales":{"202602":758}},{"id":"MA010120220806229120","name":"수정떡방앗간","industry":"떡/한과","coordinates":[127.398948400381,36.3590177167396],"sales":{"202602":1764}},{"id":"MA010120220806229373","name":"이인희세무회계사무소","industry":"세무사","coordinates":[127.381508894994,36.3515678916957],"sales":{"202602":642}},{"id":"MA010120220806229478","name":"박운행·김은하세무회계사무소","industry":"세무사","coordinates":[127.381508894994,36.3515678916957],"sales":{"202602":1592}},{"id":"MA010120220806229575","name":"오렌즈","industry":"안경렌즈 소매업","coordinates":[127.37576546299,36.3503064220569],"sales":{"202602":1902}},{"id":"MA010120220806229582","name":"소다갤러리아","industry":"신발 소매업","coordinates":[127.378168576315,36.3519479912434],"sales":{"202602":410}},{"id":"MA010120220806229847","name":"필라테스라인","industry":"요가/필라테스 학원","coordinates":[127.377662685821,36.3486963492266],"sales":{"202602":525}},{"id":"MA010120220806229920","name":"LSG국제특허법률사무소","industry":"변리사","coordinates":[127.389090327706,36.3594647648483],"sales":{"202602":344}},{"id":"MA010120220806229954","name":"페이스퀸","industry":"피부 관리실","coordinates":[127.380611222501,36.3548239943632],"sales":{"202602":928}},{"id":"MA010120220806229964","name":"자자헤어","industry":"미용실","coordinates":[127.377071963104,36.3555651666805],"sales":{"202602":855}},{"id":"MA010120220806230193","name":"정림스토아향촌점","industry":"슈퍼마켓","coordinates":[127.376303623277,36.3533326761399],"sales":{"202602":8509}},{"id":"MA010120220806230243","name":"탑스크린골프","industry":"골프 연습장","coordinates":[127.376886627223,36.3540968371215],"sales":{"202602":935}},{"id":"MA010120220806230396","name":"아미치0.3","industry":"피부 관리실","coordinates":[127.377796545142,36.3510389814192],"sales":{"202602":901}},{"id":"MA010120220806230451","name":"둔산라파엘의원","industry":"기타 의원","coordinates":[127.37821775861,36.352903080791],"sales":{"202602":5208}},{"id":"MA010120220806230832","name":"에덴반찬","industry":"반찬/식료품 소매업","coordinates":[127.391483137641,36.3633860629986],"sales":{"202602":536}},{"id":"MA010120220806231030","name":"대한경매공인중개사사무소","industry":"부동산 중개/대리업","coordinates":[127.37821775861,36.352903080791],"sales":{"202602":3229}},{"id":"MA010120220806231041","name":"업소명없음","industry":"기타 여행 보조/예약 서비스업","coordinates":[127.380610432823,36.3546617855046],"sales":{"202602":124}},{"id":"MA010120220806231125","name":"불타는쪽갈비","industry":"돼지고기 구이/찜","coordinates":[127.376902262065,36.3527179906439],"sales":{"202602":1419}},{"id":"MA010120220806231256","name":"주크갤러리아타임월드","industry":"여성 의류 소매업","coordinates":[127.378168576315,36.3519479912434],"sales":{"202602":591}},{"id":"MA010120220806231274","name":"신일회계","industry":"공인회계사","coordinates":[127.38261687303,36.3480497667238],"sales":{"202602":324}},{"id":"MA010120220806231384","name":"떡반집","industry":"김밥/만두/분식","coordinates":[127.374883883465,36.3523188112285],"sales":{"202602":874}},{"id":"MA010120220806231695","name":"한화월드랑방컬렉션","industry":"여성 의류 소매업","coordinates":[127.378168576315,36.3519479912434],"sales":{"202602":525}},{"id":"MA010120220806232025","name":"타임베네통숙녀","industry":"기타 의류 소매업","coordinates":[127.376083976051,36.3516752060546],"sales":{"202602":1316}},{"id":"MA010120220806232290","name":"크로스핏지존","industry":"헬스장","coordinates":[127.382584423421,36.348248129168],"sales":{"202602":1119}},{"id":"MA010120220806232322","name":"컨버스","industry":"신발 소매업","coordinates":[127.378168576315,36.3519479912434],"sales":{"202602":211}},{"id":"MA010120220806232370","name":"신아웰니스의원","industry":"산부인과 의원","coordinates":[127.379865770793,36.352735641742],"sales":{"202602":9227}},{"id":"MA010120220806232451","name":"시골순대국밥","industry":"백반/한정식","coordinates":[127.382255172141,36.3538184431352],"sales":{"202602":6329}},{"id":"MA010120220806232477","name":"김문순세무회계사무소","industry":"세무사","coordinates":[127.382572298718,36.3526008426937],"sales":{"202602":870}},{"id":"MA010120220806232486","name":"청담피부과","industry":"피부/비뇨기과 의원","coordinates":[127.37725862822,36.352689830834],"sales":{"202602":16775}},{"id":"MA010120220806232593","name":"커피블라썸","industry":"카페","coordinates":[127.379956270001,36.350725734269],"sales":{"202602":2736}},{"id":"MA010120220806232845","name":"리틀캔버스","industry":"미술학원","coordinates":[127.378374927768,36.3554529069255],"sales":{"202602":540}},