[{"id":"MA010120220800092018","name":"이쁘다헤어","industry":"미용실","coordinates":[127.352199309895,36.3023273163562],"sales":{"202602":185}},{"id":"MA010120220800111368","name":"정스튜디오","industry":"사진촬영업","coordinates":[127.350468792518,36.3037382471017],"sales":{"202602":660}},{"id":"MA010120220800386215","name":"벵땅","industry":"카페","coordinates":[127.352967398593,36.2998287737316],"sales":{"202602":446}},{"id":"MA010120220800386240","name":"소담목삼","industry":"돼지고기 구이/찜","coordinates":[127.352531425037,36.3043810345165],"sales":{"202602":1673}},{"id":"MA010120220800638749","name":"투썸플레이스대전가수원대로DT점","industry":"카페","coordinates":[127.356232679946,36.3054424706716],"sales":{"202602":746}},{"id":"MA010120220800756389","name":"체인지토탈뷰티샵","industry":"미용실","coordinates":[127.353896995242,36.2985914044394],"sales":{"202602":295}},{"id":"MA010120220800809074","name":"미헤어아트","industry":"미용실","coordinates":[127.353807462801,36.3009527698833],"sales":{"202602":119}},{"id":"MA010120220800890957","name":"은아패션","industry":"기타 의류 소매업","coordinates":[127.352274337362,36.3041564966182],"sales":{"202602":327}},{"id":"MA010120220801232458","name":"탕의전설본가설렁탕","industry":"국/탕/찌개류","coordinates":[127.353891768511,36.3048276069024],"sales":{"202602":1723}},{"id":"MA010120220802242947","name":"청소부장관","industry":"건축물 일반 청소업","coordinates":[127.352031576684,36.2996873434246],"sales":{"202602":442}},{"id":"MA010120220802648218","name":"가수원공인중개사사무소","industry":"부동산 중개/대리업","coordinates":[127.351972633604,36.3014358125998],"sales":{"202602":2853}},{"id":"MA010120220802743627","name":"명공인중개사사무소","industry":"부동산 중개/대리업","coordinates":[127.349542412958,36.3032272848159],"sales":{"202602":3586}},{"id":"MA010120220802921647","name":"드림엘","industry":"전시/컨벤션/행사 대행 서비스업","coordinates":[127.34956158334,36.3025333178253],"sales":{"202602":1183}},{"id":"MA010120220802958900","name":"대전체형교정밸런스핏","industry":"테니스장","coordinates":[127.34956158334,36.3025333178253],"sales":{"202602":507}},{"id":"MA010120220802980164","name":"엔씨디지털","industry":"컴퓨터/노트북/프린터 수리업","coordinates":[127.351680984338,36.3009500318845],"sales":{"202602":896}},{"id":"MA010120220803067404","name":"홍게양대게군","industry":"백반/한정식","coordinates":[127.35570047512,36.2985770408716],"sales":{"202602":863}},{"id":"MA010120220803202698","name":"뷰티풀데이","industry":"피부 관리실","coordinates":[127.350974223853,36.2997535347972],"sales":{"202602":159}},{"id":"MA010120220803212632","name":"요술램프","industry":"전시/컨벤션/행사 대행 서비스업","coordinates":[127.357342921806,36.2998698473727],"sales":{"202602":1582}},{"id":"MA010120220803215043","name":"엔트군단개미","industry":"건축물 일반 청소업","coordinates":[127.353022403158,36.3046229051045],"sales":{"202602":525}},{"id":"MA010120220803352776","name":"대박미용실","industry":"미용실","coordinates":[127.353606699425,36.3008722573305],"sales":{"202602":267}},{"id":"MA010120220803355763","name":"감동밥상&한식","industry":"백반/한정식","coordinates":[127.353511290067,36.299466693469],"sales":{"202602":1060}},{"id":"MA010120220803368468","name":"폴인테리어","industry":"인테리어 디자인업","coordinates":[127.353211878147,36.2997289215621],"sales":{"202602":371}},{"id":"MA010120220803530450","name":"쉴만한물가","industry":"카페","coordinates":[127.355228061468,36.304877714879],"sales":{"202602":682}},{"id":"MA010120220803592055","name":"한시스템공조","industry":"가전제품 수리업","coordinates":[127.356727832454,36.3041523032218],"sales":{"202602":324}},{"id":"MA010120220803826556","name":"가수원의류","industry":"기타 의류 소매업","coordinates":[127.353321996888,36.3043967244219],"sales":{"202602":1231}},{"id":"MA010120220803926768","name":"그린화장품","industry":"화장품 소매업","coordinates":[127.353883766667,36.300592070765],"sales":{"202602":785}},{"id":"MA010120220804251812","name":"단오헤어","industry":"미용실","coordinates":[127.352531425037,36.3043810345165],"sales":{"202602":228}},{"id":"MA010120220804578047","name":"이담옷장","industry":"여성 의류 소매업","coordinates":[127.350720101064,36.3001868485577],"sales":{"202602":814}},{"id":"MA010120220804731565","name":"맨즈헤어","industry":"미용실","coordinates":[127.355029294582,36.3003273315342],"sales":{"202602":150}},{"id":"MA010120220804881545","name":"키즈모터스","industry":"장난감 소매업","coordinates":[127.35296710013,36.3047041748302],"sales":{"202602":1192}},{"id":"MA010120220804897135","name":"다인교육","industry":"미술학원","coordinates":[127.354009326162,36.3012765982961],"sales":{"202602":594}},{"id":"MA010120220804973745","name":"라라의공간","industry":"카페","coordinates":[127.352010242015,36.2998946784292],"sales":{"202602":673}},{"id":"MA010120220804983019","name":"아이스크림365할인점","industry":"슈퍼마켓","coordinates":[127.353186970628,36.3016124681725],"sales":{"202602":9859}},{"id":"MA010120220805031585","name":"양지유통","industry":"채소/과일 소매업","coordinates":[127.358778957855,36.2998385112719],"sales":{"202602":1376}},{"id":"MA010120220805049794","name":"엠제이통상","industry":"문구/회화용품 소매업","coordinates":[127.353804513902,36.2978346838988],"sales":{"202602":4459}},{"id":"MA010120220805064062","name":"강한남자아구","industry":"백반/한정식","coordinates":[127.353055357446,36.3045236776977],"sales":{"202602":473}},{"id":"MA010120220805080878","name":"부추삼겹살","industry":"돼지고기 구이/찜","coordinates":[127.352654903171,36.2996584710125],"sales":{"202602":968}},{"id":"MA010120220805221345","name":"릴터치","industry":"장난감 소매업","coordinates":[127.352731262943,36.304254279511],"sales":{"202602":552}},{"id":"MA010120220805227095","name":"스타일로고","industry":"그 외 기타 종합 소매업","coordinates":[127.353918265331,36.3008352881237],"sales":{"202602":1967}},{"id":"MA010120220805280485","name":"케이클린","industry":"건축물 일반 청소업","coordinates":[127.354454940676,36.3013383608511],"sales":{"202602":472}},{"id":"MA010120220805327388","name":"약손안마지압원","industry":"유사 의료업","coordinates":[127.350740466735,36.2947886977412],"sales":{"202602":624}},{"id":"MA010120220805394280","name":"간의역","industry":"백반/한정식","coordinates":[127.351522410395,36.3003467053915],"sales":{"202602":979}},{"id":"MA010120220805398557","name":"행복한미용실","industry":"미용실","coordinates":[127.353464041975,36.3013322825917],"sales":{"202602":119}},{"id":"MA010120220805515017","name":"정성가득찌개공방","industry":"국/탕/찌개류","coordinates":[127.351501438133,36.3006351457205],"sales":{"202602":2714}},{"id":"MA010120220805631928","name":"대박통신","industry":"핸드폰 소매업","coordinates":[127.353120739701,36.3017388294412],"sales":{"202602":78}},{"id":"MA010120220805751033","name":"트라이가","industry":"기타 의류 소매업","coordinates":[127.35251643839,36.303524955052],"sales":{"202602":1063}},{"id":"MA010120220805751859","name":"이삭토스트가","industry":"토스트/샌드위치/샐러드","coordinates":[127.350468792518,36.3037382471017],"sales":{"202602":1468}},{"id":"MA010120220805752498","name":"연수공인중개사사무소","industry":"부동산 중개/대리업","coordinates":[127.352764149619,36.3016677874532],"sales":{"202602":1509}},{"id":"MA010120220805754317","name":"삼미전기조명","industry":"전기용품/조명장치 소매업","coordinates":[127.35570047512,36.2985770408716],"sales":{"202602":348}},{"id":"MA010120220805754388","name":"쭌헤어","industry":"미용실","coordinates":[127.353186970628,36.3016124681725],"sales":{"202602":269}},{"id":"MA010120220805758865","name":"아쿠아헤어","industry":"미용실","coordinates":[127.353241052159,36.3012608469709],"sales":{"202602":257}},{"id":"MA010120220805760631","name":"이선헤어","industry":"미용실","coordinates":[127.353918265331,36.3008352881237],"sales":{"202602":157}},{"id":"MA010120220805760945","name":"도안열쇠","industry":"그 외 기타 개인/가정용품 수리업","coordinates":[127.353254461146,36.3017654699114],"sales":{"202602":7085}},{"id":"MA010120220805764157","name":"금성렌탈","industry":"기타 개인/가정용품 대여업","coordinates":[127.35866089675,36.2959367408226],"sales":{"202602":325}},{"id":"MA010120220805769637","name":"시크릿헤어크리닉","industry":"미용실","coordinates":[127.351377882223,36.3003921893999],"sales":{"202602":335}},{"id":"MA010120220805775057","name":"첫날한복","industry":"의류 대여업","coordinates":[127.349315884734,36.3023628111474],"sales":{"202602":955}},{"id":"MA010120220805779302","name":"썬특수조명","industry":"기타 산업용 기계/장비 대여업","coordinates":[127.351137932464,36.29653582828],"sales":{"202602":773}},{"id":"MA010120220805783193","name":"예스통신","industry":"핸드폰 소매업","coordinates":[127.354923993202,36.2992011649808],"sales":{"202602":139}},{"id":"MA010120220805786675","name":"한결엔지니어링","industry":"기타 엔지니어링 서비스업","coordinates":[127.349618255946,36.302758447883],"sales":{"202602":1332}},{"id":"MA010120220805792717","name":"신세계전자","industry":"핸드폰 소매업","coordinates":[127.351602607125,36.3008511322404],"sales":{"202602":69}},{"id":"MA010120220805826027","name":"화랑성","industry":"중국집","coordinates":[127.353743617543,36.2991415802739],"sales":{"202602":3731}},{"id":"MA010120220805826497","name":"원조양푼이동태찌개","industry":"백반/한정식","coordinates":[127.352877076037,36.2995496734832],"sales":{"202602":1414}},{"id":"MA010120220805826978","name":"진미귀금속","industry":"시계/귀금속 소매업","coordinates":[127.352897870825,36.3016944283239],"sales":{"202602":1693}},{"id":"MA010120220805838702","name":"가수원열쇠","industry":"철물/공구 소매업","coordinates":[127.352766368545,36.304632672672],"sales":{"202602":283}},{"id":"MA010120220805846079","name":"이오하우징이오인테리어","industry":"인테리어 디자인업","coordinates":[127.353508931514,36.2989440140244],"sales":{"202602":908}},{"id":"MA010120220805853891","name":"육대감생삼겹살","industry":"돼지고기 구이/찜","coordinates":[127.350974223853,36.2997535347972],"sales":{"202602":2407}},{"id":"MA010120220805856926","name":"세원약국","industry":"약국","coordinates":[127.350468792518,36.3037382471017],"sales":{"202602":10703}},{"id":"MA010120220805861341","name":"허니비제이선","industry":"기타 개인/가정용품 대여업","coordinates":[127.352760605346,36.3033530101281],"sales":{"202602":1755}},{"id":"MA010120220805922869","name":"조은공인중개사사무소","industry":"부동산 중개/대리업","coordinates":[127.35312134703,36.3043432462677],"sales":{"202602":4927}},{"id":"MA010120220806144053","name":"집고당","industry":"기념품점","coordinates":[127.352795885446,36.3012982087169],"sales":{"202602":518}},{"id":"MA010120220806155019","name":"명진복지용구","industry":"기타 개인/가정용품 대여업","coordinates":[127.357129136284,36.3042592470674],"sales":{"202602":836}},{"id":"MA010120220806170211","name":"해성유리","industry":"주방/가정용품 소매업","coordinates":[127.35844595835,36.3049221813739],"sales":{"202602":178}},{"id":"MA010120220806171478","name":"온누리미용실","industry":"미용실","coordinates":[127.352181459486,36.3033096583813],"sales":{"202602":86}},{"id":"MA010120220806171818","name":"부여떡방앗간","industry":"떡/한과","coordinates":[127.354548491578,36.2998691547889],"sales":{"202602":730}},{"id":"MA010120220806172161","name":"도마낚시","industry":"장난감 소매업","coordinates":[127.354475697986,36.3034650911203],"sales":{"202602":533}},{"id":"MA010120220806172691","name":"엔젤유통","industry":"국수/칼국수","coordinates":[127.349672112891,36.3023527579905],"sales":{"202602":671}},{"id":"MA010120220806173360","name":"양지건강원","industry":"건강보조식품 소매업","coordinates":[127.355029294582,36.3003273315342],"sales":{"202602":937}},{"id":"MA010120220806174176","name":"현대카모터스","industry":"자동차 정비소","coordinates":[127.354410896992,36.3014466333924],"sales":{"202602":673}},{"id":"MA010120220806174969","name":"한국방제","industry":"건축물 일반 청소업","coordinates":[127.353176935296,36.2993865750798],"sales":{"202602":196}},{"id":"MA010120220806175741","name":"원앙식당","industry":"백반/한정식","coordinates":[127.358109886029,36.304472597241],"sales":{"202602":1807}},{"id":"MA010120220806176096","name":"안경마을안경원","industry":"안경렌즈 소매업","coordinates":[127.350720786935,36.3003400477241],"sales":{"202602":1947}},{"id":"MA010120220806176798","name":"금강이용원","industry":"미용실","coordinates":[127.351687869514,36.3000037691235],"sales":{"202602":174}},{"id":"MA010120220806177083","name":"청맥","industry":"요리 주점","coordinates":[127.350468792518,36.3037382471017],"sales":{"202602":1012}},{"id":"MA010120220806177109","name":"금강상사","industry":"자동차 부품 소매업","coordinates":[127.35679064336,36.3057201733782],"sales":{"202602":2055}},{"id":"MA010120220806177114","name":"영은카써비스","industry":"자동차 정비소","coordinates":[127.354087246278,36.303736597051],"sales":{"202602":2117}},{"id":"MA010120220806177687","name":"샐리미용실","industry":"미용실","coordinates":[127.352395428903,36.3038497376107],"sales":{"202602":143}},{"id":"MA010120220806179524","name":"용치관합기도","industry":"태권도/무술학원","coordinates":[127.355147550593,36.2993987614901],"sales":{"202602":629}},{"id":"MA010120220806180512","name":"전원숯불갈리식당","industry":"돼지고기 구이/찜","coordinates":[127.353399437949,36.3018191124558],"sales":{"202602":1232}},{"id":"MA010120220806180616","name":"신설세탁","industry":"세탁소","coordinates":[127.354504367272,36.2999594039612],"sales":{"202602":145}},{"id":"MA010120220806181654","name":"동양기획","industry":"명함/간판/광고물 제작","coordinates":[127.353245321091,36.3046763176283],"sales":{"202602":981}},{"id":"MA010120220806181698","name":"동양상회","industry":"건어물/젓갈 소매업","coordinates":[127.352897870825,36.3016944283239],"sales":{"202602":1272}},{"id":"MA010120220806182107","name":"나성인테리어","industry":"인테리어 디자인업","coordinates":[127.35100810743,36.2998615773427],"sales":{"202602":729}},{"id":"MA010120220806183098","name":"경희홈패션","industry":"침구류/커튼 소매업","coordinates":[127.352529762101,36.3040115544896],"sales":{"202602":656}},{"id":"MA010120220806184655","name":"지코바치킨","industry":"치킨","coordinates":[127.353088352276,36.3044334619877],"sales":{"202602":1105}},{"id":"MA010120220806187880","name":"페리카나치킨","industry":"치킨","coordinates":[127.351535322827,36.3007431880946],"sales":{"202602":757}},{"id":"MA010120220806190337","name":"온누리약국","industry":"약국","coordinates":[127.354415669886,36.3000407734187],"sales":{"202602":7861}},{"id":"MA010120220806192005","name":"사람이꽃보다아름다워","industry":"미용실","coordinates":[127.351789119125,36.3002377789395],"sales":{"202602":158}},{"id":"MA010120220806193050","name":"짱종합화장품","industry":"화장품 소매업","coordinates":[127.352461257252,36.3036332596839],"sales":{"202602":459}},{"id":"MA010120220806193701","name":"CPI자동차칼라매치","industry":"자동차 정비소","coordinates":[127.353756901983,36.3045486394191],"sales":{"202602":1874}},{"id":"MA010120220806194274","name":"슈퍼오토바이센타","industry":"모터사이클 및 부품 소매업","coordinates":[127.353756901983,36.3045486394191],"sales":{"202602":1105}},{"id":"MA010120220806194276","name":"명관이용원","industry":"미용실","coordinates":[127.350942852938,36.3026914842799],"sales":{"202602":378}},{"id":"MA010120220806194301","name":"서해반점식당","industry":"중국집","coordinates":[127.353629359484,36.2984930661232],"sales":{"202602":1328}},{"id":"MA010120220806194315","name":"청보석","industry":"시계/귀금속 소매업","coordinates":[127.353606699425,36.3008722573305],"sales":{"202602":2233}},{"id":"MA010120220806194334","name":"은아상조","industry":"장례식장","coordinates":[127.353985010616,36.2811081573462],"sales":{"202602":21028}},{"id":"MA010120220806194338","name":"명성종합철물","industry":"철물/공구 소매업","coordinates":[127.350468792518,36.3037382471017],"sales":{"202602":862}},{"id":"MA010120220806194354","name":"대림식당","industry":"백반/한정식","coordinates":[127.354105288685,36.3003390835695],"sales":{"202602":1087}},{"id":"MA010120220806194358","name":"대경세탁소","industry":"세탁소","coordinates":[127.352877076037,36.2995496734832],"sales":{"202602":407}},{"id":"MA010120220806194364","name":"문화기획","industry":"명함/간판/광고물 제작","coordinates":[127.355327205746,36.2972804463514],"sales":{"202602":867}},{"id":"MA010120220806194371","name":"대웅이용원","industry":"미용실","coordinates":[127.354945728278,36.2990839466099],"sales":{"202602":105}},{"id":"MA010120220806194379","name":"궁중미용실","industry":"미용실","coordinates":[127.355055546264,36.2987501826568],"sales":{"202602":331}},{"id":"MA010120220806194388","name":"기쁨주는머리방","industry":"미용실","coordinates":[127.353120739701,36.3017388294412],"sales":{"202602":514}},{"id":"MA010120220806194392","name":"길미용실","industry":"미용실","coordinates":[127.35226619122,36.3023451429776],"sales":{"202602":265}},{"id":"MA010120220806194400","name":"루미엘","industry":"김밥/만두/분식","coordinates":[127.349672112891,36.3023527579905],"sales":{"202602":1379}},{"id":"MA010120220806194411","name":"약수터식당","industry":"돼지고기 구이/찜","coordinates":[127.349816714385,36.2923491940739],"sales":{"202602":1528}},{"id":"MA010120220806194418","name":"장수유통","industry":"슈퍼마켓","coordinates":[127.353364411968,36.3014587427352],"sales":{"202602":5425}},{"id":"MA010120220806195552","name":"한밭열쇠","industry":"철물/공구 소매업","coordinates":[127.353618903723,36.303575770301],"sales":{"202602":628}},{"id":"MA010120220806195902","name":"코코네일","industry":"네일숍","coordinates":[127.354689834438,36.2991207533448],"sales":{"202602":199}},{"id":"MA010120220806196527","name":"대산컴퓨터자수타올송림송월","industry":"침구류/커튼 소매업","coordinates":[127.353321996888,36.3043967244219],"sales":{"202602":556}},{"id":"MA010120220806196664","name":"원헤어라인","industry":"미용실","coordinates":[127.355526203202,36.2969734523308],"sales":{"202602":160}},{"id":"MA010120220806196993","name":"기성공인중개사사무소","industry":"부동산 중개/대리업","coordinates":[127.353662949677,36.3034674980774],"sales":{"202602":4085}},{"id":"MA010120220806197137","name":"제3의학교육원","industry":"그 외 기타 교육기관","coordinates":[127.351142552048,36.3000504310882],"sales":{"202602":1266}},{"id":"MA010120220806197978","name":"대전방재","industry":"소독, 구충 및 방제 서비스업","coordinates":[127.352154728388,36.2998401819448],"sales":{"202602":1576}},{"id":"MA010120220806198677","name":"모드헤어","industry":"미용실","coordinates":[127.352763852174,36.3040739468064],"sales":{"202602":111}},{"id":"MA010120220806199461","name":"수현헤어라인","industry":"미용실","coordinates":[127.350942852938,36.3026914842799],"sales":{"202602":188}},{"id":"MA010120220806200134","name":"동명가구갤러리","industry":"가구 소매업","coordinates":[127.357342921806,36.2998698473727],"sales":{"202602":1970}},{"id":"MA010120220806201247","name":"가수원휘트니스헬스","industry":"헬스장","coordinates":[127.349542412958,36.3032272848159],"sales":{"202602":816}},{"id":"MA010120220806201754","name":"피노키오","industry":"문구/회화용품 소매업","coordinates":[127.352897870825,36.3016944283239],"sales":{"202602":2395}},{"id":"MA010120220806202146","name":"새벽김밥","industry":"김밥/만두/분식","coordinates":[127.352942152621,36.30410946789],"sales":{"202602":516}},{"id":"MA010120220806203309","name":"영양집","industry":"요리 주점","coordinates":[127.352665191381,36.3044166873179],"sales":{"202602":799}},{"id":"MA010120220806203506","name":"유로모터스","industry":"자동차 정비소","coordinates":[127.354438381646,36.3050602951171],"sales":{"202602":1293}},{"id":"MA010120220806204320","name":"산호미용실","industry":"미용실","coordinates":[127.349542412958,36.3032272848159],"sales":{"202602":150}},{"id":"MA010120220806205788","name":"하드닥터대전아이폰수리데이터복구","industry":"핸드폰/통신장비 수리업","coordinates":[127.350468792518,36.3037382471017],"sales":{"202602":337}},{"id":"MA010120220806207174","name":"신진미용실","industry":"미용실","coordinates":[127.353677348888,36.2992589301725],"sales":{"202602":213}},{"id":"MA010120220806208282","name":"구로종합기계공구","industry":"철물/공구 소매업","coordinates":[127.353223460067,36.3047665004837],"sales":{"202602":1630}},{"id":"MA010120220806208609","name":"다들벨리댄스아카데미","industry":"레크리에이션 교육기관","coordinates":[127.352465474613,36.3045704773349],"sales":{"202602":621}},{"id":"MA010120220806208671","name":"은아랜드공인중개사사무소","industry":"부동산 중개/대리업","coordinates":[127.353254461146,36.3017654699114],"sales":{"202602":2184}},{"id":"MA010120220806212327","name":"코인하우스","industry":"슈퍼마켓","coordinates":[127.354322931548,36.3016902135526],"sales":{"202602":3577}},{"id":"MA010120220806212399","name":"땡큐노래연습장","industry":"노래방","coordinates":[127.352164500117,36.3044902578215],"sales":{"202602":263}},{"id":"MA010120220806213693","name":"피엠푸드가수원","industry":"피자","coordinates":[127.353807462801,36.3009527698833],"sales":{"202602":3876}},{"id":"MA010120220806215352","name":"나의쉼터","industry":"카페","coordinates":[127.35489128841,36.2993544632438],"sales":{"202602":934}},{"id":"MA010120220806217135","name":"가수원횟집","industry":"횟집","coordinates":[127.352320574403,36.3045348571224],"sales":{"202602":923}},{"id":"MA010120220806218492","name":"한미식당","industry":"경양식","coordinates":[127.356120358397,36.3052265215038],"sales":{"202602":1377}},{"id":"MA010120220806219268","name":"해동세탁소","industry":"세탁소","coordinates":[127.352095382916,36.3014985339975],"sales":{"202602":181}},{"id":"MA010120220806219880","name":"건강약국","industry":"약국","coordinates":[127.352876162815,36.3042898992293],"sales":{"202602":5178}},{"id":"MA010120220806219887","name":"이숙경뷰티","industry":"피부 관리실","coordinates":[127.352164500117,36.3044902578215],"sales":{"202602":984}},{"id":"MA010120220806220572","name":"장박사카서비스","industry":"자동차 정비소","coordinates":[127.353811736558,36.3018989995294],"sales":{"202602":1888}},{"id":"MA010120220806221282","name":"한국소방","industry":"그 외 기타 상품 전문 소매업","coordinates":[127.357129136284,36.3042592470674],"sales":{"202602":1903}},{"id":"MA010120220806221833","name":"오클로즈헤어샵","industry":"미용실","coordinates":[127.35312134703,36.3043432462677],"sales":{"202602":72}},{"id":"MA010120220806222065","name":"만석의원","industry":"내과/소아과 의원","coordinates":[127.352610374954,36.3046060973708],"sales":{"202602":10606}},{"id":"MA010120220806223250","name":"개미세탁소","industry":"세탁소","coordinates":[127.353030287486,36.3039019356375],"sales":{"202602":211}},{"id":"MA010120220806224263","name":"가수원떡방앗간","industry":"떡/한과","coordinates":[127.352538218777,36.3034167488862],"sales":{"202602":2106}},{"id":"MA010120220806224511","name":"족발사랑","industry":"족발/보쌈","coordinates":[127.352822993988,36.2999012946234],"sales":{"202602":1594}},{"id":"MA010120220806225038","name":"일이삼가설재","industry":"건설기계/장비 대여업","coordinates":[127.3532513325,36.2887253454751],"sales":{}},{"id":"MA010120220806225066","name":"정일떡방앗간","industry":"떡/한과","coordinates":[127.35258226614,36.3033084770502],"sales":{"202602":578}},{"id":"MA010120220806225155","name":"공간&미인테리어","industry":"인테리어 디자인업","coordinates":[127.350854101586,36.3002765737477],"sales":{"202602":775}},{"id":"MA010120220806225561","name":"굿모닝보청기","industry":"의료기기 소매업","coordinates":[127.350468792518,36.3037382471017],"sales":{"202602":3117}},{"id":"MA010120220806225836","name":"씨에이치골프","industry":"운동용품 소매업","coordinates":[127.354925449592,36.3044370341464],"sales":{"202602":1510}},{"id":"MA010120220806227086","name":"재빈백반","industry":"백반/한정식","coordinates":[127.350886774293,36.3001142648517],"sales":{"202602":1471}},{"id":"MA010120220806227675","name":"효성자동차운전전문학원","industry":"운전학원","coordinates":[127.355699895962,36.303353313291],"sales":{"202602":3970}},{"id":"MA010120220806229275","name":"친절할인마트","industry":"슈퍼마켓","coordinates":[127.34956158334,36.3025333178253],"sales":{"202602":6663}},{"id":"MA010120220806229293","name":"가람유통","industry":"가전제품 소매업","coordinates":[127.355014470449,36.2970560794018],"sales":{"202602":303}},{"id":"MA010120220806229401","name":"제이엠컴퍼니","industry":"광고물 설계/제작업","coordinates":[127.353459114404,36.2977726226159],"sales":{"202602":796}},{"id":"MA010120220806229820","name":"가수원삼성공인중개사사무소","industry":"부동산 중개/대리업","coordinates":[127.351737216744,36.3010760321229],"sales":{"202602":1168}},{"id":"MA010120220806231257","name":"일흥떡집","industry":"떡/한과","coordinates":[127.352876162815,36.3042898992293],"sales":{"202602":582}},{"id":"MA010120220806231613","name":"선은유통","industry":"액세서리/잡화 소매업","coordinates":[127.355602904441,36.2967028691043],"sales":{"202602":568}},{"id":"MA010120220806231638","name":"스타노래연습장","industry":"노래방","coordinates":[127.350976404065,36.3002401674517],"sales":{"202602":489}},{"id":"MA010120220806232057","name":"롯데리아가","industry":"버거","coordinates":[127.358590361413,36.3024164605545],"sales":{"202602":3802}},{"id":"MA010120220806233134","name":"꾸에로페페","industry":"그 외 기타 교육기관","coordinates":[127.351933606285,36.3001832827211],"sales":{"202602":1184}},{"id":"MA010120220806233423","name":"진성","industry":"부동산 중개/대리업","coordinates":[127.358327170138,36.2959918124543],"sales":{"202602":2330}},{"id":"MA010120220806233628","name":"김밥과친구들","industry":"김밥/만두/분식","coordinates":[127.351445246857,36.3005181570726],"sales":{"202602":656}},{"id":"MA010120220806233711","name":"행님아한잔하자","industry":"요리 주점","coordinates":[127.351522410395,36.3003467053915],"sales":{"202602":1288}},{"id":"MA010120220806235546","name":"옐로우헤어","industry":"미용실","coordinates":[127.352095382916,36.3014985339975],"sales":{"202602":337}},{"id":"MA010120220806236012","name":"J.Mania디자인","industry":"광고물 설계/제작업","coordinates":[127.355504592228,36.297117705988],"sales":{"202602":465}},{"id":"MA010120220806236246","name":"대산네트웍스","industry":"핸드폰 소매업","coordinates":[127.353321996888,36.3043967244219],"sales":{"202602":133}},{"id":"MA010120220806236425","name":"팔공환경운수","industry":"기타 산업용 기계/장비 대여업","coordinates":[127.356170952536,36.2967642611796],"sales":{"202602":523}},{"id":"MA010120220806238361","name":"한국부동산공인중개사사무소","industry":"부동산 중개/대리업","coordinates":[127.354212984169,36.3019969415796],"sales":{"202602":1475}},{"id":"MA010120220806238498","name":"늘푸른한우축산","industry":"정육점","coordinates":[127.353130369884,36.3014053632382],"sales":{"202602":3048}},{"id":"MA010120220806238880","name":"롱다리치킨가","industry":"치킨","coordinates":[127.353883766667,36.300592070765],"sales":{"202602":1295}},{"id":"MA010120220806246838","name":"스카이클럽","industry":"골프 연습장","coordinates":[127.354925449592,36.3044370341464],"sales":{"202602":517}},{"id":"MA010120220806247086","name":"한국방제산업","industry":"소독, 구충 및 방제 서비스업","coordinates":[127.353176935296,36.2993865750798],"sales":{"202602":2032}},{"id":"MA010120220806247886","name":"제이앤에이치주","industry":"전시/컨벤션/행사 대행 서비스업","coordinates":[127.349322194293,36.3037776500535],"sales":{"202602":1369}},{"id":"MA010120220806254312","name":"블리스주","industry":"예식장업","coordinates":[127.347366382767,36.3021071480021],"sales":{"202602":28647}},{"id":"MA010120220806254648","name":"서대전현대서비스","industry":"자동차 정비소","coordinates":[127.34862878323,36.3030767513266],"sales":{"202602":481}},{"id":"MA010120220806255285","name":"아이씨씨주","industry":"건축물 일반 청소업","coordinates":[127.354322931548,36.3016902135526],"sales":{"202602":394}},{"id":"MA010120220806307194","name":"청명홍삼","industry":"건강보조식품 소매업","coordinates":[127.353100832392,36.2997923324018],"sales":{"202602":1819}},{"id":"MA010120220806525155","name":"이마트24","industry":"편의점","coordinates":[127.352199309895,36.3023273163562],"sales":{"202602":635}},{"id":"MA010120220806638329","name":"쵸우라멘","industry":"일식 면 요리","coordinates":[127.355022678558,36.2988674341106],"sales":{"202602":1281}},{"id":"MA010120220806652752","name":"초원가든","industry":"백반/한정식","coordinates":[127.345527021088,36.2763295689699],"sales":{"202602":549}},{"id":"MA010120220806673727","name":"숯땡이","industry":"돼지고기 구이/찜","coordinates":[127.352375391483,36.3043454471966],"sales":{"202602":1032}},{"id":"MA010120220806757105","name":"그리미기획","industry":"광고물 설계/제작업","coordinates":[127.355082083055,36.2972361153758],"sales":{"202602":446}},{"id":"MA010120220807019638","name":"김순진공인중개사사무소","industry":"부동산 중개/대리업","coordinates":[127.351321085092,36.3001400249596],"sales":{"202602":2228}},{"id":"MA010120220807055556","name":"카페이담","industry":"카페","coordinates":[127.350720101064,36.3001868485577],"sales":{"202602":279}},{"id":"MA010120220807060744","name":"크린투데이","industry":"건축물 일반 청소업","coordinates":[127.353678055388,36.3018813713958],"sales":{"202602":422}},{"id":"MA010120220807123073","name":"오예뷰티","industry":"피부 관리실","coordinates":[127.351680984338,36.3009500318845],"sales":{"202602":209}},{"id":"MA010120220807195285","name":"파리바게뜨가","industry":"빵/도넛","coordinates":[127.349647955552,36.3019292725602],"sales":{"202602":2125}},{"id":"MA010120220807348652","name":"한국활인활법전국연합회대전도마동연수원","industry":"기타 기술/직업 훈련학원","coordinates":[127.35312134703,36.3043432462677],"sales":{"202602":1303}},{"id":"MA010120220807437547","name":"대평리숙이네","industry":"백반/한정식","coordinates":[127.355635647681,36.296558582309],"sales":{"202602":1305}},{"id":"MA010120220807714714","name":"탑월드홈파티스스튜디오가","industry":"주방/가정용품 소매업","coordinates":[127.353662949677,36.3034674980774],"sales":{"202602":764}},{"id":"MA010120220807755403","name":"서대전로또복권명당","industry":"복권 발행/판매업","coordinates":[127.350468792518,36.3037382471017],"sales":{"202602":426}},{"id":"MA010120220807823206","name":"순여사네","industry":"국수/칼국수","coordinates":[127.349542412958,36.3032272848159],"sales":{"202602":1289}},{"id":"MA010120220807885206","name":"예쁜얼굴","industry":"피부 관리실","coordinates":[127.353130369884,36.3014053632382],"sales":{"202602":163}},{"id":"MA010120220808026960","name":"베베맘","industry":"의류 대여업","coordinates":[127.349185939765,36.3031832673304],"sales":{"202602":1109}},{"id":"MA010120220808140446","name":"가수원미소공인중개사사무소","industry":"부동산 중개/대리업","coordinates":[127.351187649858,36.3001764643088],"sales":{"202602":2472}},{"id":"MA010120220808260369","name":"심야J","industry":"미용실","coordinates":[127.352164500117,36.3044902578215],"sales":{"202602":205}},{"id":"MA010120220808266840","name":"금디자인","industry":"광고 대행업","coordinates":[127.353908516412,36.3011417192695],"sales":{"202602":4060}},{"id":"MA010120220808280807","name":"하우스케어","industry":"건축물 일반 청소업","coordinates":[127.353508931514,36.2989440140244],"sales":{"202602":235}},{"id":"MA010120220808282097","name":"투에이치플레이스","industry":"카페","coordinates":[127.356232679946,36.3054424706716],"sales":{"202602":541}},{"id":"MA010120220808332767","name":"윤마스터태권도","industry":"태권도/무술학원","coordinates":[127.356170952536,36.2967642611796],"sales":{"202602":263}},{"id":"MA010120220808504402","name":"미쁘다","industry":"예술품 소매업","coordinates":[127.354714752501,36.2997064486397],"sales":{"202602":201}},{"id":"MA010120220808618781","name":"안소영바디닥터대전가","industry":"의료기기 소매업","coordinates":[127.352465474613,36.3045704773349],"sales":{"202602":4990}},{"id":"MA010120220808792187","name":"중부모터스렉서스서대전서비스센터","industry":"자동차 정비소","coordinates":[127.355428765913,36.3024889840838],"sales":{"202602":1565}},{"id":"MA010120220809200417","name":"빈스,삐삐통신","industry":"카페","coordinates":[127.349618255946,36.302758447883],"sales":{"202602":662}},{"id":"MA010120220809207894","name":"빅마트","industry":"슈퍼마켓","coordinates":[127.354978637021,36.2989757068938],"sales":{"202602":6800}},{"id":"MA010120220809237617","name":"가수원철물","industry":"철물/공구 소매업","coordinates":[127.353530811454,36.3037923146957],"sales":{"202602":287}},{"id":"MA010120220809264189","name":"이석만두가","industry":"김밥/만두/분식","coordinates":[127.352597496847,36.3042186267813],"sales":{"202602":645}},{"id":"MA010120220809289258","name":"이디피","industry":"슈퍼마켓","coordinates":[127.355022678558,36.2988674341106],"sales":{"202602":3239}},{"id":"MA010120220809418251","name":"흥부네칼국수보리밥","industry":"국수/칼국수","coordinates":[127.352122625509,36.3001286551843],"sales":{"202602":891}},{"id":"MA010120220809671986","name":"추모공원매점","industry":"슈퍼마켓","coordinates":[127.339460761499,36.2839259223591],"sales":{"202602":5311}},{"id":"MA010120220809689819","name":"에이프릴","industry":"기타 기술/직업 훈련학원","coordinates":[127.349041083741,36.3031566548257],"sales":{"202602":813}},{"id":"MA010120220809840355","name":"미희쌤뷰티샵","industry":"피부 관리실","coordinates":[127.352760605346,36.3033530101281],"sales":{"202602":346}},{"id":"MA010120220809926833","name":"행운모바일","industry":"핸드폰 소매업","coordinates":[127.353663585825,36.3011424440337],"sales":{"202602":51}},{"id":"MA010120220810013498","name":"쟐라죠헤어샵","industry":"미용실","coordinates":[127.352199309895,36.3023273163562],"sales":{"202602":202}},{"id":"MA010120220810031196","name":"국민통닭","industry":"치킨","coordinates":[127.352942152621,36.30410946789],"sales":{"202602":818}},{"id":"MA010120220810035358","name":"아이스꽁꽁가","industry":"슈퍼마켓","coordinates":[127.349647955552,36.3019292725602],"sales":{"202602":4558}},{"id":"MA010120220810053765","name":"열라이트","industry":"전기용품/조명장치 소매업","coordinates":[127.352787362858,36.299405748876],"sales":{"202602":978}},{"id":"MA010120220810063076","name":"지에스25가수원사랑","industry":"편의점","coordinates":[127.355147550593,36.2993987614901],"sales":{"202602":2124}},{"id":"MA010120220810086418","name":"웃으면돼지","industry":"돼지고기 구이/찜","coordinates":[127.352522767052,36.2999832867113],"sales":{"202602":1476}},{"id":"MA010120220810103695","name":"위아원행정사사무소","industry":"행정사","coordinates":[127.350814447212,36.2988798556792],"sales":{"202602":144}},{"id":"MA010120220810105633","name":"드림제과","industry":"빵/도넛","coordinates":[127.352362555133,36.3039669882668],"sales":{"202602":1593}},{"id":"MA010120220810115182","name":"감","industry":"기타 의류 소매업","coordinates":[127.353597193349,36.3012327587244],"sales":{"202602":722}},{"id":"MA010120220810115493","name":"소소","industry":"돼지고기 구이/찜","coordinates":[127.349315884734,36.3023628111474],"sales":{"202602":1909}},{"id":"MA010120220810280535","name":"탑부동산공인중개사사무소","industry":"부동산 중개/대리업","coordinates":[127.353432032378,36.3041080207142],"sales":{"202602":3482}},{"id":"MA010120220810303513","name":"크린다모아","industry":"세탁소","coordinates":[127.349542412958,36.3032272848159],"sales":{"202602":181}},{"id":"MA010120220810411839","name":"돈방제주맛돼지","industry":"돼지고기 구이/찜","coordinates":[127.349647955552,36.3019292725602],"sales":{"202602":1761}},{"id":"MA010120220810572227","name":"쌍둥이네약초","industry":"그 외 기타 상품 전문 소매업","coordinates":[127.353364411968,36.3014587427352],"sales":{"202602":5515}},{"id":"MA010120220810660171","name":"한미골프","industry":"골프 연습장","coordinates":[127.356120358397,36.3052265215038],"sales":{"202602":879}},{"id":"MA010120220811227522","name":"정다운식당","industry":"백반/한정식","coordinates":[127.351883081814,36.3013279342139],"sales":{"202602":1937}},{"id":"MA010120220811313914","name":"엘림정수기","industry":"가전제품 소매업","coordinates":[127.354793205432,36.2973631386502],"sales":{"202602":1733}},{"id":"MA010120220811483644","name":"댄스댄스노래연습장","industry":"노래방","coordinates":[127.352876162815,36.3042898992293],"sales":{"202602":508}},{"id":"MA010120220811501734","name":"두마전기","industry":"전기용품/조명장치 소매업","coordinates":[127.351501438133,36.3006351457205],"sales":{"202602":862}},{"id":"MA010120220811502305","name":"세인트빈","industry":"카페","coordinates":[127.351883081814,36.3013279342139],"sales":{"202602":224}},{"id":"MA010120220811659497","name":"한마음","industry":"그 외 기타 상품 전문 소매업","coordinates":[127.35679064336,36.3057201733782],"sales":{"202602":2133}},{"id":"MA010120220811662278","name":"도안수산식당","industry":"횟집","coordinates":[127.348206872366,36.3033393239467],"sales":{"202602":1205}},{"id":"MA010120220811690871","name":"느티나무흑염소","industry":"기타 한식 음식점","coordinates":[127.351972633604,36.3014358125998],"sales":{"202602":901}},{"id":"MA010120220811728467","name":"힐스템건강찜질","industry":"가전제품 소매업","coordinates":[127.352529762101,36.3040115544896],"sales":{"202602":1399}},{"id":"MA010120220811844370","name":"형제건강원","industry":"건강보조식품 소매업","coordinates":[127.355029294582,36.3003273315342],"sales":{"202602":739}},{"id":"MA010120220811869523","name":"뷰티다룸대전가","industry":"피부 관리실","coordinates":[127.353432032378,36.3041080207142],"sales":{"202602":107}},{"id":"MA010120220811948781","name":"에스헤어","industry":"미용실","coordinates":[127.354847613794,36.2995438413876],"sales":{"202602":243}},{"id":"MA010120220812003591","name":"몽메이트","industry":"애완동물/애완용품 소매업","coordinates":[127.356727832454,36.3041523032218],"sales":{"202602":349}},{"id":"MA010120220812026231","name":"현우엔지니어링","industry":"건물 및 토목 엔지니어링 서비스업","coordinates":[127.350259656026,36.2992960266752],"sales":{}},{"id":"MA010120220812121128","name":"창성","industry":"전기용품/조명장치 소매업","coordinates":[127.349542412958,36.3032272848159],"sales":{"202602":756}},{"id":"MA010120220812181612","name":"라뷔에벨","industry":"예식장업","coordinates":[127.347034338447,36.3025496920275],"sales":{"202602":25071}},{"id":"MA010120220812257652","name":"패션스토리","industry":"기타 의류 소매업","coordinates":[127.353088352276,36.3044334619877],"sales":{"202602":327}},{"id":"MA010120220812265979","name":"스페이스인테리어","industry":"인테리어 디자인업","coordinates":[127.353211878147,36.2997289215621],"sales":{"202602":487}},{"id":"MA010120220812281306","name":"유","industry":"카페","coordinates":[127.353120739701,36.3017388294412],"sales":{"202602":449}},{"id":"MA010120220812314292","name":"미소거리협동조합","industry":"전시/컨벤션/행사 대행 서비스업","coordinates":[127.353430269448,36.2987820335404],"sales":{"202602":937}},{"id":"MA010120220812331491","name":"드림오브카","industry":"자동차 부품 소매업","coordinates":[127.355720237858,36.3053809137042],"sales":{"202602":1251}},{"id":"MA010120220812456615","name":"타임","industry":"요리 주점","coordinates":[127.351565608183,36.3000491878601],"sales":{"202602":338}},{"id":"MA010120220812498524","name":"씨유대전가수원","industry":"편의점","coordinates":[127.350942852938,36.3026914842799],"sales":{"202602":1878}},{"id":"MA010120220812518724","name":"바로","industry":"전시/컨벤션/행사 대행 서비스업","coordinates":[127.359999779753,36.2990057530274],"sales":{"202602":1187}},{"id":"MA010120220812597277","name":"느티나무집","industry":"백반/한정식","coordinates":[127.350740466735,36.2947886977412],"sales":{"202602":2832}},{"id":"MA010120220812606765","name":"대승산업","industry":"장례식장","coordinates":[127.353329740156,36.2888332560247],"sales":{"202602":9126}},{"id":"MA010120220812611169","name":"가온축산","industry":"정육점","coordinates":[127.349672112891,36.3023527579905],"sales":{"202602":3135}},{"id":"MA010120220812640908","name":"공신의숲","industry":"독서실/스터디 카페","coordinates":[127.34956158334,36.3025333178253],"sales":{"202602":1500}},{"id":"MA010120220812642344","name":"은광공인중개사사무소","industry":"부동산 중개/대리업","coordinates":[127.354504367272,36.2999594039612],"sales":{"202602":4372}},{"id":"MA010120220812685208","name":"보라돌이","industry":"그 외 기타 상품 전문 소매업","coordinates":[127.35275238144,36.2990543905247],"sales":{"202602":997}},{"id":"MA010120220812694992","name":"실크로드","industry":"전시/컨벤션/행사 대행 서비스업","coordinates":[127.353131062957,36.2990893200235],"sales":{"202602":500}},{"id":"MA010120220812700131","name":"지승이엔지","industry":"건물 및 토목 엔지니어링 서비스업","coordinates":[127.353176935296,36.2993865750798],"sales":{}},{"id":"MA010120220812809512","name":"모아쿡","industry":"김밥/만두/분식","coordinates":[127.352997292809,36.3039921513386],"sales":{"202602":599}},{"id":"MA010120220812901639","name":"가수원도시개발","industry":"부동산 중개/대리업","coordinates":[127.357129136284,36.3042592470674],"sales":{"202602":1878}},{"id":"MA010120220812930188","name":"은아공인중개사","industry":"부동산 중개/대리업","coordinates":[127.352199309895,36.3023273163562],"sales":{"202602":7337}},{"id":"MA010120220812942736","name":"송반점","industry":"중국집","coordinates":[127.353220249565,36.3040545756324],"sales":{"202602":1932}},{"id":"MA010120220813062831","name":"헤어제이","industry":"미용실","coordinates":[127.351445246857,36.3005181570726],"sales":{"202602":103}},{"id":"MA010120220813071674","name":"캐릭터라인","industry":"자동차 세차장","coordinates":[127.359679783978,36.2972043491694],"sales":{"202602":906}},{"id":"MA010120220813075241","name":"굿마트","industry":"슈퍼마켓","coordinates":[127.352274337362,36.3041564966182],"sales":{"202602":37524}},{"id":"MA010120220813143931","name":"쇼노래연습장","industry":"노래방","coordinates":[127.351522410395,36.3003467053915],"sales":{"202602":861}},{"id":"MA010120220813279251","name":"이마트24대전가수원","industry":"편의점","coordinates":[127.353961291392,36.3005017229511],"sales":{"202602":2102}},{"id":"MA010120220813401750","name":"뽑기세상","industry":"기타 오락장","coordinates":[127.351321085092,36.3001400249596],"sales":{"202602":1549}},{"id":"MA010120220813423603","name":"업드림","industry":"카페","coordinates":[127.355504592228,36.297117705988],"sales":{"202602":1660}},{"id":"MA010120220813582635","name":"희숙인테리어","industry":"인테리어 디자인업","coordinates":[127.350027726742,36.284760597306],"sales":{"202602":557}},{"id":"MA010120220813587748","name":"남성컷트미남","industry":"미용실","coordinates":[127.351443346709,36.3000946064722],"sales":{"202602":310}},{"id":"MA010120220813606223","name":"비바리움파크","industry":"꽃집","coordinates":[127.355438654974,36.2973071506031],"sales":{"202602":335}},{"id":"MA010120220813620885","name":"장수오리","industry":"닭/오리고기 구이/찜","coordinates":[127.35508681129,36.2909097882114],"sales":{"202602":1751}},{"id":"MA010120220813655602","name":"참조은마트","industry":"슈퍼마켓","coordinates":[127.353176935296,36.2993865750798],"sales":{"202602":17128}},{"id":"MA010120220813862223","name":"지앤디","industry":"소독, 구충 및 방제 서비스업","coordinates":[127.352389373191,36.3000287391125],"sales":{"202602":1417}},{"id":"MA010120220813997316","name":"미성포차","industry":"요리 주점","coordinates":[127.351443346709,36.3000946064722],"sales":{"202602":613}},{"id":"MA010120220814006213","name":"그린활어수족관","industry":"애완동물/애완용품 소매업","coordinates":[127.354459140225,36.3047267960132],"sales":{"202602":643}},{"id":"MA010120220814020021","name":"씨엘키즈","industry":"수영장","coordinates":[127.355228061468,36.304877714879],"sales":{"202602":13643}},{"id":"MA010120220814099220","name":"보라투어","industry":"여행사","coordinates":[127.353378222866,36.2995842406823],"sales":{"202602":2313}},{"id":"MA010120220814121022","name":"이은헤어살롱","industry":"미용실","coordinates":[127.355029294582,36.3003273315342],"sales":{"202602":304}},{"id":"MA010120220814175031","name":"바다총각","industry":"백반/한정식","coordinates":[127.353432032378,36.3041080207142],"sales":{"202602":986}},{"id":"MA010120220814199496","name":"변가네연탄구이","industry":"돼지고기 구이/찜","coordinates":[127.352650730702,36.3036777600968],"sales":{"202602":1106}},{"id":"MA0101202209C0037819","name":"계룡마트","industry":"정육점","coordinates":[127.349672112891,36.3023527579905],"sales":{"202602":4448}},{"id":"MA0101202210A0049291","name":"씨씨트레블","industry":"여행사","coordinates":[127.352389373191,36.3000287391125],"sales":{"202602":4547}},{"id":"MA0101202210A0095041","name":"가원인테리어","industry":"인테리어 디자인업","coordinates":[127.353678055388,36.3018813713958],"sales":{"202602":1612}},{"id":"MA0101202211A0040963","name":"지에스25가수원은아","industry":"편의점","coordinates":[127.350976404065,36.3002401674517],"sales":{"202602":1682}},{"id":"MA0101202212A0079162","name":"장군항아리숯불구이","industry":"돼지고기 구이/찜","coordinates":[127.35284345197,36.3044431968352],"sales":{"202602":2568}},{"id":"MA0101202212A0095743","name":"염색이야기","industry":"미용실","coordinates":[127.35226619122,36.3023451429776],"sales":{"202602":204}},{"id":"MA0101202301A0021115","name":"다인사무기","industry":"컴퓨터/사무기기 대여업","coordinates":[127.35387792579,36.3017636261764],"sales":{"202602":753}},{"id":"MA0101202301A0040132","name":"쏘르카페","industry":"카페","coordinates":[127.353597193349,36.3012327587244],"sales":{"202602":628}},{"id":"MA0101202301A0055707","name":"이엠","industry":"소독, 구충 및 방제 서비스업","coordinates":[127.350785608238,36.2998982776834],"sales":{"202602":967}},{"id":"MA0101202301A0072890","name":"리드인엔수학학원","industry":"입시·교과학원","coordinates":[127.352199309895,36.3023273163562],"sales":{"202602":633}},{"id":"MA0101202301A0083716","name":"픽피그","industry":"돼지고기 구이/찜","coordinates":[127.352997292809,36.3039921513386],"sales":{"202602":2426}},{"id":"MA0101202301A0102351","name":"현성오토바이","industry":"모터사이클 수리업","coordinates":[127.355414304737,36.2968476192787],"sales":{"202602":417}},{"id":"MA0101202302A0004668","name":"가영","industry":"전시/컨벤션/행사 대행 서비스업","coordinates":[127.353673239895,36.2983487469568],"sales":{"202602":907}},{"id":"MA0101202302A0016079","name":"정통춘천닭갈비","industry":"닭/오리고기 구이/찜","coordinates":[127.349748235951,36.3019470029144],"sales":{"202602":992}},{"id":"MA0101202303A0005151","name":"진성","industry":"채소/과일 소매업","coordinates":[127.358228172776,36.2962534523993],"sales":{"202602":1382}},{"id":"MA0101202303A0007722","name":"더청춘키친","industry":"백반/한정식","coordinates":[127.351086442507,36.2999514656866],"sales":{"202602":1557}},{"id":"MA0101202303A0080742","name":"정박사아카데미","industry":"그 외 기타 교육기관","coordinates":[127.353176243308,36.3041718593948],"sales":{"202602":1246}},{"id":"MA0101202303A0100750","name":"목수정서쪽","industry":"카페","coordinates":[127.353176243308,36.3041718593948],"sales":{"202602":928}},{"id":"MA0101202305A0115744","name":"금돈삼겹살","industry":"돼지고기 구이/찜","coordinates":[127.354038856666,36.3004203867988],"sales":{"202602":321}},{"id":"MA0101202305A0137801","name":"하수구막힘","industry":"그 외 기타 개인/가정용품 수리업","coordinates":[127.355148143664,36.2970737060993],"sales":{"202602":6919}},{"id":"MA0101202305A0156840","name":"8900원삼겹살비빔밥","industry":"백반/한정식","coordinates":[127.353055357446,36.3045236776977],"sales":{"202602":2023}},{"id":"MA0101202306A0070861","name":"참조은농축산","industry":"슈퍼마켓","coordinates":[127.353176935296,36.2993865750798],"sales":{"202602":10144}},{"id":"MA0101202307A0092154","name":"까미뷰티헤어","industry":"미용실","coordinates":[127.354792357021,36.2996341237091],"sales":{"202602":125}},{"id":"MA0101202307A0107363","name":"메가엠지씨커피대전가수원도서관점","industry":"카페","coordinates":[127.349748235951,36.3019470029144],"sales":{"202602":1494}},{"id":"MA0101202308A0070907","name":"오가네","industry":"채소/과일 소매업","coordinates":[127.35392842303,36.2809010520093],"sales":{"202602":1723}},{"id":"MA0101202308A0078328","name":"푸른당구장","industry":"당구장","coordinates":[127.354182894392,36.3002667590355],"sales":{"202602":292}},{"id":"MA0101202308A0087382","name":"이현희가수원청과","industry":"채소/과일 소매업","coordinates":[127.352942152621,36.30410946789],"sales":{"202602":1877}},{"id":"MA0101202310A0007884","name":"친절한부동산공인중개사사무소","industry":"부동산 중개/대리업","coordinates":[127.350942852938,36.3026914842799],"sales":{"202602":2710}},{"id":"MA0101202310A0026030","name":"은아떡볶이","industry":"김밥/만두/분식","coordinates":[127.352199309895,36.3023273163562],"sales":{"202602":415}},{"id":"MA0101202310A0083567","name":"더든든공인중개사사무소","industry":"부동산 중개/대리업","coordinates":[127.352507759649,36.3015964490129],"sales":{"202602":2886}},{"id":"MA0101202311A0059822","name":"이유있는밥상","industry":"백반/한정식","coordinates":[127.352665191381,36.3044166873179],"sales":{"202602":2239}},{"id":"MA0101202311A0102325","name":"제이엘푸드","industry":"돼지고기 구이/찜","coordinates":[127.355029294582,36.3003273315342],"sales":{"202602":2497}},{"id":"MA0101202406A0015949","name":"은아건강원","industry":"건강보조식품 소매업","coordinates":[127.353918265331,36.3008352881237],"sales":{"202602":3677}},{"id":"MA0101202406A0039249","name":"호두네호두과자","industry":"빵/도넛","coordinates":[127.350468792518,36.3037382471017],"sales":{"202602":1065}},{"id":"MA0101202406A0057318","name":"대박노래연습장","industry":"노래방","coordinates":[127.353022403158,36.3046229051045],"sales":{"202602":432}},{"id":"MA0101202406A0064663","name":"고모네손칼국수","industry":"국수/칼국수","coordinates":[127.353378222866,36.2995842406823],"sales":{"202602":2301}},{"id":"MA0101202406A0198971","name":"보문산식후경","industry":"백반/한정식","coordinates":[127.35570047512,36.2985770408716],"sales":{"202602":1729}},{"id":"MA0101202406A0211251","name":"동네집","industry":"백반/한정식","coordinates":[127.3516557244,36.3002832305249],"sales":{"202602":965}},{"id":"MA0101202406A0225555","name":"하나테크","industry":"기타 건설/건축자재 소매업","coordinates":[127.352573605923,36.2989107284744],"sales":{"202602":1215}},{"id":"MA0101202406A0225807","name":"곤지암할매소머리국밥","industry":"국/탕/찌개류","coordinates":[127.351501438133,36.3006351457205],"sales":{"202602":919}},{"id":"MA0101202406A0248690","name":"아이스크림편의점","industry":"슈퍼마켓","coordinates":[127.351377882223,36.3003921893999],"sales":{"202602":3616}},{"id":"MA0101202406A0290863","name":"공룡닭발","industry":"닭/오리고기 구이/찜","coordinates":[127.351565608183,36.3000491878601],"sales":{"202602":620}},{"id":"MA0101202406A0290997","name":"준인테리어","industry":"인테리어 디자인업","coordinates":[127.353791364327,36.2998533739064],"sales":{"202602":1049}},{"id":"MA0101202406A0388746","name":"가수원건재","industry":"기타 건설/건축자재 소매업","coordinates":[127.353585991219,36.3036840095804],"sales":{"202602":565}},{"id":"MA0101202406A0392741","name":"팡팡팡노래연습장","industry":"노래방","coordinates":[127.351565608183,36.3000491878601],"sales":{"202602":966}},{"id":"MA0101202406A0407767","name":"물회가","industry":"횟집","coordinates":[127.353100832392,36.2997923324018],"sales":{"202602":2096}},{"id":"MA0101202406A0441389","name":"참좋은공인중개사사무소","industry":"부동산 중개/대리업","coordinates":[127.355055546264,36.2987501826568],"sales":{"202602":1412}},{"id":"MA0101202406A0480223","name":"아지트실내포차","industry":"백반/한정식","coordinates":[127.354182894392,36.3002667590355],"sales":{"202602":2772}},{"id":"MA0101202406A0504090","name":"디저트하리","industry":"피자","coordinates":[127.351445246857,36.3005181570726],"sales":{"202602":1096}},{"id":"MA0101202406A0549239","name":"그린푸드","industry":"경양식","coordinates":[127.353311310362,36.3044958860998],"sales":{"202602":1636}},{"id":"MA0101202406A0552631","name":"바베큐팩토리가","industry":"캠핑/글램핑","coordinates":[127.356388931149,36.2957362620748],"sales":{"202602":5180}},{"id":"MA0101202406A0560136","name":"구봉산협동조합","industry":"화장터/묘지/납골당","coordinates":[127.339460761499,36.2839259223591],"sales":{"202602":10744}},{"id":"MA0101202408A0004625","name":"더든든여성인력센터","industry":"고용 알선업","coordinates":[127.352507759649,36.3015964490129],"sales":{"202602":22894}},{"id":"MA0101202408A0040056","name":"달팽이집","industry":"서점","coordinates":[127.353853073363,36.2814690222845],"sales":{"202602":8293}},{"id":"MA0101202408A0040916","name":"라임피아노교습소","industry":"음악학원","coordinates":[127.350854101586,36.3002765737477],"sales":{"202602":256}},{"id":"MA0101202409A0035738","name":"방과후아지트","industry":"백반/한정식","coordinates":[127.349647955552,36.3019292725602],"sales":{"202602":1487}},{"id":"MA0101202409A0081042","name":"귀뚜라미보일러A/S센터","industry":"그 외 기타 개인/가정용품 수리업","coordinates":[127.354813879114,36.2970116156416],"sales":{"202602":5384}},{"id":"MA0101202409A0175062","name":"365홈케어","industry":"건축물 일반 청소업","coordinates":[127.354009814865,36.3013847388265],"sales":{"202602":330}},{"id":"MA0101202409A0196008","name":"강반장집수리","industry":"그 외 기타 개인/가정용품 수리업","coordinates":[127.353524456385,36.2999172462422],"sales":{"202602":5296}},{"id":"MA0101202409A0263232","name":"대전종합인력","industry":"고용 알선업","coordinates":[127.352766368545,36.304632672672],"sales":{"202602":9312}},{"id":"MA0101202410A0151538","name":"엘리트태권도장","industry":"태권도/무술학원","coordinates":[127.350720786935,36.3003400477241],"sales":{"202602":204}},{"id":"MA0101202410A0224111","name":"입시·교과학원","industry":"입시·교과학원","coordinates":[127.351501438133,36.3006351457205],"sales":{"202602":450}},{"id":"MA0101202410A0231304","name":"장쌤공부방","industry":"입시·교과학원","coordinates":[127.354180490547,36.2997350679859],"sales":{"202602":918}},{"id":"MA0101202410A0255071","name":"대광인력","industry":"고용 알선업","coordinates":[127.352199309895,36.3023273163562],"sales":{"202602":8613}},{"id":"MA0101202410A0392389","name":"천지인력","industry":"고용 알선업","coordinates":[127.353432032378,36.3041080207142],"sales":{"202602":12732}},{"id":"MA0101202410A0430743","name":"을지의원","industry":"내과/소아과 의원","coordinates":[127.354415669886,36.3000407734187],"sales":{"202602":10556}},{"id":"MA0101202410A0442607","name":"백제전공사","industry":"고용 알선업","coordinates":[127.353508931514,36.2989440140244],"sales":{"202602":10050}},{"id":"MA0101202410A0442699","name":"서강의원","industry":"내과/소아과 의원","coordinates":[127.35223041068,36.3042918034549],"sales":{"202602":3132}},{"id":"MA0101202410A0446479","name":"성좌한의원","industry":"한의원","coordinates":[127.352430370494,36.3041920840735],"sales":{"202602":2799}},{"id":"MA0101202410A0478840","name":"논산청과","industry":"채소/과일 소매업","coordinates":[127.352362555133,36.3039669882668],"sales":{"202602":4117}},{"id":"MA0101202410A0478959","name":"관우닭집","industry":"정육점","coordinates":[127.35251643839,36.303524955052],"sales":{"202602":2463}},{"id":"MA0101202410A0479055","name":"꽃밭에서","industry":"꽃집","coordinates":[127.352465474613,36.3045704773349],"sales":{"202602":451}},{"id":"MA0101202410A0479085","name":"서진학원","industry":"입시·교과학원","coordinates":[127.35257376924,36.3038942709571],"sales":{"202602":907}},{"id":"MA0101202410A0479143","name":"수클래스수학교습소","industry":"입시·교과학원","coordinates":[127.351789119125,36.3002377789395],"sales":{"202602":667}},{"id":"MA0101202410A0479431","name":"굿아이컴퓨터학원","industry":"컴퓨터 학원","coordinates":[127.349618255946,36.302758447883],"sales":{"202602":5788}},{"id":"MA0101202410A0479582","name":"은광음악학원","industry":"음악학원","coordinates":[127.354504367272,36.2999594039612],"sales":{"202602":248}},{"id":"MA0101202410A0479689","name":"공부짱1번지배움터-연세교육원","industry":"입시·교과학원","coordinates":[127.35151681726,36.3015813429197],"sales":{"202602":252}},{"id":"MA0101202410A0480004","name":"우솔태권도","industry":"태권도/무술학원","coordinates":[127.349542412958,36.3032272848159],"sales":{"202602":1028}},{"id":"MA0101202410A0480070","name":"은아정육축산","industry":"정육점","coordinates":[127.352626313382,36.3032002051966],"sales":{"202602":4193}},{"id":"MA0101202410A0480395","name":"가수원인력","industry":"고용 알선업","coordinates":[127.351351879582,36.3020414311448],"sales":{"202602":16283}},{"id":"MA0101202410A0480450","name":"새론장례서비스","industry":"장례식장","coordinates":[127.353173033305,36.3034599344689],"sales":{"202602":7982}},{"id":"MA0101202410A0480800","name":"피앤씨","industry":"소독, 구충 및 방제 서비스업","coordinates":[127.353176935296,36.2993865750798],"sales":{"202602":1208}},{"id":"MA0101202410A0481027","name":"가수원꽃집","industry":"꽃집","coordinates":[127.352763852174,36.3040739468064],"sales":{"202602":390}},{"id":"MA0101202410A0481470","name":"중재서예과외교습소","industry":"기타 예술/스포츠 교육기관","coordinates":[127.353088352276,36.3044334619877],"sales":{"202602":488}},{"id":"MA0101202410A0481474","name":"혜성음악학원","industry":"음악학원","coordinates":[127.350942852938,36.3026914842799],"sales":{"202602":525}},{"id":"MA0101202410A0481642","name":"이진용치과의원","industry":"치과의원","coordinates":[127.352362555133,36.3039669882668],"sales":{"202602":5626}},{"id":"MA0101202410A0481651","name":"김봉천정형외과의원","industry":"외과 의원","coordinates":[127.349077616797,36.3038594708737],"sales":{"202602":15175}},{"id":"MA0101202410A0570505","name":"제로키퍼방역","industry":"소독, 구충 및 방제 서비스업","coordinates":[127.353596652439,36.2986463640625],"sales":{"202602":1110}},{"id":"MA0101202410A0653280","name":"가빈유통","industry":"채소/과일 소매업","coordinates":[127.352178404726,36.2976772716013],"sales":{"202602":5526}},{"id":"MA0101202410A0682154","name":"소망영어교습소","industry":"입시·교과학원","coordinates":[127.35182684899,36.3012019340517],"sales":{"202602":257}},{"id":"MA0101202410A0729404","name":"수학나무수학교습소","industry":"입시·교과학원","coordinates":[127.354479042922,36.2992835915047],"sales":{"202602":872}},{"id":"MA0101202410A0772005","name":"남해배여사건어물","industry":"건어물/젓갈 소매업","coordinates":[127.353176243308,36.3041718593948],"sales":{"202602":2939}},{"id":"MA0101202410A1031188","name":"오정축산가수원","industry":"정육점","coordinates":[127.352538218777,36.3034167488862],"sales":{"202602":3265}},{"id":"MA0101202411A0016794","name":"우리동네세탁소런닝맨운동화빨래방","industry":"셀프 빨래방","coordinates":[127.352975154132,36.3015500108847],"sales":{"202602":340}},{"id":"MA0101202411A0022274","name":"레이크공인중개사사무소","industry":"부동산 중개/대리업","coordinates":[127.350918034006,36.2996365458765],"sales":{"202602":1199}},{"id":"MA0101202411A0033294","name":"멍발머리","industry":"애완동물/애완용품 소매업","coordinates":[127.350468792518,36.3037382471017],"sales":{"202602":418}},{"id":"MA0101202411A0098457","name":"북크린","industry":"소독, 구충 및 방제 서비스업","coordinates":[127.355138604147,36.2974251960874],"sales":{"202602":1133}},{"id":"MA0101202411A0131488","name":"펌펌헤어","industry":"미용실","coordinates":[127.351142552048,36.3000504310882],"sales":{"202602":358}},{"id":"MA0101202411A0134191","name":"가수원아싸대패삼겹살","industry":"백반/한정식","coordinates":[127.350720786935,36.3003400477241],"sales":{"202602":2178}},{"id":"MA0101202411A0156928","name":"전통형제상회","industry":"건어물/젓갈 소매업","coordinates":[127.352430370494,36.3041920840735],"sales":{"202602":3043}},{"id":"MA0101202411A0159478","name":"농촌이야기","industry":"채소/과일 소매업","coordinates":[127.350468792518,36.3037382471017],"sales":{"202602":4937}},{"id":"MA0101202411A0161334","name":"동구밖과수원","industry":"채소/과일 소매업","coordinates":[127.352764149619,36.3016677874532],"sales":{"202602":837}},{"id":"MA0101202411A0178352","name":"드론인스","industry":"사진촬영업","coordinates":[127.3536472859,36.2999979894954],"sales":{"202602":732}},{"id":"MA0101202412A0002824","name":"빅애플영어스쿨영어교습소","industry":"입시·교과학원","coordinates":[127.352199309895,36.3023273163562],"sales":{"202602":474}},{"id":"MA0101202412A0027667","name":"장태산정육점","industry":"정육점","coordinates":[127.354548491578,36.2998691547889],"sales":{"202602":12054}},{"id":"MA0101202501A0038244","name":"씨유대전은아점","industry":"편의점","coordinates":[127.35540599283,36.2974694607608],"sales":{"202602":9333}},{"id":"MA0101202501A0042512","name":"하이워시빨래방","industry":"셀프 빨래방","coordinates":[127.35182684899,36.3012019340517],"sales":{"202602":180}},{"id":"MA0101202501A0043117","name":"예찬","industry":"반찬/식료품 소매업","coordinates":[127.351933606285,36.3001832827211],"sales":{"202602":1292}},{"id":"MA0101202502A0017409","name":"늘다온푸드","industry":"채소/과일 소매업","coordinates":[127.353848475035,36.297708388089],"sales":{"202602":2048}},{"id":"MA0101202502A0024763","name":"매일봄커피로스터스","industry":"카페","coordinates":[127.352389373191,36.3000287391125],"sales":{"202602":1549}},{"id":"MA0101202502A0061079","name":"컴퓨터수리","industry":"컴퓨터/노트북/프린터 수리업","coordinates":[127.349748235951,36.3019470029144],"sales":{"202602":708}},{"id":"MA0101202503A0074894","name":"살구나무","industry":"여성 의류 소매업","coordinates":[127.352764149619,36.3016677874532],"sales":{"202602":304}},{"id":"MA0101202504A0012080","name":"프라임도너츠앤카페","industry":"빵/도넛","coordinates":[127.35403464725,36.3019524106456],"sales":{"202602":2057}},{"id":"MA0101202504A0044584","name":"대성상회","industry":"채소/과일 소매업","coordinates":[127.353074293814,36.3037846519231],"sales":{"202602":2057}},{"id":"MA0101202504A0104882","name":"앗싸노래방","industry":"노래방","coordinates":[127.351187649858,36.3001764643088],"sales":{"202602":742}},{"id":"MA0101202505A0025085","name":"또봉이통닭가","industry":"치킨","coordinates":[127.352199309895,36.3023273163562],"sales":{"202602":620}},{"id":"MA0101202505A0089486","name":"감동밥상&브런치","industry":"경양식","coordinates":[127.353511290067,36.299466693469],"sales":{"202602":2598}},{"id":"MA0106202201A1902653","name":"파크랜드","industry":"운동용품 소매업","coordinates":[127.355152127555,36.3053195199196],"sales":{"202602":3766}},{"id":"MA0106202201A2363827","name":"대전가수원DT","industry":"카페","coordinates":[127.34892106395,36.3037067267714],"sales":{"202602":729}},{"id":"MA0106202211A1176354","name":"지에스25","industry":"슈퍼마켓","coordinates":[127.350976404065,36.3002401674517],"sales":{"202602":3078}},{"id":"MA0106202401A0008928","name":"한국맥도날드대전가수원DT점","industry":"경양식","coordinates":[127.348364144511,36.303654279838],"sales":{"202602":1469}},{"id":"MA0106202401A0009241","name":"한국맥도날드대전가수원DT점","industry":"경양식","coordinates":[127.348364144511,36.303654279838],"sales":{"202602":1225}},{"id":"MA0106202401A0009454","name":"한국맥도날드대전가수원DT점","industry":"경양식","coordinates":[127.348364144511,36.303654279838],"sales":{"202602":2368}},{"id":"MA0106202407A2219632","name":"일품물류","industry":"그 외 기타 상품 전문 소매업","coordinates":[127.358001870467,36.3003274795501],"sales":{"202602":2086}},{"id":"MA0106202506A0446428","name":"프라임도너츠앤카페","industry":"그 외 기타 상품 전문 소매업","coordinates":[127.35403464725,36.3019524106456],"sales":{"202602":723}},{"id":"MA0106202506A0878404","name":"기독교대한성결교회대전교회","industry":"백반/한정식","coordinates":[127.349176057716,36.3009663855845],"sales":{"202602":1289}},{"id":"MA0106202506A1119407","name":"대성상회","industry":"가축 사료 소매업","coordinates":[127.353074293814,36.3037846519231],"sales":{"202602":6121}},{"id":"MA0106202506A2071383","name":"양주골 미나리국밥","industry":"국/탕/찌개류","coordinates":[127.35223041068,36.3042918034549],"sales":{"202602":667}},{"id":"MA0106202507A0451005","name":"별별식당","industry":"백반/한정식","coordinates":[127.352199309895,36.3023273163562],"sales":{"202602":1561}},{"id":"MA0106202507A0462346","name":"정드림흑염소 대전가수원점","industry":"기타 한식 음식점","coordinates":[127.354014402488,36.30486329114],"sales":{"202602":1575}},{"id":"MA0106202507A1177009","name":"대전미디어","industry":"사진기/기타 광학기기 소매업","coordinates":[127.352876162815,36.3042898992293],"sales":{"202602":906}},{"id":"MA0106202507A2310200","name":"(주)24시전주명가콩나물국밥가수원점","industry":"국/탕/찌개류","coordinates":[127.354014402488,36.30486329114],"sales":{"202602":631}},{"id":"MA0106202507A2314030","name":"앗싸노래방","industry":"노래방","coordinates":[127.351187649858,36.3001764643088],"sales":{"202602":339}},{"id":"MA0106202508A0949914","name":"더제이키친","industry":"백반/한정식","coordinates":[127.354714752501,36.2997064486397],"sales":{"202602":690}},{"id":"MA0106202508A1428287","name":"은아약국","industry":"의료기기 소매업","coordinates":[127.35223041068,36.3042918034549],"sales":{"202602":4061}},{"id":"MA0106202508A2090270","name":"주식회사 부강하게 가수원커피몰","industry":"그 외 기타 상품 전문 소매업","coordinates":[127.352787362858,36.299405748876],"sales":{"202602":1294}},{"id":"MA0106202509A0393723","name":"흥대감김치찜","industry":"국/탕/찌개류","coordinates":[127.352154728388,36.2998401819448],"sales":{"202602":1297}},{"id":"MA0106202509A0812405","name":"찜해가","industry":"백반/한정식","coordinates":[127.35179903813,36.2999673947358],"sales":{"202602":505}},{"id":"MA0106202509A0882348","name":"오로지토익어학원","industry":"입시·교과학원","coordinates":[127.353883766667,36.300592070765],"sales":{"202602":905}},{"id":"MA0106202509A1706706","name":"유브로우","industry":"미용실","coordinates":[127.349185939765,36.3031832673304],"sales":{"202602":98}},{"id":"MA0106202510A0943092","name":"용치관합기도","industry":"입시·교과학원","coordinates":[127.353464041975,36.3013322825917],"sales":{"202602":320}},{"id":"MA0106202510A2082082","name":"가수원주유소","industry":"주유소","coordinates":[127.354438381646,36.3050602951171],"sales":{"202602":33318}},{"id":"MA0106202511A0688452","name":"다원","industry":"백반/한정식","coordinates":[127.350918034006,36.2996365458765],"sales":{"202602":1687}},{"id":"MA0106202511A1976992","name":"신토불이쌀","industry":"가축 사료 소매업","coordinates":[127.354792357021,36.2996341237091],"sales":{"202602":2079}},{"id":"MA0106202511A2044010","name":"숯불통오리바베큐","industry":"백반/한정식","coordinates":[127.349748235951,36.3019470029144],"sales":{"202602":2008}},{"id":"MA0106202512A1614556","name":"제주은갈치","industry":"백반/한정식","coordinates":[127.35284345197,36.3044431968352],"sales":{"202602":1402}},{"id":"MA0106202512A2231467","name":"싱글테이블","industry":"경양식","coordinates":[127.352199309895,36.3023273163562],"sales":{"202602":1227}},{"id":"MA0106202601A0989831","name":"정이가(파인애플소스탕수육)","industry":"중국집","coordinates":[127.356226820321,36.2968091539321],"sales":{"202602":1513}},{"id":"MA0106202601A2073001","name":"신추풍령시래기감자탕","industry":"국/탕/찌개류","coordinates":[127.353022403158,36.3046229051045],"sales":{"202602":1261}},{"id":"MA0106202602A1117917","name":"서진푸드 가수원점","industry":"백반/한정식","coordinates":[127.349748235951,36.3019470029144],"sales":{"202602":1311}},{"id":"MA0106202602A2448473","name":"웅이네떡볶이 가수원직영점","industry":"김밥/만두/분식","coordinates":[127.354945728278,36.2990839466099],"sales":{"202602":2083}}]