[{"id":"MA010120220800046353","name":"변호사김배정법률사무소","industry":"변호사","coordinates":[127.389015043639,36.3532919695375],"sales":{"202602":818}},{"id":"MA010120220800084468","name":"초월스터디카페대전","industry":"독서실/스터디 카페","coordinates":[127.388145676682,36.3509697665554],"sales":{"202602":1259}},{"id":"MA010120220800094078","name":"법무사임익문사무소","industry":"법무사","coordinates":[127.388772622554,36.3515895389145],"sales":{"202602":1944}},{"id":"MA010120220800109626","name":"여행나무","industry":"여행사","coordinates":[127.387251198212,36.3503148111148],"sales":{"202602":2882}},{"id":"MA010120220800152017","name":"보다안과의원","industry":"안과 의원","coordinates":[127.387265774976,36.3510086683967],"sales":{"202602":41889}},{"id":"MA010120220800173504","name":"아트첼로교습소","industry":"음악학원","coordinates":[127.390993606042,36.3523933493252],"sales":{"202602":501}},{"id":"MA010120220800227505","name":"송가칼국수","industry":"국수/칼국수","coordinates":[127.387964251293,36.3525744463579],"sales":{"202602":547}},{"id":"MA010120220800456155","name":"법률사무소동감","industry":"변호사","coordinates":[127.387421984427,36.3533061569523],"sales":{"202602":2114}},{"id":"MA010120220800456658","name":"저스트슬립호텔대전","industry":"여관/모텔","coordinates":[127.388976555834,36.3522737678382],"sales":{"202602":2076}},{"id":"MA010120220800606661","name":"어울림","industry":"컴퓨터/소프트웨어 소매업","coordinates":[127.388772622554,36.3515895389145],"sales":{"202602":719}},{"id":"MA010120220800609591","name":"새나래김광수법무사행정사공인중개사무소","industry":"법무사","coordinates":[127.387871354845,36.3563056087698],"sales":{"202602":1103}},{"id":"MA010120220800638415","name":"유앤아이디자인","industry":"패션/섬유/기타 전문 디자인업","coordinates":[127.389867835905,36.3522798749659],"sales":{"202602":533}},{"id":"MA010120220800689532","name":"부부행정사사무소","industry":"부동산 중개/대리업","coordinates":[127.388212921464,36.3532945781978],"sales":{"202602":1695}},{"id":"MA010120220800754099","name":"커피노리","industry":"카페","coordinates":[127.387238317578,36.349963394691],"sales":{"202602":1533}},{"id":"MA010120220800759484","name":"정금숙공인중개사사무소","industry":"부동산 중개/대리업","coordinates":[127.387871354845,36.3563056087698],"sales":{"202602":2341}},{"id":"MA010120220800830922","name":"에스엘코퍼레이션","industry":"경영 컨설팅업","coordinates":[127.387251198212,36.3503148111148],"sales":{"202602":2046}},{"id":"MA010120220800922485","name":"호미곶","industry":"백반/한정식","coordinates":[127.389499438231,36.352127876705],"sales":{"202602":2843}},{"id":"MA010120220801063717","name":"씨스톤컨설팅","industry":"경영 컨설팅업","coordinates":[127.38903476897,36.3527782359739],"sales":{"202602":1014}},{"id":"MA010120220801231903","name":"뉴크로바공인중개사사무소","industry":"부동산 중개/대리업","coordinates":[127.390993606042,36.3523933493252],"sales":{"202602":2544}},{"id":"MA010120220801238544","name":"우리부동산공인중개사사무소","industry":"부동산 중개/대리업","coordinates":[127.388145676682,36.3509697665554],"sales":{"202602":3060}},{"id":"MA010120220801438893","name":"제이제이블레스","industry":"시계/귀금속 소매업","coordinates":[127.390993606042,36.3523933493252],"sales":{"202602":1569}},{"id":"MA010120220801457239","name":"원업","industry":"치킨","coordinates":[127.387871354845,36.3563056087698],"sales":{"202602":1045}},{"id":"MA010120220801615708","name":"도쿄스시","industry":"일식 회/초밥","coordinates":[127.389477794118,36.3500191987585],"sales":{"202602":2887}},{"id":"MA010120220801725243","name":"법무사권지혜사무소","industry":"법무사","coordinates":[127.388469154948,36.353293745461],"sales":{"202602":1009}},{"id":"MA010120220801734970","name":"명진교육쌤학원","industry":"입시·교과학원","coordinates":[127.388624707643,36.350968209608],"sales":{"202602":4191}},{"id":"MA010120220801766765","name":"스타일옴므","industry":"미용실","coordinates":[127.387251198212,36.3503148111148],"sales":{"202602":1091}},{"id":"MA010120220801852309","name":"배수근학원","industry":"입시·교과학원","coordinates":[127.389867072032,36.3521266778122],"sales":{"202602":2744}},{"id":"MA010120220801861112","name":"노력이빛나는순간고등영어입시학원","industry":"입시·교과학원","coordinates":[127.389858942122,36.3527304911544],"sales":{"202602":4755}},{"id":"MA010120220801964390","name":"법무사김동식사무소","industry":"법무사","coordinates":[127.388772622554,36.3515895389145],"sales":{"202602":546}},{"id":"MA010120220802049684","name":"더레이디","industry":"피부 관리실","coordinates":[127.388772622554,36.3515895389145],"sales":{"202602":524}},{"id":"MA010120220802491164","name":"법무법인베스트로","industry":"변호사","coordinates":[127.389850587461,36.3532892464577],"sales":{"202602":1925}},{"id":"MA010120220802588755","name":"팥빵","industry":"빵/도넛","coordinates":[127.38860532688,36.3493101111168],"sales":{"202602":2482}},{"id":"MA010120220802596773","name":"아너스빌관리단","industry":"사업시설 유지·관리 서비스업","coordinates":[127.387871354845,36.3563056087698],"sales":{"202602":1669}},{"id":"MA010120220802681797","name":"성공국제특허법률사무소","industry":"변리사","coordinates":[127.387871354845,36.3563056087698],"sales":{"202602":237}},{"id":"MA010120220802740757","name":"워닉스텍","industry":"화장품 소매업","coordinates":[127.387871354845,36.3563056087698],"sales":{"202602":1209}},{"id":"MA010120220802832390","name":"천스시","industry":"일식 회/초밥","coordinates":[127.388954029243,36.3499848577341],"sales":{"202602":2594}},{"id":"MA010120220802848417","name":"시리우스엠투오","industry":"입시·교과학원","coordinates":[127.389858942122,36.3527304911544],"sales":{"202602":4429}},{"id":"MA010120220802887543","name":"법무사최충식사무소","industry":"법무사","coordinates":[127.388469154948,36.353293745461],"sales":{"202602":771}},{"id":"MA010120220802901292","name":"벽돌집","industry":"백반/한정식","coordinates":[127.388145676682,36.3509697665554],"sales":{"202602":3179}},{"id":"MA010120220802941289","name":"고기,원칙","industry":"돼지고기 구이/찜","coordinates":[127.38860532688,36.3493101111168],"sales":{"202602":4209}},{"id":"MA010120220802944845","name":"법무법인충청우산","industry":"변호사","coordinates":[127.388212921464,36.3532945781978],"sales":{"202602":4058}},{"id":"MA010120220802945658","name":"이룸올논술국어교습소","industry":"입시·교과학원","coordinates":[127.389867835905,36.3522798749659],"sales":{"202602":8946}},{"id":"MA010120220802980351","name":"하루엔소쿠","industry":"일식 카레/돈가스/덮밥","coordinates":[127.387906134638,36.3520880008401],"sales":{"202602":1772}},{"id":"MA010120220802985678","name":"철쭉에너지2","industry":"경영 컨설팅업","coordinates":[127.387871354845,36.3563056087698],"sales":{"202602":3627}},{"id":"MA010120220802985713","name":"한국창의지식개발원","industry":"환경 관련 엔지니어링 서비스업","coordinates":[127.388772622554,36.3515895389145],"sales":{}},{"id":"MA010120220802985750","name":"이들교육","industry":"입시·교과학원","coordinates":[127.393070075298,36.3510347753684],"sales":{"202602":3907}},{"id":"MA010120220802996093","name":"본미옥","industry":"백반/한정식","coordinates":[127.388132924265,36.3528893096298],"sales":{"202602":1847}},{"id":"MA010120220803030110","name":"보보뷰티","industry":"화장품 소매업","coordinates":[127.387251198212,36.3503148111148],"sales":{"202602":726}},{"id":"MA010120220803041023","name":"법무사이상용사무소","industry":"법무사","coordinates":[127.387251572694,36.3526398403202],"sales":{"202602":979}},{"id":"MA010120220803043910","name":"올라이프","industry":"요가/필라테스 학원","coordinates":[127.387265774976,36.3510086683967],"sales":{"202602":1095}},{"id":"MA010120220803052939","name":"어라운드스터디카페대전","industry":"독서실/스터디 카페","coordinates":[127.388145676682,36.3509697665554],"sales":{"202602":1017}},{"id":"MA010120220803057611","name":"3콘즈","industry":"요가/필라테스 학원","coordinates":[127.388132924265,36.3528893096298],"sales":{"202602":830}},{"id":"MA010120220803069989","name":"법률사무소나우","industry":"변호사","coordinates":[127.387251572694,36.3526398403202],"sales":{"202602":4652}},{"id":"MA010120220803073795","name":"법률사무소금산","industry":"변호사","coordinates":[127.388736529006,36.3532928759325],"sales":{"202602":8302}},{"id":"MA010120220803085906","name":"세진대전","industry":"경영 컨설팅업","coordinates":[127.387251198212,36.3503148111148],"sales":{"202602":1807}},{"id":"MA010120220803091514","name":"사리원면옥","industry":"냉면/밀면","coordinates":[127.387905472625,36.3497089019205],"sales":{"202602":2388}},{"id":"MA010120220803106205","name":"지에스씨푸드대전고등검찰청점","industry":"구내식당","coordinates":[127.387683937588,36.3544588103376],"sales":{"202602":3612}},{"id":"MA010120220803114995","name":"청년다방대전","industry":"김밥/만두/분식","coordinates":[127.388462252563,36.3496620344952],"sales":{"202602":1210}},{"id":"MA010120220803118787","name":"먹태집","industry":"요리 주점","coordinates":[127.387238317578,36.349963394691],"sales":{"202602":273}},{"id":"MA010120220803157278","name":"삼동산1호","industry":"경영 컨설팅업","coordinates":[127.387871354845,36.3563056087698],"sales":{"202602":3186}},{"id":"MA010120220803163571","name":"변호사권중영법률사무소","industry":"변호사","coordinates":[127.388212921464,36.3532945781978],"sales":{"202602":1147}},{"id":"MA010120220803166823","name":"에스엘이","industry":"부동산 중개/대리업","coordinates":[127.388772622554,36.3515895389145],"sales":{"202602":3635}},{"id":"MA010120220803168340","name":"필즈더클래식학원","industry":"입시·교과학원","coordinates":[127.389819455273,36.3515140345352],"sales":{"202602":6194}},{"id":"MA010120220803170726","name":"변호사김인원법률사무소","industry":"변호사","coordinates":[127.387871354845,36.3563056087698],"sales":{"202602":3195}},{"id":"MA010120220803184771","name":"양촌추어탕","industry":"국/탕/찌개류","coordinates":[127.388736529006,36.3532928759325],"sales":{"202602":1863}},{"id":"MA010120220803188734","name":"둔산청운학원","industry":"입시·교과학원","coordinates":[127.389858088387,36.3525592708186],"sales":{"202602":2927}},{"id":"MA010120220803201091","name":"지에스25","industry":"편의점","coordinates":[127.387238317578,36.349963394691],"sales":{"202602":3352}},{"id":"MA010120220803217774","name":"한백","industry":"사업/무형 재산권 중개업","coordinates":[127.387871354845,36.3563056087698],"sales":{}},{"id":"MA010120220803229824","name":"하부루타북클럽","industry":"서점","coordinates":[127.389867835905,36.3522798749659],"sales":{"202602":51336}},{"id":"MA010120220803233256","name":"씨유둔산","industry":"편의점","coordinates":[127.389492158419,36.3529029103775],"sales":{"202602":2970}},{"id":"MA010120220803251164","name":"제주애월해장국","industry":"국/탕/찌개류","coordinates":[127.389477794118,36.3500191987585],"sales":{"202602":1261}},{"id":"MA010120220803264008","name":"법률사무소가교변호사구자강","industry":"변호사","coordinates":[127.388212921464,36.3532945781978],"sales":{"202602":944}},{"id":"MA010120220803270507","name":"박구민행정사사무소","industry":"행정사","coordinates":[127.387421984427,36.3533061569523],"sales":{"202602":293}},{"id":"MA010120220803272014","name":"자하연교육컨설팅","industry":"교육컨설팅업","coordinates":[127.388772622554,36.3515895389145],"sales":{"202602":1881}},{"id":"MA010120220803289027","name":"이룸퍼스트클래스","industry":"입시·교과학원","coordinates":[127.389867835905,36.3522798749659],"sales":{"202602":2772}},{"id":"MA010120220803306876","name":"왓투두","industry":"시각 디자인업","coordinates":[127.387251572694,36.3526398403202],"sales":{"202602":73}},{"id":"MA010120220803319476","name":"메타에듀","industry":"기타 교육지원 서비스업","coordinates":[127.3870902396,36.3493060168059],"sales":{"202602":2776}},{"id":"MA010120220803323766","name":"송주불냉면","industry":"냉면/밀면","coordinates":[127.388772622554,36.3515895389145],"sales":{"202602":948}},{"id":"MA010120220803327961","name":"포케153","industry":"토스트/샌드위치/샐러드","coordinates":[127.387238317578,36.349963394691],"sales":{"202602":1415}},{"id":"MA010120220803347265","name":"변호사김연준법률사무소","industry":"변호사","coordinates":[127.388212921464,36.3532945781978],"sales":{"202602":2078}},{"id":"MA010120220803366715","name":"라임약국","industry":"약국","coordinates":[127.389850180445,36.3509732295791],"sales":{"202602":4497}},{"id":"MA010120220803367216","name":"다린잉글리쉬","industry":"입시·교과학원","coordinates":[127.387251198212,36.3503148111148],"sales":{"202602":3271}},{"id":"MA010120220803382183","name":"혼담플러스결혼","industry":"결혼 상담 서비스업","coordinates":[127.387112711256,36.3515949278506],"sales":{"202602":5985}},{"id":"MA010120220803402640","name":"법률사무소한세","industry":"변호사","coordinates":[127.387087811359,36.3533162516917],"sales":{"202602":2251}},{"id":"MA010120220803417777","name":"공차대전시청","industry":"카페","coordinates":[127.388772622554,36.3515895389145],"sales":{"202602":3095}},{"id":"MA010120220803437582","name":"둔산게임존","industry":"전자 게임장","coordinates":[127.389479006027,36.3502625119804],"sales":{"202602":6377}},{"id":"MA010120220803582687","name":"문성용법무사","industry":"법무사","coordinates":[127.388736529006,36.3532928759325],"sales":{"202602":718}},{"id":"MA010120220803589244","name":"투게더컴퍼니","industry":"광고 대행업","coordinates":[127.388212921464,36.3532945781978],"sales":{"202602":1797}},{"id":"MA010120220803699949","name":"금강법률경매","industry":"부동산 중개/대리업","coordinates":[127.388212921464,36.3532945781978],"sales":{"202602":3305}},{"id":"MA010120220803701563","name":"든든한밥상","industry":"백반/한정식","coordinates":[127.38985975093,36.352892699889],"sales":{"202602":1825}},{"id":"MA010120220803796175","name":"세종라이프","industry":"장례식장","coordinates":[127.388206165194,36.3496899019546],"sales":{"202602":14878}},{"id":"MA010120220803807299","name":"회화는크리스영어어학원","industry":"외국어학원","coordinates":[127.389867072032,36.3521266778122],"sales":{"202602":2525}},{"id":"MA010120220803826643","name":"변호사유지은법률사무소","industry":"변호사","coordinates":[127.388212921464,36.3532945781978],"sales":{"202602":1882}},{"id":"MA010120220803845702","name":"변호사강철호법률사무소","industry":"변호사","coordinates":[127.389015043639,36.3532919695375],"sales":{"202602":2505}},{"id":"MA010120220803850877","name":"라온","industry":"화장품 소매업","coordinates":[127.387970473107,36.3515831342428],"sales":{"202602":571}},{"id":"MA010120220803992037","name":"법률사무소이음","industry":"변호사","coordinates":[127.388469154948,36.353293745461],"sales":{"202602":6507}},{"id":"MA010120220803993209","name":"프리미엄양가","industry":"생맥주 전문","coordinates":[127.387970473107,36.3515831342428],"sales":{"202602":1049}},{"id":"MA010120220804003911","name":"메르시","industry":"시각 디자인업","coordinates":[127.387265774976,36.3510086683967],"sales":{"202602":152}},{"id":"MA010120220804058407","name":"법무법인올곧음","industry":"변호사","coordinates":[127.387871354845,36.3563056087698],"sales":{"202602":8930}},{"id":"MA010120220804160296","name":"진학학원","industry":"입시·교과학원","coordinates":[127.388955508474,36.3502822405798],"sales":{"202602":8307}},{"id":"MA010120220804244167","name":"한스헤어","industry":"미용실","coordinates":[127.393070075298,36.3510347753684],"sales":{"202602":1276}},{"id":"MA010120220804286588","name":"인더에이블","industry":"미용실","coordinates":[127.38830450163,36.349302077269],"sales":{"202602":1005}},{"id":"MA010120220804324392","name":"시청비타민약국","industry":"약국","coordinates":[127.387265774976,36.3510086683967],"sales":{"202602":12154}},{"id":"MA010120220804326391","name":"엘케이유학센터","industry":"기타 교육지원 서비스업","coordinates":[127.389858088387,36.3525592708186],"sales":{"202602":1140}},{"id":"MA010120220804345701","name":"이용구법무사사무소","industry":"법무사","coordinates":[127.387251572694,36.3526398403202],"sales":{"202602":1370}},{"id":"MA010120220804399921","name":"브로우솝","industry":"피부 관리실","coordinates":[127.387251198212,36.3503148111148],"sales":{"202602":346}},{"id":"MA010120220804416496","name":"생각의기술학원","industry":"입시·교과학원","coordinates":[127.389850587461,36.3532892464577],"sales":{"202602":4886}},{"id":"MA010120220804439584","name":"브레인업신경과의원","industry":"신경/정신과 의원","coordinates":[127.387424373023,36.3515398473189],"sales":{"202602":2523}},{"id":"MA010120220804442738","name":"강남면옥","industry":"냉면/밀면","coordinates":[127.387426650254,36.3519994389467],"sales":{"202602":3246}},{"id":"MA010120220804456544","name":"알에스법무사무소조기행","industry":"법무사","coordinates":[127.387251572694,36.3526398403202],"sales":{"202602":782}},{"id":"MA010120220804531084","name":"리치빌아주공인중개사사무소","industry":"부동산 중개/대리업","coordinates":[127.387251198212,36.3503148111148],"sales":{"202602":1893}},{"id":"MA010120220804577222","name":"경매정보공인중개사사무소","industry":"부동산 중개/대리업","coordinates":[127.389850587461,36.3532892464577],"sales":{"202602":2396}},{"id":"MA010120220804689873","name":"리넨네일","industry":"네일숍","coordinates":[127.387251198212,36.3503148111148],"sales":{"202602":224}},{"id":"MA010120220804735663","name":"한마루축산","industry":"정육점","coordinates":[127.390831440503,36.3556110713223],"sales":{"202602":11289}},{"id":"MA010120220804740535","name":"러셀코어대전학원","industry":"입시·교과학원","coordinates":[127.387272023643,36.352270292524],"sales":{"202602":1343}},{"id":"MA010120220804759599","name":"종로맥가","industry":"생맥주 전문","coordinates":[127.387238317578,36.349963394691],"sales":{"202602":794}},{"id":"MA010120220804762554","name":"스터디카페도도","industry":"독서실/스터디 카페","coordinates":[127.389867072032,36.3521266778122],"sales":{"202602":1202}},{"id":"MA010120220804777062","name":"달바라기","industry":"기념품점","coordinates":[127.387871354845,36.3563056087698],"sales":{"202602":460}},{"id":"MA010120220804789226","name":"김종화법무사사무소","industry":"법무사","coordinates":[127.388736529006,36.3532928759325],"sales":{"202602":498}},{"id":"MA010120220804835401","name":"GS25둔산한마루","industry":"편의점","coordinates":[127.390831440503,36.3556110713223],"sales":{"202602":2591}},{"id":"MA010120220804853873","name":"조이매스대전둔산센터","industry":"입시·교과학원","coordinates":[127.393395799872,36.3559901609077],"sales":{"202602":5969}},{"id":"MA010120220804857893","name":"스마트코딩학원","industry":"컴퓨터 학원","coordinates":[127.388145676682,36.3509697665554],"sales":{"202602":17299}},{"id":"MA010120220804913048","name":"도깨비문화유산여행","industry":"여행사","coordinates":[127.388772622554,36.3515895389145],"sales":{"202602":1199}},{"id":"MA010120220804913332","name":"법률사무소영지변호사장주영법률사무소","industry":"변호사","coordinates":[127.388212921464,36.3532945781978],"sales":{"202602":2242}},{"id":"MA010120220804914417","name":"대한가맹거래사사무소","industry":"경영 컨설팅업","coordinates":[127.388469154948,36.353293745461],"sales":{"202602":2544}},{"id":"MA010120220804966360","name":"법무법인법승대전분사무소","industry":"변호사","coordinates":[127.387421984427,36.3533061569523],"sales":{"202602":2245}},{"id":"MA010120220804985527","name":"부동산매매","industry":"부동산 중개/대리업","coordinates":[127.388772622554,36.3515895389145],"sales":{"202602":4396}},{"id":"MA010120220804997455","name":"제이제이수학학원","industry":"입시·교과학원","coordinates":[127.388624707643,36.350968209608],"sales":{"202602":2356}},{"id":"MA010120220805003792","name":"몽끌로아","industry":"피부 관리실","coordinates":[127.388263297395,36.3499780922726],"sales":{"202602":278}},{"id":"MA010120220805016915","name":"다이나믹","industry":"경영 컨설팅업","coordinates":[127.387871354845,36.3563056087698],"sales":{"202602":3066}},{"id":"MA010120220805035827","name":"법무사김진태","industry":"법무사","coordinates":[127.387112711256,36.3515949278506],"sales":{"202602":1110}},{"id":"MA010120220805036717","name":"더삼산","industry":"운동용품 소매업","coordinates":[127.389867835905,36.3522798749659],"sales":{"202602":2500}},{"id":"MA010120220805047076","name":"EN솔루션","industry":"기타 개인/가정용품 대여업","coordinates":[127.388656529099,36.3528876077313],"sales":{"202602":393}},{"id":"MA010120220805057618","name":"티앤알파워","industry":"경영 컨설팅업","coordinates":[127.387871354845,36.3563056087698],"sales":{"202602":1462}},{"id":"MA010120220805067972","name":"올리비아입시전문학원","industry":"입시·교과학원","coordinates":[127.388805847205,36.3493094588592],"sales":{"202602":3777}},{"id":"MA010120220805077498","name":"더소프트","industry":"광고 대행업","coordinates":[127.387251198212,36.3503148111148],"sales":{"202602":9835}},{"id":"MA010120220805126218","name":"스바라시","industry":"일식 회/초밥","coordinates":[127.38830450163,36.349302077269],"sales":{"202602":4789}},{"id":"MA010120220805130361","name":"크레온온누리약국","industry":"의료기기 소매업","coordinates":[127.3870902396,36.3493060168059],"sales":{"202602":3338}},{"id":"MA010120220805132912","name":"둔산대형약국","industry":"약국","coordinates":[127.389836299593,36.3504235583486],"sales":{"202602":19712}},{"id":"MA010120220805152157","name":"하늘문화유산여행","industry":"여행사","coordinates":[127.388772622554,36.3515895389145],"sales":{"202602":2746}},{"id":"MA010120220805186756","name":"지디알아카데미","industry":"골프 연습장","coordinates":[127.388132924265,36.3528893096298],"sales":{"202602":595}},{"id":"MA010120220805196071","name":"저스티스세무회계","industry":"세무사","coordinates":[127.388212921464,36.3532945781978],"sales":{"202602":276}},{"id":"MA010120220805207307","name":"하나센세","industry":"외국어학원","coordinates":[127.387251572694,36.3526398403202],"sales":{"202602":1517}},{"id":"MA010120220805240890","name":"율린법률사무소","industry":"부동산 중개/대리업","coordinates":[127.387421984427,36.3533061569523],"sales":{"202602":2389}},{"id":"MA010120220805243802","name":"특허법인오암","industry":"변리사","coordinates":[127.38985975093,36.352892699889],"sales":{"202602":491}},{"id":"MA010120220805244107","name":"청인법무사법인","industry":"법무사","coordinates":[127.387421984427,36.3533061569523],"sales":{"202602":390}},{"id":"MA010120220805248200","name":"이츠타임","industry":"카페","coordinates":[127.388304728139,36.3515910602771],"sales":{"202602":665}},{"id":"MA010120220805256464","name":"수목칼국수","industry":"국수/칼국수","coordinates":[127.387119046822,36.3528745750752],"sales":{"202602":3009}},{"id":"MA010120220805261066","name":"법률사무소주진","industry":"변호사","coordinates":[127.38985975093,36.352892699889],"sales":{"202602":1514}},{"id":"MA010120220805265282","name":"더브레인코어엠M초등학원","industry":"입시·교과학원","coordinates":[127.389835490906,36.3502613495464],"sales":{"202602":5624}},{"id":"MA010120220805265344","name":"아름생각정신건강의학과","industry":"일반병원","coordinates":[127.387272023643,36.352270292524],"sales":{"202602":94422}},{"id":"MA010120220805267170","name":"디어텍시스템","industry":"사무기기 소매업","coordinates":[127.387871354845,36.3563056087698],"sales":{"202602":294}},{"id":"MA010120220805279392","name":"법률사무소승담","industry":"변호사","coordinates":[127.387251572694,36.3526398403202],"sales":{"202602":4501}},{"id":"MA010120220805282469","name":"법무사김성수사무소","industry":"법무사","coordinates":[127.389024390697,36.3529314693959],"sales":{"202602":1193}},{"id":"MA010120220805284962","name":"상영태양광","industry":"기타 엔지니어링 서비스업","coordinates":[127.387871354845,36.3563056087698],"sales":{"202602":2061}},{"id":"MA010120220805296531","name":"두바이","industry":"요리 주점","coordinates":[127.389031316448,36.3520843429412],"sales":{"202602":303}},{"id":"MA010120220805302236","name":"변호사김진아법률사무소","industry":"변호사","coordinates":[127.389850587461,36.3532892464577],"sales":{"202602":1687}},{"id":"MA010120220805307083","name":"애플트리","industry":"김밥/만두/분식","coordinates":[127.388276093143,36.3503114853536],"sales":{"202602":2414}},{"id":"MA010120220805311062","name":"지엠클럽","industry":"미용실","coordinates":[127.388976555834,36.3522737678382],"sales":{"202602":1969}},{"id":"MA010120220805319853","name":"아이앤아이입시상담연구소","industry":"교육컨설팅업","coordinates":[127.388656529099,36.3528876077313],"sales":{"202602":3258}},{"id":"MA010120220805333138","name":"투브로우즈","industry":"피부 관리실","coordinates":[127.387251572694,36.3526398403202],"sales":{"202602":1112}},{"id":"MA010120220805334366","name":"햇살가득한약국","industry":"약국","coordinates":[127.393395799872,36.3559901609077],"sales":{"202602":10715}},{"id":"MA010120220805338548","name":"리치","industry":"노래방","coordinates":[127.388065816491,36.3505915325733],"sales":{"202602":898}},{"id":"MA010120220805342849","name":"그리스","industry":"무도 유흥 주점","coordinates":[127.389490497442,36.3525694812931],"sales":{"202602":1022}},{"id":"MA010120220805347226","name":"법원경매대전공인중개사사무소","industry":"부동산 중개/대리업","coordinates":[127.389850587461,36.3532892464577],"sales":{"202602":1878}},{"id":"MA010120220805356645","name":"특급공인중개사사무소","industry":"부동산 중개/대리업","coordinates":[127.387251198212,36.3503148111148],"sales":{"202602":1362}},{"id":"MA010120220805363211","name":"송원","industry":"백반/한정식","coordinates":[127.388132924265,36.3528893096298],"sales":{"202602":2287}},{"id":"MA010120220805384436","name":"리플랜공인중개사사무소","industry":"부동산 중개/대리업","coordinates":[127.388212921464,36.3532945781978],"sales":{"202602":1468}},{"id":"MA010120220805398891","name":"하늘한식부페","industry":"뷔페","coordinates":[127.387112711256,36.3515949278506],"sales":{"202602":3901}},{"id":"MA010120220805457280","name":"이만적사탐.한국사Academy","industry":"서점","coordinates":[127.389866263231,36.3519644690569],"sales":{"202602":20568}},{"id":"MA010120220805466102","name":"법무법인청연대전분사무소","industry":"변호사","coordinates":[127.389549791698,36.3532902274394],"sales":{"202602":3377}},{"id":"MA010120220805471498","name":"매직PC방","industry":"PC방","coordinates":[127.389499438231,36.352127876705],"sales":{"202602":1322}},{"id":"MA010120220805478667","name":"미드멜리호텔","industry":"여관/모텔","coordinates":[127.388276093143,36.3503114853536],"sales":{"202602":1023}},{"id":"MA010120220805490971","name":"토피아잉글리쉬존대전외국어학원","industry":"외국어학원","coordinates":[127.388981285435,36.3509850729033],"sales":{"202602":4064}},{"id":"MA010120220805504855","name":"강반장로스구이","industry":"백반/한정식","coordinates":[127.38861025319,36.3503013873644],"sales":{"202602":4115}},{"id":"MA010120220805521985","name":"변호사최지수법률사무소","industry":"변호사","coordinates":[127.387087811359,36.3533162516917],"sales":{"202602":3054}},{"id":"MA010120220805529271","name":"필라드리","industry":"테니스장","coordinates":[127.387251572694,36.3526398403202],"sales":{"202602":277}},{"id":"MA010120220805531098","name":"최셰프의숯불닭","industry":"닭/오리고기 구이/찜","coordinates":[127.389031068535,36.3497953602517],"sales":{"202602":1121}},{"id":"MA010120220805533144","name":"임재현법무사사무소","industry":"법무사","coordinates":[127.388469154948,36.353293745461],"sales":{"202602":808}},{"id":"MA010120220805607536","name":"디투어","industry":"여행사","coordinates":[127.387871354845,36.3563056087698],"sales":{"202602":5026}},{"id":"MA010120220805627418","name":"변호사박현래법률사무소","industry":"변호사","coordinates":[127.389015043639,36.3532919695375],"sales":{"202602":1939}},{"id":"MA010120220805650674","name":"법무법인새미래","industry":"변호사","coordinates":[127.387087811359,36.3533162516917],"sales":{"202602":2259}},{"id":"MA010120220805653715","name":"그랑발레아카데미학원","industry":"기타 예술/스포츠 교육기관","coordinates":[127.388145676682,36.3509697665554],"sales":{"202602":442}},{"id":"MA010120220805686016","name":"카페라메르","industry":"카페","coordinates":[127.389878029595,36.3498556821445],"sales":{"202602":1363}},{"id":"MA010120220805696045","name":"씨에나","industry":"그 외 기타 교육기관","coordinates":[127.389867835905,36.3522798749659],"sales":{"202602":2952}},{"id":"MA010120220805738001","name":"목련타운공인중개사사무소","industry":"부동산 중개/대리업","coordinates":[127.393070075298,36.3510347753684],"sales":{"202602":1454}},{"id":"MA010120220805740727","name":"일광종합상사","industry":"문구/회화용품 소매업","coordinates":[127.388656529099,36.3528876077313],"sales":{"202602":10882}},{"id":"MA010120220805741579","name":"그린스튜디오","industry":"사진촬영업","coordinates":[127.387238317578,36.349963394691],"sales":{"202602":691}},{"id":"MA010120220805741650","name":"김현주김택원세무회계사무소","industry":"세무사","coordinates":[127.389858088387,36.3525592708186],"sales":{"202602":798}},{"id":"MA010120220805741709","name":"송동호법률사무소","industry":"변호사","coordinates":[127.389015043639,36.3532919695375],"sales":{"202602":1793}},{"id":"MA010120220805741710","name":"변호사임상순법률사무소","industry":"변호사","coordinates":[127.389015043639,36.3532919695375],"sales":{"202602":3166}},{"id":"MA010120220805741711","name":"김연수세무사무소","industry":"세무사","coordinates":[127.387945502669,36.353286434957],"sales":{"202602":1324}},{"id":"MA010120220805741791","name":"법무사안상재","industry":"법무사","coordinates":[127.389015043639,36.3532919695375],"sales":{"202602":434}},{"id":"MA010120220805741799","name":"법무사조남설사무소","industry":"법무사","coordinates":[127.388772622554,36.3515895389145],"sales":{"202602":1577}},{"id":"MA010120220805741808","name":"법무사","industry":"법무사","coordinates":[127.387871354845,36.3563056087698],"sales":{"202602":853}},{"id":"MA010120220805741898","name":"장옥진의커피볶는집","industry":"카페","coordinates":[127.388656529099,36.3528876077313],"sales":{"202602":3223}},{"id":"MA010120220805742114","name":"오원화랑","industry":"예술품 소매업","coordinates":[127.388736529006,36.3532928759325],"sales":{"202602":246}},{"id":"MA010120220805742681","name":"스마트잡스대전아이폰수리센터","industry":"핸드폰/통신장비 수리업","coordinates":[127.387112711256,36.3515949278506],"sales":{"202602":315}},{"id":"MA010120220805743604","name":"오성이용원","industry":"미용실","coordinates":[127.38985975093,36.352892699889],"sales":{"202602":1150}},{"id":"MA010120220805744286","name":"프라임공인중개사","industry":"부동산 중개/대리업","coordinates":[127.388736529006,36.3532928759325],"sales":{"202602":1264}},{"id":"MA010120220805744877","name":"에이플러스체스카페","industry":"바둑/장기/체스 경기 운영업","coordinates":[127.387251198212,36.3503148111148],"sales":{"202602":186}},{"id":"MA010120220805748688","name":"둔산공인중개사사무소","industry":"부동산 중개/대리업","coordinates":[127.388772622554,36.3515895389145],"sales":{"202602":1604}},{"id":"MA010120220805748768","name":"고태수세무회계사무소","industry":"세무사","coordinates":[127.388212921464,36.3532945781978],"sales":{"202602":373}},{"id":"MA010120220805751612","name":"알레","industry":"기타 의류 소매업","coordinates":[127.387251198212,36.3503148111148],"sales":{"202602":1041}},{"id":"MA010120220805752239","name":"남맥나주곰탕","industry":"국/탕/찌개류","coordinates":[127.387238317578,36.349963394691],"sales":{"202602":4009}},{"id":"MA010120220805752504","name":"지에스엔","industry":"기타 교육지원 서비스업","coordinates":[127.387112711256,36.3515949278506],"sales":{"202602":1637}},{"id":"MA010120220805753850","name":"업소명없음","industry":"세무사","coordinates":[127.387238317578,36.349963394691],"sales":{"202602":937}},{"id":"MA010120220805754263","name":"명가백반부페","industry":"백반/한정식","coordinates":[127.387871354845,36.3563056087698],"sales":{"202602":1211}},{"id":"MA010120220805755193","name":"비비큐프리미엄까페&올떡","industry":"치킨","coordinates":[127.389476896417,36.3498389667358],"sales":{"202602":2202}},{"id":"MA010120220805755316","name":"신시골밥상","industry":"백반/한정식","coordinates":[127.387871354845,36.3563056087698],"sales":{"202602":1108}},{"id":"MA010120220805755410","name":"법원경매채움공인중개사사무소","industry":"부동산 중개/대리업","coordinates":[127.389850587461,36.3532892464577],"sales":{"202602":1288}},{"id":"MA010120220805762496","name":"계동치킨","industry":"치킨","coordinates":[127.387251198212,36.3503148111148],"sales":{"202602":2491}},{"id":"MA010120220805766667","name":"안경매니져","industry":"안경렌즈 소매업","coordinates":[127.390993606042,36.3523933493252],"sales":{"202602":4152}},{"id":"MA010120220805770123","name":"지리산산골농장","industry":"돼지고기 구이/찜","coordinates":[127.389031068535,36.3497953602517],"sales":{"202602":3384}},{"id":"MA010120220805770597","name":"드림디자인","industry":"명함/간판/광고물 제작","coordinates":[127.388772622554,36.3515895389145],"sales":{"202602":253}},{"id":"MA010120220805779386","name":"연탄한장","industry":"돼지고기 구이/찜","coordinates":[127.388611686344,36.3505897586053],"sales":{"202602":2718}},{"id":"MA010120220805785613","name":"맑은의원","industry":"기타 의원","coordinates":[127.387238317578,36.349963394691],"sales":{"202602":11225}},{"id":"MA010120220805786384","name":"에스앤지","industry":"제품 디자인업","coordinates":[127.387871354845,36.3563056087698],"sales":{"202602":371}},{"id":"MA010120220805789512","name":"새봄약국","industry":"약국","coordinates":[127.388624707643,36.350968209608],"sales":{"202602":11048}},{"id":"MA010120220805796003","name":"온뉴","industry":"광고 대행업","coordinates":[127.387081017728,36.3496935518781],"sales":{"202602":4179}},{"id":"MA010120220805804813","name":"법률사무소이지","industry":"변호사","coordinates":[127.387265774976,36.3510086683967],"sales":{"202602":3313}},{"id":"MA010120220805806788","name":"버디","industry":"경양식","coordinates":[127.387945502669,36.353286434957],"sales":{"202602":2219}},{"id":"MA010120220805809937","name":"대전종합법무법인","industry":"변호사","coordinates":[127.389015043639,36.3532919695375],"sales":{"202602":2743}},{"id":"MA010120220805810103","name":"법무법인대전제일","industry":"변호사","coordinates":[127.389850587461,36.3532892464577],"sales":{"202602":2418}},{"id":"MA010120220805810831","name":"미래경영아웃소싱주","industry":"경영 컨설팅업","coordinates":[127.387238317578,36.349963394691],"sales":{"202602":1083}},{"id":"MA010120220805811456","name":"한밭사랑주","industry":"옥외/전시 광고 대행업","coordinates":[127.387251198212,36.3503148111148],"sales":{"202602":559}},{"id":"MA010120220805813410","name":"제일렌트카","industry":"자동차 대여업","coordinates":[127.387112711256,36.3515949278506],"sales":{"202602":3073}},{"id":"MA010120220805819398","name":"문화공감","industry":"전시/컨벤션/행사 대행 서비스업","coordinates":[127.388287459583,36.3526004317804],"sales":{"202602":2295}},{"id":"MA010120220805819507","name":"제이디태양광","industry":"기타 엔지니어링 서비스업","coordinates":[127.387871354845,36.3563056087698],"sales":{"202602":545}},{"id":"MA010120220805824817","name":"보생옥","industry":"백반/한정식","coordinates":[127.387951418907,36.3499881169526],"sales":{"202602":1162}},{"id":"MA010120220805826586","name":"채반","industry":"백반/한정식","coordinates":[127.389491305481,36.3527316900392],"sales":{"202602":3666}},{"id":"MA010120220805827805","name":"둔산탁구장","industry":"탁구장","coordinates":[127.389866263231,36.3519644690569],"sales":{"202602":194}},{"id":"MA010120220805828409","name":"법무사박찬희사무소","industry":"법무사","coordinates":[127.389549791698,36.3532902274394],"sales":{"202602":1054}},{"id":"MA010120220805828681","name":"법무사이문주사무소","industry":"법무사","coordinates":[127.388469154948,36.353293745461],"sales":{"202602":513}},{"id":"MA010120220805828752","name":"아이텔세탁소","industry":"세탁소","coordinates":[127.388772622554,36.3515895389145],"sales":{"202602":453}},{"id":"MA010120220805829806","name":"리치빌공인중개사사무소","industry":"부동산 중개/대리업","coordinates":[127.387251198212,36.3503148111148],"sales":{"202602":2809}},{"id":"MA010120220805836606","name":"다나약국","industry":"약국","coordinates":[127.387424373023,36.3515398473189],"sales":{"202602":25241}},{"id":"MA010120220805852665","name":"작은어촌","industry":"백반/한정식","coordinates":[127.388656529099,36.3528876077313],"sales":{"202602":3737}},{"id":"MA010120220805861605","name":"썸타","industry":"일반 유흥 주점","coordinates":[127.389499438231,36.352127876705],"sales":{"202602":168}},{"id":"MA010120220805863313","name":"에스케이항공여행사","industry":"여행사","coordinates":[127.3870902396,36.3493060168059],"sales":{"202602":2217}},{"id":"MA010120220805865514","name":"신수학","industry":"입시·교과학원","coordinates":[127.387251198212,36.3503148111148],"sales":{"202602":15068}},{"id":"MA010120220805867554","name":"황소곱창","industry":"곱창 전골/구이","coordinates":[127.389491851903,36.350604916484],"sales":{"202602":2826}},{"id":"MA010120220805868731","name":"법무사송광기사무소","industry":"법무사","coordinates":[127.387871354845,36.3563056087698],"sales":{"202602":352}},{"id":"MA010120220805873059","name":"이철헤어커커둔산","industry":"미용실","coordinates":[127.388132924265,36.3528893096298],"sales":{"202602":1625}},{"id":"MA010120220805897507","name":"변호사채종식법률사무소","industry":"변호사","coordinates":[127.389549791698,36.3532902274394],"sales":{"202602":2854}},{"id":"MA010120220805897978","name":"시카고피자","industry":"피자","coordinates":[127.388624707643,36.350968209608],"sales":{"202602":18902}},{"id":"MA010120220805897992","name":"엠베스트대전교육센터","industry":"기타 교육지원 서비스업","coordinates":[127.388145676682,36.3509697665554],"sales":{"202602":2359}},{"id":"MA010120220805929551","name":"변호사박상준법률사무소","industry":"변호사","coordinates":[127.388212921464,36.3532945781978],"sales":{"202602":3793}},{"id":"MA010120220805936737","name":"한마루시티공인중개사사무소","industry":"부동산 중개/대리업","coordinates":[127.390831440503,36.3556110713223],"sales":{"202602":999}},{"id":"MA010120220805964823","name":"치앙마이","industry":"마사지/안마","coordinates":[127.388954029243,36.3499848577341],"sales":{"202602":368}},{"id":"MA010120220805991902","name":"프리즘네일","industry":"네일숍","coordinates":[127.387265774976,36.3510086683967],"sales":{"202602":312}},{"id":"MA010120220806001935","name":"대전커피아카데미","industry":"기타 기술/직업 훈련학원","coordinates":[127.387238317578,36.349963394691],"sales":{"202602":1350}},{"id":"MA010120220806073757","name":"법원공인중개사사무소","industry":"부동산 중개/대리업","coordinates":[127.387087811359,36.3533162516917],"sales":{"202602":1432}},{"id":"MA010120220806131314","name":"허니문국제결혼","industry":"결혼 상담 서비스업","coordinates":[127.389866263231,36.3519644690569],"sales":{"202602":3917}},{"id":"MA010120220806162672","name":"법무사김종석사무소","industry":"법무사","coordinates":[127.388212921464,36.3532945781978],"sales":{"202602":950}},{"id":"MA010120220806170966","name":"목화공인중개사사무소","industry":"부동산 중개/대리업","coordinates":[127.387112711256,36.3515949278506],"sales":{"202602":2860}},{"id":"MA010120220806172171","name":"왕관","industry":"일반 유흥 주점","coordinates":[127.389479006027,36.3502625119804],"sales":{"202602":612}},{"id":"MA010120220806173616","name":"둔산하늘약국","industry":"약국","coordinates":[127.387238317578,36.349963394691],"sales":{"202602":22393}},{"id":"MA010120220806173872","name":"예인댄스스포츠","industry":"레크리에이션 교육기관","coordinates":[127.388653438271,36.3522658074684],"sales":{"202602":1825}},{"id":"MA010120220806175288","name":"세븐일레븐","industry":"편의점","coordinates":[127.387905329906,36.351925792046],"sales":{"202602":3511}},{"id":"MA010120220806175351","name":"천대진세무회계사무소","industry":"세무사","coordinates":[127.387251572694,36.3526398403202],"sales":{"202602":472}},{"id":"MA010120220806175386","name":"법무사김우동사무소","industry":"법무사","coordinates":[127.388772622554,36.3515895389145],"sales":{"202602":659}},{"id":"MA010120220806175401","name":"이강노법률사무소","industry":"변호사","coordinates":[127.387945502669,36.353286434957],"sales":{"202602":2137}},{"id":"MA010120220806175403","name":"이재덕법률사무소","industry":"변호사","coordinates":[127.389850587461,36.3532892464577],"sales":{"202602":9821}},{"id":"MA010120220806175404","name":"이현규법률사무소","industry":"변호사","coordinates":[127.389850587461,36.3532892464577],"sales":{"202602":4888}},{"id":"MA010120220806175409","name":"변호사김용섭법률사무소","industry":"변호사","coordinates":[127.389015043639,36.3532919695375],"sales":{"202602":1658}},{"id":"MA010120220806175410","name":"오윤배법률사무소","industry":"변호사","coordinates":[127.389850587461,36.3532892464577],"sales":{"202602":1809}},{"id":"MA010120220806175412","name":"정명합동법률사무소","industry":"변호사","coordinates":[127.389549791698,36.3532902274394],"sales":{"202602":6292}},{"id":"MA010120220806175417","name":"최현법률사무소","industry":"변호사","coordinates":[127.389015043639,36.3532919695375],"sales":{"202602":2953}},{"id":"MA010120220806175422","name":"변호사김삼현법률사무소","industry":"변호사","coordinates":[127.389850587461,36.3532892464577],"sales":{"202602":4072}},{"id":"MA010120220806175445","name":"전정수대덕법률컨설팅","industry":"변호사","coordinates":[127.389015043639,36.3532919695375],"sales":{"202602":2279}},{"id":"MA010120220806175464","name":"변호사박대영법률사무소","industry":"변호사","coordinates":[127.389850587461,36.3532892464577],"sales":{"202602":1629}},{"id":"MA010120220806175467","name":"변호사송유영법률사무소","industry":"변호사","coordinates":[127.389549791698,36.3532902274394],"sales":{"202602":3945}},{"id":"MA010120220806175469","name":"주광기법률사무소","industry":"변호사","coordinates":[127.389850587461,36.3532892464577],"sales":{"202602":1491}},{"id":"MA010120220806175479","name":"변호사오천균법률사무소","industry":"변호사","coordinates":[127.389850587461,36.3532892464577],"sales":{"202602":2621}},{"id":"MA010120220806175485","name":"이관표법률사무소","industry":"변호사","coordinates":[127.389850587461,36.3532892464577],"sales":{"202602":2610}},{"id":"MA010120220806175490","name":"변호사박호섭사무소","industry":"변호사","coordinates":[127.389549791698,36.3532902274394],"sales":{"202602":2655}},{"id":"MA010120220806175525","name":"김충식법률사무소","industry":"변호사","coordinates":[127.389850587461,36.3532892464577],"sales":{"202602":2826}},{"id":"MA010120220806175596","name":"곽노준법률사무소","industry":"변호사","coordinates":[127.389850587461,36.3532892464577],"sales":{"202602":1420}},{"id":"MA010120220806175600","name":"함께하는법률사무소","industry":"변호사","coordinates":[127.387945502669,36.353286434957],"sales":{"202602":2903}},{"id":"MA010120220806175614","name":"변호사한송희법률사무소","industry":"변호사","coordinates":[127.389015043639,36.3532919695375],"sales":{"202602":4293}},{"id":"MA010120220806175622","name":"구달회행정사무소","industry":"법무사","coordinates":[127.389015043639,36.3532919695375],"sales":{"202602":616}},{"id":"MA010120220806175630","name":"법무사","industry":"법무사","coordinates":[127.388736529006,36.3532928759325],"sales":{"202602":1236}},{"id":"MA010120220806175632","name":"법무사","industry":"법무사","coordinates":[127.388656529099,36.3528876077313],"sales":{"202602":1173}},{"id":"MA010120220806175633","name":"법무사","industry":"법무사","coordinates":[127.389549791698,36.3532902274394],"sales":{"202602":1060}},{"id":"MA010120220806175634","name":"법무사","industry":"법무사","coordinates":[127.388469154948,36.353293745461],"sales":{"202602":499}},{"id":"MA010120220806175637","name":"임미해법무사","industry":"법무사","coordinates":[127.389015043639,36.3532919695375],"sales":{"202602":549}},{"id":"MA010120220806175638","name":"법무사","industry":"법무사","coordinates":[127.389549791698,36.3532902274394],"sales":{"202602":786}},{"id":"MA010120220806175640","name":"법무사","industry":"법무사","coordinates":[127.389015043639,36.3532919695375],"sales":{"202602":454}},{"id":"MA010120220806175646","name":"이재택법무사","industry":"법무사","coordinates":[127.389024390697,36.3529314693959],"sales":{"202602":352}},{"id":"MA010120220806175656","name":"법무사","industry":"법무사","coordinates":[127.387871354845,36.3563056087698],"sales":{"202602":883}},{"id":"MA010120220806175657","name":"법무사","industry":"법무사","coordinates":[127.388469154948,36.353293745461],"sales":{"202602":1030}},{"id":"MA010120220806175936","name":"법무사송철헌사무소","industry":"법무사","coordinates":[127.388772622554,36.3515895389145],"sales":{"202602":587}},{"id":"MA010120220806175956","name":"변호사김수경법률사무소","industry":"변호사","coordinates":[127.388469154948,36.353293745461],"sales":{"202602":2818}},{"id":"MA010120220806175957","name":"법무사","industry":"법무사","coordinates":[127.389549791698,36.3532902274394],"sales":{"202602":856}},{"id":"MA010120220806176262","name":"법무사김영식사무소","industry":"법무사","coordinates":[127.388736529006,36.3532928759325],"sales":{"202602":790}},{"id":"MA010120220806176421","name":"법무사최성관사무소","industry":"법무사","coordinates":[127.387945502669,36.353286434957],"sales":{"202602":790}},{"id":"MA010120220806176526","name":"대륜법무사합동사무소","industry":"법무사","coordinates":[127.388736529006,36.3532928759325],"sales":{"202602":345}},{"id":"MA010120220806176527","name":"대륜법무사합동사무소","industry":"법무사","coordinates":[127.388736529006,36.3532928759325],"sales":{"202602":1110}},{"id":"MA010120220806176528","name":"대륜법무사합동사무소","industry":"법무사","coordinates":[127.388736529006,36.3532928759325],"sales":{"202602":760}},{"id":"MA010120220806176635","name":"변호사서정만법률사무소","industry":"변호사","coordinates":[127.387945502669,36.353286434957],"sales":{"202602":4102}},{"id":"MA010120220806176700","name":"장성기법무사사무소","industry":"법무사","coordinates":[127.387871354845,36.3563056087698],"sales":{"202602":1071}},{"id":"MA010120220806176728","name":"변호사김형배법률사무소","industry":"변호사","coordinates":[127.389850587461,36.3532892464577],"sales":{"202602":2596}},{"id":"MA010120220806177293","name":"법무사최한주","industry":"법무사","coordinates":[127.387251198212,36.3503148111148],"sales":{"202602":809}},{"id":"MA010120220806177334","name":"법무사연제성사무소","industry":"법무사","coordinates":[127.387945502669,36.353286434957],"sales":{"202602":892}},{"id":"MA010120220806177335","name":"법무사임정훈사무소","industry":"법무사","coordinates":[127.387945502669,36.353286434957],"sales":{"202602":396}},{"id":"MA010120220806177389","name":"법무사이기중사무소","industry":"법무사","coordinates":[127.388736529006,36.3532928759325],"sales":{"202602":681}},{"id":"MA010120220806177624","name":"휘닉스실내골프장","industry":"골프 연습장","coordinates":[127.389490497442,36.3525694812931],"sales":{"202602":638}},{"id":"MA010120220806177943","name":"변호사최기석법률사무소","industry":"변호사","coordinates":[127.387421984427,36.3533061569523],"sales":{"202602":3445}},{"id":"MA010120220806178344","name":"법무사","industry":"법무사","coordinates":[127.387945502669,36.353286434957],"sales":{"202602":661}},{"id":"MA010120220806179418","name":"변호사강홍구법률사무소","industry":"변호사","coordinates":[127.389850587461,36.3532892464577],"sales":{"202602":2128}},{"id":"MA010120220806179684","name":"법무사신학철사무소","industry":"법무사","coordinates":[127.388469154948,36.353293745461],"sales":{"202602":1269}},{"id":"MA010120220806179827","name":"일당식당","industry":"백반/한정식","coordinates":[127.388065816491,36.3505915325733],"sales":{"202602":788}},{"id":"MA010120220806179905","name":"김기영법무사","industry":"법무사","coordinates":[127.388736529006,36.3532928759325],"sales":{"202602":1481}},{"id":"MA010120220806180153","name":"비앙카2","industry":"여성 의류 소매업","coordinates":[127.390993606042,36.3523933493252],"sales":{"202602":232}},{"id":"MA010120220806180585","name":"오성대중탕","industry":"목욕탕/사우나","coordinates":[127.38985975093,36.352892699889],"sales":{"202602":3792}},{"id":"MA010120220806180799","name":"아이텔공인중개사사무소","industry":"부동산 중개/대리업","coordinates":[127.388772622554,36.3515895389145],"sales":{"202602":1261}},{"id":"MA010120220806180830","name":"현대아이텔부동산중개인사무소","industry":"부동산 중개/대리업","coordinates":[127.388772622554,36.3515895389145],"sales":{"202602":1358}},{"id":"MA010120220806181020","name":"민병찬법무사무소","industry":"법무사","coordinates":[127.389015043639,36.3532919695375],"sales":{"202602":1241}},{"id":"MA010120220806181021","name":"이창주법무사공인중개사행정사사무소","industry":"법무사","coordinates":[127.389015043639,36.3532919695375],"sales":{"202602":908}},{"id":"MA010120220806181030","name":"너와마을식당","industry":"백반/한정식","coordinates":[127.38903476897,36.3527782359739],"sales":{"202602":3987}},{"id":"MA010120220806181059","name":"세무사전수범사무소","industry":"세무사","coordinates":[127.388736529006,36.3532928759325],"sales":{"202602":1131}},{"id":"MA010120220806181112","name":"김경수세무사무소","industry":"세무사","coordinates":[127.387238317578,36.349963394691],"sales":{"202602":846}},{"id":"MA010120220806181381","name":"누리약국","industry":"약국","coordinates":[127.38985975093,36.352892699889],"sales":{"202602":10753}},{"id":"MA010120220806182634","name":"마채홍세무회계사무소","industry":"세무사","coordinates":[127.387945502669,36.353286434957],"sales":{"202602":377}},{"id":"MA010120220806182891","name":"변호사강성열법률사무소","industry":"변호사","coordinates":[127.389850587461,36.3532892464577],"sales":{"202602":6850}},{"id":"MA010120220806182899","name":"변호사장동환법률사무소","industry":"변호사","coordinates":[127.389850587461,36.3532892464577],"sales":{"202602":2115}},{"id":"MA010120220806183094","name":"변호사여운철법률사무소","industry":"변호사","coordinates":[127.387087811359,36.3533162516917],"sales":{"202602":1994}},{"id":"MA010120220806184379","name":"카라","industry":"일반 유흥 주점","coordinates":[127.387905329906,36.351925792046],"sales":{"202602":2983}},{"id":"MA010120220806184516","name":"호텔3월","industry":"여관/모텔","coordinates":[127.388462252563,36.3496620344952],"sales":{"202602":3292}},{"id":"MA010120220806184622","name":"아너스빌수퍼","industry":"슈퍼마켓","coordinates":[127.387871354845,36.3563056087698],"sales":{"202602":11417}},{"id":"MA010120220806184791","name":"큐단란주점","industry":"일반 유흥 주점","coordinates":[127.387905472625,36.3497089019205],"sales":{"202602":504}},{"id":"MA010120220806185337","name":"나인건축사사무소","industry":"건축 설계 및 관련 서비스업","coordinates":[127.387871354845,36.3563056087698],"sales":{"202602":3319}},{"id":"MA010120220806186755","name":"법무사추영숙사무소","industry":"법무사","coordinates":[127.387871354845,36.3563056087698],"sales":{"202602":939}},{"id":"MA010120220806186850","name":"법무사이경식사무소","industry":"법무사","coordinates":[127.388469154948,36.353293745461],"sales":{"202602":265}},{"id":"MA010120220806187343","name":"황진하에스테틱컬","industry":"피부 관리실","coordinates":[127.387251572694,36.3526398403202],"sales":{"202602":1462}},{"id":"MA010120220806187605","name":"한봉룡세무회계사무소","industry":"세무사","coordinates":[127.388212921464,36.3532945781978],"sales":{"202602":817}},{"id":"MA010120220806187606","name":"세무회계사무소이지둔산","industry":"세무사","coordinates":[127.387087811359,36.3533162516917],"sales":{"202602":427}},{"id":"MA010120220806188088","name":"수만금공인중개사사무소","industry":"부동산 중개/대리업","coordinates":[127.388656529099,36.3528876077313],"sales":{"202602":1003}},{"id":"MA010120220806188495","name":"크로바식당","industry":"백반/한정식","coordinates":[127.390993606042,36.3523933493252],"sales":{"202602":4263}},{"id":"MA010120220806189724","name":"갤러리맥주창고","industry":"요리 주점","coordinates":[127.38830450163,36.349302077269],"sales":{"202602":236}},{"id":"MA010120220806189922","name":"크로바전자","industry":"전기용품/조명장치 소매업","coordinates":[127.390993606042,36.3523933493252],"sales":{"202602":736}},{"id":"MA010120220806190208","name":"전계성세무회계사무소","industry":"세무사","coordinates":[127.388981285435,36.3509850729033],"sales":{"202602":493}},{"id":"MA010120220806190307","name":"변호사조성천법률사무소","industry":"변호사","coordinates":[127.389850587461,36.3532892464577],"sales":{"202602":1112}},{"id":"MA010120220806190457","name":"조명호법무사사무소","industry":"법무사","coordinates":[127.388469154948,36.353293745461],"sales":{"202602":743}},{"id":"MA010120220806190481","name":"이상욱법률사무소","industry":"변호사","coordinates":[127.387945502669,36.353286434957],"sales":{"202602":2707}},{"id":"MA010120220806190520","name":"아리담","industry":"피부 관리실","coordinates":[127.387251572694,36.3526398403202],"sales":{"202602":794}},{"id":"MA010120220806190782","name":"변호사한영식법률사무소","industry":"변호사","coordinates":[127.389549791698,36.3532902274394],"sales":{"202602":1309}},{"id":"MA010120220806190874","name":"패밀리닥터","industry":"건강보조식품 소매업","coordinates":[127.387112711256,36.3515949278506],"sales":{"202602":3631}},{"id":"MA010120220806192722","name":"아너스빌공인중개사무소","industry":"부동산 중개/대리업","coordinates":[127.387871354845,36.3563056087698],"sales":{"202602":1238}},{"id":"MA010120220806192968","name":"법무사장성운사무소","industry":"법무사","coordinates":[127.388469154948,36.353293745461],"sales":{"202602":1236}},{"id":"MA010120220806193678","name":"이택진법무사사무소","industry":"법무사","coordinates":[127.388469154948,36.353293745461],"sales":{"202602":710}},{"id":"MA010120220806193690","name":"임성빈법무사무소","industry":"법무사","coordinates":[127.387421984427,36.3533061569523],"sales":{"202602":1084}},{"id":"MA010120220806193857","name":"소문난칼국수","industry":"국수/칼국수","coordinates":[127.389499438231,36.352127876705],"sales":{"202602":1840}},{"id":"MA010120220806193968","name":"커브스둔산클럽","industry":"헬스장","coordinates":[127.393395799872,36.3559901609077],"sales":{"202602":634}},{"id":"MA010120220806194487","name":"호야공인중개사무소","industry":"부동산 중개/대리업","coordinates":[127.388736529006,36.3532928759325],"sales":{"202602":2055}},{"id":"MA010120220806195252","name":"법무사최달석사무소","industry":"법무사","coordinates":[127.387251572694,36.3526398403202],"sales":{"202602":1456}},{"id":"MA010120220806195310","name":"형우상사","industry":"기타 의류 소매업","coordinates":[127.387892276266,36.3492944043224],"sales":{"202602":2671}},{"id":"MA010120220806195424","name":"변호사이영규법률사무소","industry":"변호사","coordinates":[127.389850587461,36.3532892464577],"sales":{"202602":2294}},{"id":"MA010120220806195579","name":"홍영균세무회계사무소","industry":"세무사","coordinates":[127.387238317578,36.349963394691],"sales":{"202602":860}},{"id":"MA010120220806195628","name":"더코어필라테스","industry":"요가/필라테스 학원","coordinates":[127.387112711256,36.3515949278506],"sales":{"202602":2523}},{"id":"MA010120220806195686","name":"반석부동산프라자공인중개사사무소","industry":"부동산 중개/대리업","coordinates":[127.387238317578,36.349963394691],"sales":{"202602":1743}},{"id":"MA010120220806195788","name":"뉴대전공인중개사사무소","industry":"부동산 중개/대리업","coordinates":[127.388772622554,36.3515895389145],"sales":{"202602":1687}},{"id":"MA010120220806196015","name":"법무사임호수사무소","industry":"법무사","coordinates":[127.387945502669,36.353286434957],"sales":{"202602":1762}},{"id":"MA010120220806196375","name":"목련향기세탁소","industry":"세탁소","coordinates":[127.393070075298,36.3510347753684],"sales":{"202602":160}},{"id":"MA010120220806196565","name":"커피향가득한사진여행","industry":"여행사","coordinates":[127.388772622554,36.3515895389145],"sales":{"202602":2622}},{"id":"MA010120220806196671","name":"컬트갤러리","industry":"시계/귀금속 소매업","coordinates":[127.388145676682,36.3509697665554],"sales":{"202602":2357}},{"id":"MA010120220806197034","name":"법무사전명렬사무소","industry":"법무사","coordinates":[127.388212921464,36.3532945781978],"sales":{"202602":824}},{"id":"MA010120220806197242","name":"법무사정근호사무소","industry":"법무사","coordinates":[127.387251572694,36.3526398403202],"sales":{"202602":887}},{"id":"MA010120220806197578","name":"이창직법률사무소","industry":"변호사","coordinates":[127.389549791698,36.3532902274394],"sales":{"202602":3092}},{"id":"MA010120220806197902","name":"법무사민준호사무소","industry":"법무사","coordinates":[127.388469154948,36.353293745461],"sales":{"202602":904}},{"id":"MA010120220806198148","name":"김종민법률사무소","industry":"변호사","coordinates":[127.389549791698,36.3532902274394],"sales":{"202602":3426}},{"id":"MA010120220806198149","name":"이정희법률사무소","industry":"변호사","coordinates":[127.389549791698,36.3532902274394],"sales":{"202602":2937}},{"id":"MA010120220806198151","name":"김동한법률사무소","industry":"변호사","coordinates":[127.389549791698,36.3532902274394],"sales":{"202602":3282}},{"id":"MA010120220806198157","name":"변호사배형국법률사무소","industry":"변호사","coordinates":[127.388736529006,36.3532928759325],"sales":{"202602":3579}},{"id":"MA010120220806198184","name":"법무사조도용사무소","industry":"법무사","coordinates":[127.387251572694,36.3526398403202],"sales":{"202602":724}},{"id":"MA010120220806198213","name":"변호사문현웅법률사무소","industry":"변호사","coordinates":[127.389549791698,36.3532902274394],"sales":{"202602":3028}},{"id":"MA010120220806198745","name":"석림건축연구소","industry":"건축 설계 및 관련 서비스업","coordinates":[127.387871354845,36.3563056087698],"sales":{"202602":2057}},{"id":"MA010120220806199145","name":"변호사유준도법률사무소","industry":"변호사","coordinates":[127.387945502669,36.353286434957],"sales":{"202602":3415}},{"id":"MA010120220806199223","name":"변호사이인상법률사무소","industry":"변호사","coordinates":[127.389549791698,36.3532902274394],"sales":{"202602":3049}},{"id":"MA010120220806199640","name":"이삭토스트","industry":"토스트/샌드위치/샐러드","coordinates":[127.387265774976,36.3510086683967],"sales":{"202602":994}},{"id":"MA010120220806200260","name":"윤갑중법무사","industry":"법무사","coordinates":[127.388772622554,36.3515895389145],"sales":{"202602":1175}},{"id":"MA010120220806201595","name":"민음법률사무소","industry":"변호사","coordinates":[127.389549791698,36.3532902274394],"sales":{"202602":3208}},{"id":"MA010120220806201706","name":"송재호법률，특허사무소","industry":"변호사","coordinates":[127.388772622554,36.3515895389145],"sales":{"202602":3124}},{"id":"MA010120220806201796","name":"법률사무소정원","industry":"변호사","coordinates":[127.387251572694,36.3526398403202],"sales":{"202602":2505}},{"id":"MA010120220806201862","name":"김남혁법률사무소","industry":"법무사","coordinates":[127.387087811359,36.3533162516917],"sales":{"202602":961}},{"id":"MA010120220806201905","name":"정진법률사무소","industry":"변호사","coordinates":[127.388469154948,36.353293745461],"sales":{"202602":2316}},{"id":"MA010120220806202288","name":"크린토피아대전","industry":"세탁소","coordinates":[127.387871354845,36.3563056087698],"sales":{"202602":193}},{"id":"MA010120220806202362","name":"법무사안종섭사무소","industry":"법무사","coordinates":[127.388469154948,36.353293745461],"sales":{"202602":642}},{"id":"MA010120220806202429","name":"폴라인에스테틱","industry":"화장품 소매업","coordinates":[127.389837153214,36.3505947787461],"sales":{"202602":1045}},{"id":"MA010120220806202585","name":"살빼고멋내고","industry":"피부 관리실","coordinates":[127.393395799872,36.3559901609077],"sales":{"202602":1591}},{"id":"MA010120220806202820","name":"시선안경원","industry":"안경렌즈 소매업","coordinates":[127.389498630192,36.3519656679426],"sales":{"202602":6288}},{"id":"MA010120220806202986","name":"윤재룡세무회계사무소","industry":"세무사","coordinates":[127.387945502669,36.353286434957],"sales":{"202602":2135}},{"id":"MA010120220806203450","name":"천대웅법률사무소","industry":"변호사","coordinates":[127.387945502669,36.353286434957],"sales":{"202602":1909}},{"id":"MA010120220806203867","name":"우일엔지니어링","industry":"건물 및 토목 엔지니어링 서비스업","coordinates":[127.387871354845,36.3563056087698],"sales":{}},{"id":"MA010120220806204093","name":"동아경매공인중개사사무소","industry":"부동산 중개/대리업","coordinates":[127.387945502669,36.353286434957],"sales":{"202602":1706}},{"id":"MA010120220806204385","name":"변호사송호천법률사무소","industry":"변호사","coordinates":[127.388469154948,36.353293745461],"sales":{"202602":5329}},{"id":"MA010120220806204732","name":"조규돈세무회계사무소","industry":"세무사","coordinates":[127.387238317578,36.349963394691],"sales":{"202602":1152}},{"id":"MA010120220806204742","name":"법률사무소계룡변호사조진규","industry":"변호사","coordinates":[127.389492158419,36.3529029103775],"sales":{"202602":4389}},{"id":"MA010120220806204868","name":"법무사류인형사무소","industry":"법무사","coordinates":[127.38985975093,36.352892699889],"sales":{"202602":478}},{"id":"MA010120220806204883","name":"변호사민홍준법률사무소","industry":"변호사","coordinates":[127.388212921464,36.3532945781978],"sales":{"202602":5524}},{"id":"MA010120220806205485","name":"종합법률로펌보담대표변호사백홍기","industry":"변호사","coordinates":[127.387087811359,36.3533162516917],"sales":{"202602":2253}},{"id":"MA010120220806205721","name":"법무사오세철사무소","industry":"법무사","coordinates":[127.387251572694,36.3526398403202],"sales":{"202602":732}},{"id":"MA010120220806205877","name":"대양공인중개사사무소","industry":"부동산 중개/대리업","coordinates":[127.387251198212,36.3503148111148],"sales":{"202602":668}},{"id":"MA010120220806206109","name":"변호사이예모법률사무소","industry":"변호사","coordinates":[127.388469154948,36.353293745461],"sales":{"202602":4190}},{"id":"MA010120220806207281","name":"서진법률사무소","industry":"변호사","coordinates":[127.387945502669,36.353286434957],"sales":{"202602":2969}},{"id":"MA010120220806207282","name":"변호사한호동법률사무소","industry":"변호사","coordinates":[127.389850587461,36.3532892464577],"sales":{"202602":2289}},{"id":"MA010120220806207505","name":"송찬호법률사무소","industry":"변호사","coordinates":[127.389850587461,36.3532892464577],"sales":{"202602":3418}},{"id":"MA010120220806208018","name":"문동혁세무회계사무소","industry":"세무사","coordinates":[127.387238317578,36.349963394691],"sales":{"202602":1094}},{"id":"MA010120220806208233","name":"둔산돌구이","industry":"돼지고기 구이/찜","coordinates":[127.389498630192,36.3519656679426],"sales":{"202602":3161}},{"id":"MA010120220806208464","name":"변호사손차준법률사무소","industry":"변호사","coordinates":[127.389549791698,36.3532902274394],"sales":{"202602":5347}},{"id":"MA010120220806208506","name":"변호사송은석법률사무소","industry":"변호사","coordinates":[127.387251572694,36.3526398403202],"sales":{"202602":1375}},{"id":"MA010120220806208699","name":"부동산박사마을공인중개사사무소","industry":"부동산 중개/대리업","coordinates":[127.388285893266,36.3522850258291],"sales":{"202602":2708}},{"id":"MA010120220806208844","name":"엘스파","industry":"피부 관리실","coordinates":[127.38740845527,36.3505756420622],"sales":{"202602":1361}},{"id":"MA010120220806209126","name":"옆구리터진김밥","industry":"김밥/만두/분식","coordinates":[127.390993606042,36.3523933493252],"sales":{"202602":1211}},{"id":"MA010120220806209233","name":"법률사무소금강","industry":"변호사","coordinates":[127.389549791698,36.3532902274394],"sales":{"202602":3624}},{"id":"MA010120220806209376","name":"대성주택건설컨설팅","industry":"부동산 중개/대리업","coordinates":[127.389476896417,36.3498389667358],"sales":{"202602":2024}},{"id":"MA010120220806209861","name":"정승열법무사사무소","industry":"법무사","coordinates":[127.388212921464,36.3532945781978],"sales":{"202602":494}},{"id":"MA010120220806209876","name":"법무사박종열사무소","industry":"법무사","coordinates":[127.388469154948,36.353293745461],"sales":{"202602":715}},{"id":"MA010120220806210706","name":"원","industry":"요리 주점","coordinates":[127.38861025319,36.3503013873644],"sales":{"202602":356}},{"id":"MA010120220806211251","name":"뚜레쥬르대전둔산","industry":"빵/도넛","coordinates":[127.389549791698,36.3532902274394],"sales":{"202602":4051}},{"id":"MA010120220806211320","name":"명가전복","industry":"백반/한정식","coordinates":[127.388132924265,36.3528893096298],"sales":{"202602":1210}},{"id":"MA010120220806211345","name":"파트너상사","industry":"문구/회화용품 소매업","coordinates":[127.384633569606,36.3503863476033],"sales":{"202602":10587}},{"id":"MA010120220806211692","name":"변호사권영심법률사무소","industry":"변호사","coordinates":[127.389850587461,36.3532892464577],"sales":{"202602":4965}},{"id":"MA010120220806211750","name":"법무사오응수","industry":"법무사","coordinates":[127.388736529006,36.3532928759325],"sales":{"202602":1226}},{"id":"MA010120220806211964","name":"변호사김진현법률사무소","industry":"변호사","coordinates":[127.387945502669,36.353286434957],"sales":{"202602":2246}},{"id":"MA010120220806212233","name":"SKY25","industry":"슈퍼마켓","coordinates":[127.387251198212,36.3503148111148],"sales":{"202602":39043}},{"id":"MA010120220806212299","name":"재현종합기계","industry":"중고 상품 소매업","coordinates":[127.388145676682,36.3509697665554],"sales":{"202602":432}},{"id":"MA010120220806212832","name":"멘토마인드센터","industry":"유사 의료업","coordinates":[127.387265774976,36.3510086683967],"sales":{"202602":396}},{"id":"MA010120220806213153","name":"올리비아로렌","industry":"여성 의류 소매업","coordinates":[127.387265774976,36.3510086683967],"sales":{"202602":886}},{"id":"MA010120220806213174","name":"마음편한약국","industry":"약국","coordinates":[127.387087811359,36.3533162516917],"sales":{"202602":31268}},{"id":"MA010120220806213206","name":"데미안헤어","industry":"미용실","coordinates":[127.390993606042,36.3523933493252],"sales":{"202602":1682}},{"id":"MA010120220806213323","name":"요가V&A","industry":"요가/필라테스 학원","coordinates":[127.387238317578,36.349963394691],"sales":{"202602":334}},{"id":"MA010120220806214449","name":"영어숲윤선생둔산동부학원","industry":"입시·교과학원","coordinates":[127.389845373078,36.3500089883912],"sales":{"202602":2622}},{"id":"MA010120220806214627","name":"김밥천국","industry":"김밥/만두/분식","coordinates":[127.389490497442,36.3525694812931],"sales":{"202602":1569}},{"id":"MA010120220806214989","name":"장모님숯불막창","industry":"곱창 전골/구이","coordinates":[127.389498630192,36.3519656679426],"sales":{"202602":1050}},{"id":"MA010120220806215026","name":"스마일약국","industry":"약국","coordinates":[127.389518718534,36.349289113792],"sales":{"202602":12368}},{"id":"MA010120220806215704","name":"법무사이무행사무소","industry":"법무사","coordinates":[127.389015043639,36.3532919695375],"sales":{"202602":325}},{"id":"MA010120220806215843","name":"공부습관트레이닝주인공반석센터","industry":"그 외 기타 교육기관","coordinates":[127.388772622554,36.3515895389145],"sales":{"202602":2293}},{"id":"MA010120220806215882","name":"변호사이영선법률사무소","industry":"변호사","coordinates":[127.387087811359,36.3533162516917],"sales":{"202602":2906}},{"id":"MA010120220806216040","name":"죽이야기대전","industry":"백반/한정식","coordinates":[127.387112711256,36.3515949278506],"sales":{"202602":3375}},{"id":"MA010120220806216176","name":"시청역공인중개사사무소","industry":"부동산 중개/대리업","coordinates":[127.387112711256,36.3515949278506],"sales":{"202602":3058}},{"id":"MA010120220806216607","name":"국제특허법률사무소태상","industry":"변리사","coordinates":[127.387272023643,36.352270292524],"sales":{"202602":201}},{"id":"MA010120220806216706","name":"변호사최우미법률사무소","industry":"변호사","coordinates":[127.388736529006,36.3532928759325],"sales":{"202602":5222}},{"id":"MA010120220806216853","name":"해피헬스클럽","industry":"헬스장","coordinates":[127.389518718534,36.349289113792],"sales":{"202602":469}},{"id":"MA010120220806217778","name":"법무사김준식사무소","industry":"법무사","coordinates":[127.387112711256,36.3515949278506],"sales":{"202602":366}},{"id":"MA010120220806218584","name":"법률사무소동감","industry":"변호사","coordinates":[127.388212921464,36.3532945781978],"sales":{"202602":2544}},{"id":"MA010120220806218888","name":"로얄단란주점","industry":"일반 유흥 주점","coordinates":[127.389490999038,36.3504336960797],"sales":{"202602":542}},{"id":"MA010120220806219541","name":"오진희필라테스","industry":"요가/필라테스 학원","coordinates":[127.387238317578,36.349963394691],"sales":{"202602":874}},{"id":"MA010120220806219588","name":"법무사권혁동사무소","industry":"법무사","coordinates":[127.388212921464,36.3532945781978],"sales":{"202602":408}},{"id":"MA010120220806220135","name":"법무사박중권사무소","industry":"법무사","coordinates":[127.388653438271,36.3522658074684],"sales":{"202602":586}},{"id":"MA010120220806220206","name":"가르텐비어","industry":"생맥주 전문","coordinates":[127.388976555834,36.3522737678382],"sales":{"202602":651}},{"id":"MA010120220806220505","name":"법무사남창희사무소","industry":"법무사","coordinates":[127.388736529006,36.3532928759325],"sales":{"202602":1436}},{"id":"MA010120220806220506","name":"유럽안경","industry":"안경렌즈 소매업","coordinates":[127.387112711256,36.3515949278506],"sales":{"202602":505}},{"id":"MA010120220806220605","name":"센스왁싱","industry":"피부 관리실","coordinates":[127.388772622554,36.3515895389145],"sales":{"202602":715}},{"id":"MA010120220806221164","name":"박가을헤어살롱대전","industry":"미용실","coordinates":[127.387424373023,36.3515398473189],"sales":{"202602":1448}},{"id":"MA010120220806221447","name":"법무사남궁길사무소","industry":"법무사","coordinates":[127.387421984427,36.3533061569523],"sales":{"202602":534}},{"id":"MA010120220806221895","name":"크로바떡집","industry":"떡/한과","coordinates":[127.390993606042,36.3523933493252],"sales":{"202602":273}},{"id":"MA010120220806222125","name":"강남의원","industry":"성형외과 의원","coordinates":[127.387265774976,36.3510086683967],"sales":{"202602":15884}},{"id":"MA010120220806222336","name":"미애로여성의원","industry":"산부인과 의원","coordinates":[127.387424373023,36.3515398473189],"sales":{"202602":7206}},{"id":"MA010120220806222386","name":"미라클의원","industry":"기타 의원","coordinates":[127.388145676682,36.3509697665554],"sales":{"202602":15353}},{"id":"MA010120220806222387","name":"리즈미의원","industry":"기타 의원","coordinates":[127.38985975093,36.352892699889],"sales":{"202602":13845}},{"id":"MA010120220806222553","name":"연세남인환피부과의원","industry":"피부/비뇨기과 의원","coordinates":[127.3870902396,36.3493060168059],"sales":{"202602":10741}},{"id":"MA010120220806223139","name":"버거킹대전","industry":"버거","coordinates":[127.389878029595,36.3498556821445],"sales":{"202602":1487}},{"id":"MA010120220806223427","name":"홍쌤토익스터디","industry":"카페","coordinates":[127.388145676682,36.3509697665554],"sales":{"202602":664}},{"id":"MA010120220806224778","name":"김선호법률사무소","industry":"변호사","coordinates":[127.389015043639,36.3532919695375],"sales":{"202602":3151}},{"id":"MA010120220806224974","name":"변호사김광철법률사무소","industry":"변호사","coordinates":[127.387087811359,36.3533162516917],"sales":{"202602":1506}},{"id":"MA010120220806225056","name":"더크로바공인중개사사무소","industry":"부동산 중개/대리업","coordinates":[127.390993606042,36.3523933493252],"sales":{"202602":1433}},{"id":"MA010120220806225069","name":"변호사배재수법률사무소","industry":"변호사","coordinates":[127.387421984427,36.3533061569523],"sales":{"202602":3160}},{"id":"MA010120220806225237","name":"둔산동커피집","industry":"카페","coordinates":[127.387238317578,36.349963394691],"sales":{"202602":989}},{"id":"MA010120220806225452","name":"필약국","industry":"약국","coordinates":[127.387413344809,36.3493139814811],"sales":{"202602":4931}},{"id":"MA010120220806225601","name":"디자인에이트","industry":"광고 대행업","coordinates":[127.388772622554,36.3515895389145],"sales":{"202602":4140}},{"id":"MA010120220806225933","name":"현대옥둔산","industry":"국/탕/찌개류","coordinates":[127.388132924265,36.3528893096298],"sales":{"202602":1658}},{"id":"MA010120220806226223","name":"본도시락","industry":"백반/한정식","coordinates":[127.389000316238,36.3525710780374],"sales":{"202602":2775}},{"id":"MA010120220806226568","name":"최네집둔산","industry":"백반/한정식","coordinates":[127.387905329906,36.351925792046],"sales":{"202602":2464}},{"id":"MA010120220806226754","name":"이차돌","industry":"소고기 구이/찜","coordinates":[127.387251572694,36.3526398403202],"sales":{"202602":2810}},{"id":"MA010120220806226786","name":"법무사이준섭","industry":"법무사","coordinates":[127.388772622554,36.3515895389145],"sales":{"202602":635}},{"id":"MA010120220806226885","name":"김주성법률사무소","industry":"변호사","coordinates":[127.389850587461,36.3532892464577],"sales":{"202602":3117}},{"id":"MA010120220806226932","name":"법무사서호택사무소","industry":"법무사","coordinates":[127.388772622554,36.3515895389145],"sales":{"202602":864}},{"id":"MA010120220806227866","name":"윤실장메이크업","industry":"피부 관리실","coordinates":[127.387112711256,36.3515949278506],"sales":{"202602":388}},{"id":"MA010120220806228105","name":"새마을꽃대패1970","industry":"돼지고기 구이/찜","coordinates":[127.389024053087,36.3506244638286],"sales":{"202602":2964}},{"id":"MA010120220806228706","name":"법무사이동섭사무소","industry":"법무사","coordinates":[127.388656529099,36.3528876077313],"sales":{"202602":769}},{"id":"MA010120220806228839","name":"월드번역","industry":"번역/통역 서비스업","coordinates":[127.388469154948,36.353293745461],"sales":{"202602":1914}},{"id":"MA010120220806229590","name":"변호사이민형법률사무소","industry":"변호사","coordinates":[127.387087811359,36.3533162516917],"sales":{"202602":1059}},{"id":"MA010120220806229643","name":"둔산114공인중개사사무소","industry":"부동산 중개/대리업","coordinates":[127.388772622554,36.3515895389145],"sales":{"202602":1549}},{"id":"MA010120220806229995","name":"조앤컴퍼니법률특허사무소","industry":"변리사","coordinates":[127.387871354845,36.3563056087698],"sales":{"202602":152}},{"id":"MA010120220806230300","name":"렛츠필라테스","industry":"요가/필라테스 학원","coordinates":[127.388772622554,36.3515895389145],"sales":{"202602":467}},{"id":"MA010120220806230644","name":"보다안경원","industry":"안경렌즈 소매업","coordinates":[127.387265774976,36.3510086683967],"sales":{"202602":2944}},{"id":"MA010120220806230807","name":"디자인오케이","industry":"광고물 설계/제작업","coordinates":[127.387871354845,36.3563056087698],"sales":{"202602":947}},{"id":"MA010120220806231564","name":"건강플러스약국","industry":"약국","coordinates":[127.387871354845,36.3563056087698],"sales":{"202602":5511}},{"id":"MA010120220806231608","name":"신사공인중개사사무소","industry":"부동산 중개/대리업","coordinates":[127.388285893266,36.3522850258291],"sales":{"202602":3110}},{"id":"MA010120220806232008","name":"송용운세무회계사무소","industry":"세무사","coordinates":[127.387871354845,36.3563056087698],"sales":{"202602":600}},{"id":"MA010120220806232070","name":"스캔앤바디","industry":"피부 관리실","coordinates":[127.388772622554,36.3515895389145],"sales":{"202602":426}},{"id":"MA010120220806232087","name":"법무사박윤선사무소","industry":"법무사","coordinates":[127.389850587461,36.3532892464577],"sales":{"202602":904}},{"id":"MA010120220806232255","name":"퀸당구클럽","industry":"당구장","coordinates":[127.38903476897,36.3527782359739],"sales":{"202602":235}},{"id":"MA010120220806232320","name":"손애리심리연구소","industry":"유사 의료업","coordinates":[127.388772622554,36.3515895389145],"sales":{"202602":692}},{"id":"MA010120220806232521","name":"오션투어","industry":"여행사","coordinates":[127.389850587461,36.3532892464577],"sales":{"202602":933}},{"id":"MA010120220806232522","name":"법무사신상훈사무소","industry":"법무사","coordinates":[127.388772622554,36.3515895389145],"sales":{"202602":575}},{"id":"MA010120220806232696","name":"마실","industry":"백반/한정식","coordinates":[127.387087811359,36.3533162516917],"sales":{"202602":1318}},{"id":"MA010120220806233485","name":"선진혜법률사무소","industry":"변호사","coordinates":[127.387945502669,36.353286434957],"sales":{"202602":2415}},{"id":"MA010120220806233682","name":"착한참치","industry":"일식 회/초밥","coordinates":[127.3870902396,36.3493060168059],"sales":{"202602":2620}},{"id":"MA010120220806233716","name":"법률사무소희승","industry":"변호사","coordinates":[127.388736529006,36.3532928759325],"sales":{"202602":5117}},{"id":"MA010120220806233805","name":"법률사무소정인","industry":"변호사","coordinates":[127.387945502669,36.353286434957],"sales":{"202602":4725}},{"id":"MA010120220806233851","name":"구이구이쪽갈비","industry":"돼지고기 구이/찜","coordinates":[127.387251572694,36.3526398403202],"sales":{"202602":4596}},{"id":"MA010120220806233865","name":"법률사무소봄","industry":"변호사","coordinates":[127.387087811359,36.3533162516917],"sales":{"202602":1358}},{"id":"MA010120220806234013","name":"라임피부관리실","industry":"피부 관리실","coordinates":[127.393070075298,36.3510347753684],"sales":{"202602":430}},{"id":"MA010120220806234029","name":"쿠담","industry":"요리 주점","coordinates":[127.389000316238,36.3525710780374],"sales":{"202602":964}},{"id":"MA010120220806234091","name":"깐부치킨대전","industry":"치킨","coordinates":[127.387251572694,36.3526398403202],"sales":{"202602":1392}},{"id":"MA010120220806234225","name":"법무사김성환사무소","industry":"법무사","coordinates":[127.387251572694,36.3526398403202],"sales":{"202602":440}},{"id":"MA010120220806234335","name":"김용환세무사무소","industry":"세무사","coordinates":[127.387421984427,36.3533061569523],"sales":{"202602":1530}},{"id":"MA010120220806234356","name":"CU","industry":"편의점","coordinates":[127.387973960867,36.3522860390204],"sales":{"202602":1274}},{"id":"MA010120220806234788","name":"둔산예스피부비뇨기과","industry":"피부/비뇨기과 의원","coordinates":[127.389850180445,36.3509732295791],"sales":{"202602":22443}},{"id":"MA010120220806234851","name":"법무사김중제사무소","industry":"법무사","coordinates":[127.387087811359,36.3533162516917],"sales":{"202602":539}},{"id":"MA010120220806234899","name":"폴라인피부과의원","industry":"피부/비뇨기과 의원","coordinates":[127.389837153214,36.3505947787461],"sales":{"202602":11319}},{"id":"MA010120220806234970","name":"플레인의원","industry":"피부/비뇨기과 의원","coordinates":[127.388981285435,36.3509850729033],"sales":{"202602":6109}},{"id":"MA010120220806235022","name":"빨봉분식","industry":"김밥/만두/분식","coordinates":[127.389019413828,36.3519311820358],"sales":{"202602":2192}},{"id":"MA010120220806235094","name":"안광호치과의원","industry":"치과의원","coordinates":[127.389518718534,36.349289113792],"sales":{"202602":14119}},{"id":"MA010120220806235329","name":"하츠코이","industry":"일식 회/초밥","coordinates":[127.387952894325,36.3502854998335],"sales":{"202602":2302}},{"id":"MA010120220806235405","name":"변호사최호숙법률사무소","industry":"변호사","coordinates":[127.389850587461,36.3532892464577],"sales":{"202602":4672}},{"id":"MA010120220806235565","name":"대전국선전담변호사","industry":"변호사","coordinates":[127.388469154948,36.353293745461],"sales":{"202602":2989}},{"id":"MA010120220806235791","name":"이용화플란트치과","industry":"치과의원","coordinates":[127.387892276266,36.3492944043224],"sales":{"202602":4226}},{"id":"MA010120220806235795","name":"둔산세이정치과의원","industry":"치과의원","coordinates":[127.388145676682,36.3509697665554],"sales":{"202602":6122}},{"id":"MA010120220806236392","name":"에이원법률사무소","industry":"변호사","coordinates":[127.388212921464,36.3532945781978],"sales":{"202602":1684}},{"id":"MA010120220806236758","name":"고봉민김밥인","industry":"김밥/만두/분식","coordinates":[127.388772622554,36.3515895389145],"sales":{"202602":2819}},{"id":"MA010120220806236806","name":"어식백세","industry":"백반/한정식","coordinates":[127.387426650254,36.3519994389467],"sales":{"202602":3192}},{"id":"MA010120220806236854","name":"덴터스","industry":"의료기기 소매업","coordinates":[127.388772622554,36.3515895389145],"sales":{"202602":3614}},{"id":"MA010120220806236996","name":"작업반장","industry":"요리 주점","coordinates":[127.387251198212,36.3503148111148],"sales":{"202602":298}},{"id":"MA010120220806237099","name":"피엔씨국제특허법률사무소","industry":"변리사","coordinates":[127.387871354845,36.3563056087698],"sales":{"202602":84}},{"id":"MA010120220806237123","name":"생어거스틴","industry":"기타 동남아식 전문","coordinates":[127.388065816491,36.3505915325733],"sales":{"202602":1979}},{"id":"MA010120220806237125","name":"대선칼국수","industry":"국수/칼국수","coordinates":[127.388263297395,36.3499780922726],"sales":{"202602":476}},{"id":"MA010120220806237164","name":"베스티","industry":"네일숍","coordinates":[127.387112711256,36.3515949278506],"sales":{"202602":248}},{"id":"MA010120220806237322","name":"엘에이농장","industry":"백반/한정식","coordinates":[127.389031316448,36.3520843429412],"sales":{"202602":6893}},{"id":"MA010120220806237782","name":"한뫼엔지니어링","industry":"건축 설계 및 관련 서비스업","coordinates":[127.387251198212,36.3503148111148],"sales":{"202602":2047}},{"id":"MA010120220806237794","name":"법률사무소가연","industry":"변호사","coordinates":[127.388212921464,36.3532945781978],"sales":{"202602":3550}},{"id":"MA010120220806238159","name":"카페나루","industry":"카페","coordinates":[127.387871354845,36.3563056087698],"sales":{"202602":1971}},{"id":"MA010120220806238183","name":"바르다김선생","industry":"김밥/만두/분식","coordinates":[127.387265774976,36.3510086683967],"sales":{"202602":5766}},{"id":"MA010120220806238191","name":"법률사무소우담","industry":"변호사","coordinates":[127.389850587461,36.3532892464577],"sales":{"202602":1773}},{"id":"MA010120220806238404","name":"벨라떼아뜨로","industry":"카페","coordinates":[127.389491305481,36.3527316900392],"sales":{"202602":759}},{"id":"MA010120220806238475","name":"법률사무소봄","industry":"변호사","coordinates":[127.387087811359,36.3533162516917],"sales":{"202602":2826}},{"id":"MA010120220806238508","name":"약수컨설팅&임대","industry":"백반/한정식","coordinates":[127.388145676682,36.3509697665554],"sales":{"202602":1749}},{"id":"MA010120220806238752","name":"이병덕법무사무소","industry":"법무사","coordinates":[127.389850587461,36.3532892464577],"sales":{"202602":490}},{"id":"MA010120220806238889","name":"변호사박현순법률사무소","industry":"변호사","coordinates":[127.389549791698,36.3532902274394],"sales":{"202602":3791}},{"id":"MA010120220806245087","name":"동서항공여행사주","industry":"여행사","coordinates":[127.388772622554,36.3515895389145],"sales":{"202602":3451}},{"id":"MA010120220806245268","name":"한밭법무법인","industry":"변호사","coordinates":[127.389850587461,36.3532892464577],"sales":{"202602":3979}},{"id":"MA010120220806246465","name":"호야산업개발주","industry":"부동산 중개/대리업","coordinates":[127.388736529006,36.3532928759325],"sales":{"202602":1180}},{"id":"MA010120220806247502","name":"주)대전현대드림투어주","industry":"여행사","coordinates":[127.387251198212,36.3503148111148],"sales":{"202602":1442}},{"id":"MA010120220806247785","name":"로얄아카데미","industry":"서점","coordinates":[127.387973960867,36.3522860390204],"sales":{"202602":84807}},{"id":"MA010120220806247974","name":"에이스트래블주","industry":"여행사","coordinates":[127.387251572694,36.3526398403202],"sales":{"202602":2815}},{"id":"MA010120220806248839","name":"유일부동산중개","industry":"부동산 중개/대리업","coordinates":[127.389850587461,36.3532892464577],"sales":{"202602":4498}},{"id":"MA010120220806248920","name":"건축사사무소메카건축","industry":"건축 설계 및 관련 서비스업","coordinates":[127.387238317578,36.349963394691],"sales":{"202602":4377}},{"id":"MA010120220806249175","name":"양영교육주","industry":"입시·교과학원","coordinates":[127.388981285435,36.3509850729033],"sales":{"202602":3513}},{"id":"MA010120220806249179","name":"법무법인새날로","industry":"변호사","coordinates":[127.387945502669,36.353286434957],"sales":{"202602":4237}},{"id":"MA010120220806249421","name":"고성이씨계종공파종중회관","industry":"사업시설 유지·관리 서비스업","coordinates":[127.389867835905,36.3522798749659],"sales":{"202602":883}},{"id":"MA010120220806249542","name":"대전언론문화연구원","industry":"그 외 기타 교육기관","coordinates":[127.388772622554,36.3515895389145],"sales":{"202602":1280}},{"id":"MA010120220806249918","name":"행복한동행","industry":"기타 교육지원 서비스업","coordinates":[127.387238317578,36.349963394691],"sales":{"202602":2491}},{"id":"MA010120220806249971","name":"대전장애인단체총연합회건강까페사","industry":"카페","coordinates":[127.384633569606,36.3503863476033],"sales":{"202602":583}},{"id":"MA010120220806250329","name":"대전지방경찰청복지회","industry":"슈퍼마켓","coordinates":[127.38608113748,36.3547613872695],"sales":{"202602":14734}},{"id":"MA010120220806250336","name":"창의인성협회","industry":"직원 훈련기관","coordinates":[127.387871354845,36.3563056087698],"sales":{}},{"id":"MA010120220806251076","name":"유한책임회사하이모","industry":"그 외 기타 상품 전문 소매업","coordinates":[127.387265774976,36.3510086683967],"sales":{"202602":8512}},{"id":"MA010120220806251128","name":"법무법인열린법률분사무소","industry":"변호사","coordinates":[127.389850587461,36.3532892464577],"sales":{"202602":1513}},{"id":"MA010120220806251195","name":"롯데관광대전지사","industry":"여행사","coordinates":[127.387112711256,36.3515949278506],"sales":{"202602":3120}},{"id":"MA010120220806251210","name":"대교솔루니대전주","industry":"입시·교과학원","coordinates":[127.388145676682,36.3509697665554],"sales":{"202602":4984}},{"id":"MA010120220806251238","name":"에이지스비즈니스서포트","industry":"사업시설 유지·관리 서비스업","coordinates":[127.387238317578,36.349963394691],"sales":{"202602":691}},{"id":"MA010120220806251331","name":"법무법인나은대전분사무소","industry":"변호사","coordinates":[127.387251572694,36.3526398403202],"sales":{"202602":4095}},{"id":"MA010120220806251447","name":"법무법인송현대전분사무소","industry":"변호사","coordinates":[127.387421984427,36.3533061569523],"sales":{"202602":1700}},{"id":"MA010120220806251454","name":"세무법인이우","industry":"세무사","coordinates":[127.387251572694,36.3526398403202],"sales":{"202602":1118}},{"id":"MA010120220806251466","name":"신명","industry":"공인노무사","coordinates":[127.387251572694,36.3526398403202],"sales":{}},{"id":"MA010120220806251549","name":"청윤세무법인","industry":"세무사","coordinates":[127.387251572694,36.3526398403202],"sales":{"202602":396}},{"id":"MA010120220806251570","name":"세무법인한밭","industry":"세무사","coordinates":[127.387945502669,36.353286434957],"sales":{"202602":536}},{"id":"MA010120220806251572","name":"세무법인한밭","industry":"세무사","coordinates":[127.389549791698,36.3532902274394],"sales":{"202602":1273}},{"id":"MA010120220806251598","name":"세무법인이정","industry":"세무사","coordinates":[127.387238317578,36.349963394691],"sales":{"202602":826}},{"id":"MA010120220806251654","name":"수학의맥학원","industry":"입시·교과학원","coordinates":[127.389835490906,36.3502613495464],"sales":{"202602":3788}},{"id":"MA010120220806251746","name":"세무법인세누리","industry":"세무사","coordinates":[127.389024390697,36.3529314693959],"sales":{"202602":496}},{"id":"MA010120220806251764","name":"유니에스대전지사주","industry":"임시/일용 인력 공급업","coordinates":[127.387871354845,36.3563056087698],"sales":{"202602":50722}},{"id":"MA010120220806251779","name":"폴리이에스씨대전엠폴리주","industry":"외국어학원","coordinates":[127.389843665844,36.3496665475579],"sales":{"202602":1771}},{"id":"MA010120220806251839","name":"대한보청기판매대전지사주","industry":"의료기기 소매업","coordinates":[127.387112711256,36.3515949278506],"sales":{"202602":965}},{"id":"MA010120220806251911","name":"광교세무법인","industry":"세무사","coordinates":[127.388212921464,36.3532945781978],"sales":{"202602":275}},{"id":"MA010120220806251978","name":"세븐대전둔산사랑점","industry":"편의점","coordinates":[127.388611686344,36.3505897586053],"sales":{"202602":3047}},{"id":"MA010120220806251983","name":"세븐대전둔산남로점주","industry":"편의점","coordinates":[127.389479006027,36.3502625119804],"sales":{"202602":15475}},{"id":"MA010120220806251995","name":"세무법인큐택스둔산","industry":"세무사","coordinates":[127.387238317578,36.349963394691],"sales":{"202602":2503}},{"id":"MA010120220806251996","name":"세무법인큐택스둔산","industry":"세무사","coordinates":[127.387421984427,36.3533061569523],"sales":{"202602":882}},{"id":"MA010120220806251997","name":"세무법인큐택스둔산현대점","industry":"세무사","coordinates":[127.388772622554,36.3515895389145],"sales":{"202602":672}},{"id":"MA010120220806252016","name":"호서세무법인","industry":"세무사","coordinates":[127.387238317578,36.349963394691],"sales":{"202602":329}},{"id":"MA010120220806252018","name":"회계법인예원","industry":"공인회계사","coordinates":[127.388212921464,36.3532945781978],"sales":{"202602":396}},{"id":"MA010120220806252029","name":"법무법인재유대전분사무소","industry":"변호사","coordinates":[127.389015043639,36.3532919695375],"sales":{"202602":5773}},{"id":"MA010120220806252478","name":"피엔케이산업주","industry":"주유소","coordinates":[127.387119046822,36.3528745750752],"sales":{"202602":48848}},{"id":"MA010120220806252962","name":"중부","industry":"자동차 대여업","coordinates":[127.387871354845,36.3563056087698],"sales":{"202602":1670}},{"id":"MA010120220806253143","name":"참교육","industry":"입시·교과학원","coordinates":[127.388955508474,36.3502822405798],"sales":{"202602":1199}},{"id":"MA010120220806253215","name":"으뜸교육","industry":"입시·교과학원","coordinates":[127.388981285435,36.3509850729033],"sales":{"202602":2120}},{"id":"MA010120220806253232","name":"엄지교육주","industry":"입시·교과학원","coordinates":[127.388981285435,36.3509850729033],"sales":{"202602":8089}},{"id":"MA010120220806253387","name":"로얄로드주","industry":"입시·교과학원","coordinates":[127.389835490906,36.3502613495464],"sales":{"202602":2902}},{"id":"MA010120220806253427","name":"한국건물관리산업주","industry":"사업시설 유지·관리 서비스업","coordinates":[127.388092796568,36.3492937532616],"sales":{"202602":548}},{"id":"MA010120220806253497","name":"지에스앤케이주","industry":"부동산 중개/대리업","coordinates":[127.387892276266,36.3492944043224],"sales":{"202602":2148}},{"id":"MA010120220806253634","name":"다원엠앤이","industry":"상용 인력 공급 및 인사관리 서비스업","coordinates":[127.387265774976,36.3510086683967],"sales":{"202602":467}},{"id":"MA010120220806253673","name":"한미교육","industry":"입시·교과학원","coordinates":[127.388981285435,36.3509850729033],"sales":{"202602":9354}},{"id":"MA010120220806253850","name":"세무법인세교","industry":"세무사","coordinates":[127.388469154948,36.353293745461],"sales":{"202602":272}},{"id":"MA010120220806254285","name":"피엔케이산업개발","industry":"호텔/리조트","coordinates":[127.387119046822,36.3528745750752],"sales":{"202602":7555}},{"id":"MA010120220806254407","name":"법무법인씨앤아이","industry":"변호사","coordinates":[127.387421984427,36.3533061569523],"sales":{"202602":3797}},{"id":"MA010120220806254531","name":"대전둔산정상어학원주","industry":"외국어학원","coordinates":[127.389836299593,36.3504235583486],"sales":{"202602":4268}},{"id":"MA010120220806254607","name":"에이스커뮤니케이션주","industry":"전시/컨벤션/행사 대행 서비스업","coordinates":[127.387251572694,36.3526398403202],"sales":{"202602":936}},{"id":"MA010120220806254638","name":"법무법인저스티스","industry":"변호사","coordinates":[127.388212921464,36.3532945781978],"sales":{"202602":5876}},{"id":"MA010120220806254856","name":"엘삼마","industry":"소독, 구충 및 방제 서비스업","coordinates":[127.38985975093,36.352892699889],"sales":{"202602":1528}},{"id":"MA010120220806254868","name":"법무법인명경","industry":"변호사","coordinates":[127.388212921464,36.3532945781978],"sales":{"202602":2493}},{"id":"MA010120220806255223","name":"법무법인대전합동","industry":"변호사","coordinates":[127.389549791698,36.3532902274394],"sales":{"202602":3772}},{"id":"MA010120220806255286","name":"홍쌤어학원홍쌤주","industry":"외국어학원","coordinates":[127.388145676682,36.3509697665554],"sales":{"202602":3057}},{"id":"MA010120220806255662","name":"법무법인세계로","industry":"변호사","coordinates":[127.387945502669,36.353286434957],"sales":{"202602":1744}},{"id":"MA010120220806255726","name":"법무법인유앤아이","industry":"변호사","coordinates":[127.387087811359,36.3533162516917],"sales":{"202602":5572}},{"id":"MA010120220806255809","name":"성윤부동산중개주","industry":"부동산 중개/대리업","coordinates":[127.38830450163,36.349302077269],"sales":{"202602":1289}},{"id":"MA010120220806255870","name":"수자타","industry":"입시·교과학원","coordinates":[127.387905329906,36.351925792046],"sales":{"202602":3665}},{"id":"MA010120220806255872","name":"다빈치","industry":"입시·교과학원","coordinates":[127.388228714473,36.3519878240444],"sales":{"202602":5308}},{"id":"MA010120220806255950","name":"스마트여행사","industry":"여행사","coordinates":[127.387112711256,36.3515949278506],"sales":{"202602":1108}},{"id":"MA010120220806256030","name":"브래드어학원","industry":"외국어학원","coordinates":[127.388304728139,36.3515910602771],"sales":{"202602":2560}},{"id":"MA010120220806256088","name":"해냄법률경매","industry":"부동산 중개/대리업","coordinates":[127.388656529099,36.3528876077313],"sales":{"202602":918}},{"id":"MA010120220806256102","name":"대전법무사법인","industry":"법무사","coordinates":[127.388469154948,36.353293745461],"sales":{"202602":1009}},{"id":"MA010120220806256589","name":"동아법률경매","industry":"부동산 중개/대리업","coordinates":[127.387945502669,36.353286434957],"sales":{"202602":3136}},{"id":"MA010120220806256641","name":"태경엠피주","industry":"상용 인력 공급 및 인사관리 서비스업","coordinates":[127.388772622554,36.3515895389145],"sales":{"202602":761}},{"id":"MA010120220806256656","name":"리치베인디씨","industry":"부동산 중개/대리업","coordinates":[127.387251572694,36.3526398403202],"sales":{"202602":1061}},{"id":"MA010120220806256851","name":"대영오피스시스템","industry":"컴퓨터/사무기기 대여업","coordinates":[127.389549791698,36.3532902274394],"sales":{"202602":753}},{"id":"MA010120220806256890","name":"선한부자","industry":"그 외 기타 교육기관","coordinates":[127.387112711256,36.3515949278506],"sales":{"202602":1960}},{"id":"MA010120220806256918","name":"법무사법인상록","industry":"변호사","coordinates":[127.388656529099,36.3528876077313],"sales":{"202602":2098}},{"id":"MA010120220806256934","name":"늦바위주","industry":"부동산 중개/대리업","coordinates":[127.389518718534,36.349289113792],"sales":{"202602":1775}},{"id":"MA010120220806256966","name":"법무법인민율","industry":"변호사","coordinates":[127.387945502669,36.353286434957],"sales":{"202602":1810}},{"id":"MA010120220806267604","name":"법무사함영수사무소","industry":"법무사","coordinates":[127.387945502669,36.353286434957],"sales":{"202602":583}},{"id":"MA010120220806303931","name":"김종현법무사사무소","industry":"법무사","coordinates":[127.387251572694,36.3526398403202],"sales":{"202602":946}},{"id":"MA010120220806304887","name":"케이와이씨특허법률사무소","industry":"변리사","coordinates":[127.387945502669,36.353286434957],"sales":{"202602":298}},{"id":"MA010120220806306201","name":"맘스터치","industry":"버거","coordinates":[127.389845373078,36.3500089883912],"sales":{"202602":2517}},{"id":"MA010120220806352059","name":"한마루공인중개사사무소","industry":"부동산 중개/대리업","coordinates":[127.393395799872,36.3559901609077],"sales":{"202602":2183}},{"id":"MA010120220806352738","name":"이재공인중개사사무소","industry":"부동산 중개/대리업","coordinates":[127.393395799872,36.3559901609077],"sales":{"202602":1641}},{"id":"MA010120220806352933","name":"이혜선심리상담연구소","industry":"유사 의료업","coordinates":[127.388772622554,36.3515895389145],"sales":{"202602":611}},{"id":"MA010120220806364041","name":"더오름수학2관학원","industry":"입시·교과학원","coordinates":[127.389845373078,36.3500089883912],"sales":{"202602":5181}},{"id":"MA010120220806371959","name":"버거방위본부","industry":"버거","coordinates":[127.389850587461,36.3532892464577],"sales":{"202602":2519}},{"id":"MA010120220806372857","name":"코지마안마의자","industry":"가전제품 소매업","coordinates":[127.387413344809,36.3493139814811],"sales":{"202602":1504}},{"id":"MA010120220806406741","name":"애플청과","industry":"채소/과일 소매업","coordinates":[127.390831440503,36.3556110713223],"sales":{"202602":4294}},{"id":"MA010120220806413644","name":"법무법인지원피앤피","industry":"변호사","coordinates":[127.387945502669,36.353286434957],"sales":{"202602":1817}},{"id":"MA010120220806414139","name":"아틀리에초이","industry":"꽃집","coordinates":[127.386211010855,36.3517330217624],"sales":{"202602":369}},{"id":"MA010120220806416172","name":"에이치-스튜디오","industry":"사진촬영업","coordinates":[127.387251572694,36.3526398403202],"sales":{"202602":1527}},{"id":"MA010120220806421162","name":"시크릿","industry":"일반 유흥 주점","coordinates":[127.38861025319,36.3503013873644],"sales":{"202602":546}},{"id":"MA010120220806463601","name":"이룸올","industry":"요리 주점","coordinates":[127.389867835905,36.3522798749659],"sales":{"202602":979}},{"id":"MA010120220806466190","name":"변호사윤현진법률사무소","industry":"변호사","coordinates":[127.387251572694,36.3526398403202],"sales":{"202602":2266}},{"id":"MA010120220806468728","name":"법원경매부동산중개","industry":"부동산 중개/대리업","coordinates":[127.389850587461,36.3532892464577],"sales":{"202602":665}},{"id":"MA010120220806479308","name":"해윰통신","industry":"핸드폰 소매업","coordinates":[127.387251572694,36.3526398403202],"sales":{"202602":228}},{"id":"MA010120220806482267","name":"GS25둔산","industry":"편의점","coordinates":[127.389000316238,36.3525710780374],"sales":{"202602":1248}},{"id":"MA010120220806520916","name":"에이알필라테스","industry":"요가/필라테스 학원","coordinates":[127.387871354845,36.3563056087698],"sales":{"202602":448}},{"id":"MA010120220806522753","name":"골드핑거","industry":"네일숍","coordinates":[127.387251198212,36.3503148111148],"sales":{"202602":364}},{"id":"MA010120220806533522","name":"법무법인바를정","industry":"변호사","coordinates":[127.388736529006,36.3532928759325],"sales":{"202602":4366}},{"id":"MA010120220806540925","name":"둔산타이거스크린골프존","industry":"골프 연습장","coordinates":[127.387087811359,36.3533162516917],"sales":{"202602":765}},{"id":"MA010120220806542191","name":"에이미플러스","industry":"기타 의류 소매업","coordinates":[127.387238317578,36.349963394691],"sales":{"202602":823}},{"id":"MA010120220806575747","name":"더돈하우스","industry":"돼지고기 구이/찜","coordinates":[127.389477794118,36.3500191987585],"sales":{"202602":2359}},{"id":"MA010120220806578945","name":"법무사이승태사무소","industry":"법무사","coordinates":[127.387421984427,36.3533061569523],"sales":{"202602":809}},{"id":"MA010120220806588134","name":"마포서서갈비","industry":"돼지고기 구이/찜","coordinates":[127.38861025319,36.3503013873644],"sales":{"202602":2940}},{"id":"MA010120220806620754","name":"비엠법률사무소","industry":"변호사","coordinates":[127.387087811359,36.3533162516917],"sales":{"202602":11356}},{"id":"MA010120220806623738","name":"HM벤처스컨설팅","industry":"경영 컨설팅업","coordinates":[127.388287459583,36.3526004317804],"sales":{"202602":1441}},{"id":"MA010120220806634343","name":"테이크어반","industry":"컴퓨터/소프트웨어 소매업","coordinates":[127.388772622554,36.3515895389145],"sales":{"202602":1711}},{"id":"MA010120220806634805","name":"한투에셋","industry":"부동산 중개/대리업","coordinates":[127.387906134638,36.3520880008401],"sales":{"202602":1866}},{"id":"MA010120220806663123","name":"차이면","industry":"중국집","coordinates":[127.387871354845,36.3563056087698],"sales":{"202602":1553}},{"id":"MA010120220806675240","name":"에스투어","industry":"여행사","coordinates":[127.388772622554,36.3515895389145],"sales":{"202602":3095}},{"id":"MA010120220806692895","name":"법무사사무소우리","industry":"법무사","coordinates":[127.388772622554,36.3515895389145],"sales":{"202602":777}},{"id":"MA010120220806695108","name":"일취월장학원","industry":"입시·교과학원","coordinates":[127.388145676682,36.3509697665554],"sales":{"202602":11889}},{"id":"MA010120220806725427","name":"건우","industry":"기타 건설/건축자재 소매업","coordinates":[127.387871354845,36.3563056087698],"sales":{"202602":890}},{"id":"MA010120220806727913","name":"리치세탁소","industry":"세탁소","coordinates":[127.387251198212,36.3503148111148],"sales":{"202602":230}},{"id":"MA010120220806769339","name":"디자인작은공작소","industry":"광고물 설계/제작업","coordinates":[127.387871354845,36.3563056087698],"sales":{"202602":728}},{"id":"MA010120220806775980","name":"우리비에스","industry":"상용 인력 공급 및 인사관리 서비스업","coordinates":[127.387251572694,36.3526398403202],"sales":{"202602":1090}},{"id":"MA010120220806787726","name":"온리히어-뷰티","industry":"주방/가정용품 소매업","coordinates":[127.387112711256,36.3515949278506],"sales":{"202602":1719}},{"id":"MA010120220806791600","name":"청소홀릭","industry":"건축물 일반 청소업","coordinates":[127.388092796568,36.3492937532616],"sales":{"202602":333}},{"id":"MA010120220806796687","name":"쁘띠앙큼앙금플라워대전","industry":"기타 기술/직업 훈련학원","coordinates":[127.387112711256,36.3515949278506],"sales":{"202602":620}},{"id":"MA010120220806801208","name":"헤이브로우","industry":"피부 관리실","coordinates":[127.387251198212,36.3503148111148],"sales":{"202602":534}},{"id":"MA010120220806815765","name":"삼인행","industry":"부동산 중개/대리업","coordinates":[127.387871354845,36.3563056087698],"sales":{"202602":1581}},{"id":"MA010120220806816028","name":"해마","industry":"입시·교과학원","coordinates":[127.389843665844,36.3496665475579],"sales":{"202602":2242}},{"id":"MA010120220806834853","name":"법무사윤일훈사무소","industry":"법무사","coordinates":[127.388772622554,36.3515895389145],"sales":{"202602":420}},{"id":"MA010120220806871547","name":"변호사홍판기법률사무소","industry":"변호사","coordinates":[127.388212921464,36.3532945781978],"sales":{"202602":3543}},{"id":"MA010120220806890992","name":"도향행정사사무소","industry":"행정사","coordinates":[127.389850587461,36.3532892464577],"sales":{"202602":334}},{"id":"MA010120220806905420","name":"법무법인로앤","industry":"변호사","coordinates":[127.388212921464,36.3532945781978],"sales":{"202602":1856}},{"id":"MA010120220806908573","name":"행정사사무소시율","industry":"행정사","coordinates":[127.387112711256,36.3515949278506],"sales":{"202602":184}},{"id":"MA010120220806911731","name":"파스쿠찌대전","industry":"카페","coordinates":[127.389017507542,36.34930877],"sales":{"202602":1035}},{"id":"MA010120220806929132","name":"벨리시마","industry":"기타 기술/직업 훈련학원","coordinates":[127.387238317578,36.349963394691],"sales":{"202602":914}},{"id":"MA010120220806935042","name":"크로바시티공인중개사사무소","industry":"부동산 중개/대리업","coordinates":[127.390993606042,36.3523933493252],"sales":{"202602":1713}},{"id":"MA010120220806944652","name":"플랜트스터디카페","industry":"독서실/스터디 카페","coordinates":[127.389878029595,36.3498556821445],"sales":{"202602":1595}},{"id":"MA010120220806980908","name":"필라테스인바디앤요가","industry":"요가/필라테스 학원","coordinates":[127.389850180445,36.3509732295791],"sales":{"202602":724}},{"id":"MA010120220807001597","name":"홍콩인도","industry":"마사지/안마","coordinates":[127.389024053087,36.3506244638286],"sales":{"202602":254}},{"id":"MA010120220807006004","name":"법무법인금양대전분사무소","industry":"변호사","coordinates":[127.38985975093,36.352892699889],"sales":{"202602":6629}},{"id":"MA010120220807009127","name":"법무사이판수사무소","industry":"법무사","coordinates":[127.389024390697,36.3529314693959],"sales":{"202602":454}},{"id":"MA010120220807015934","name":"세정회계법인","industry":"공인회계사","coordinates":[127.387421984427,36.3533061569523],"sales":{"202602":698}},{"id":"MA010120220807044931","name":"대한행정사사무소","industry":"행정사","coordinates":[127.388469154948,36.353293745461],"sales":{"202602":556}},{"id":"MA010120220807046137","name":"디쉐어에이닷대전","industry":"입시·교과학원","coordinates":[127.388624707643,36.350968209608],"sales":{"202602":6559}},{"id":"MA010120220807050561","name":"법률사무소서북","industry":"변호사","coordinates":[127.389549791698,36.3532902274394],"sales":{"202602":4451}},{"id":"MA010120220807056392","name":"리치웰","industry":"경영 컨설팅업","coordinates":[127.387871354845,36.3563056087698],"sales":{"202602":1655}},{"id":"MA010120220807064525","name":"이한나법률사무소","industry":"변호사","coordinates":[127.387421984427,36.3533061569523],"sales":{"202602":2779}},{"id":"MA010120220807071435","name":"크로바열쇠","industry":"철물/공구 소매업","coordinates":[127.390993606042,36.3523933493252],"sales":{"202602":982}},{"id":"MA010120220807081870","name":"구도스튜디오구.서울사진관","industry":"사진촬영업","coordinates":[127.388145676682,36.3509697665554],"sales":{"202602":604}},{"id":"MA010120220807102577","name":"법무사구자균사무소","industry":"법무사","coordinates":[127.388736529006,36.3532928759325],"sales":{"202602":453}},{"id":"MA010120220807109669","name":"리봄필라테스","industry":"요가/필라테스 학원","coordinates":[127.387112711256,36.3515949278506],"sales":{"202602":189}},{"id":"MA010120220807127226","name":"서강에스엘피대전어학원","industry":"입시·교과학원","coordinates":[127.389527202868,36.3509923063364],"sales":{"202602":3302}},{"id":"MA010120220807154786","name":"변기막힘","industry":"산업설비, 운송장비 및 공공장소 청소업","coordinates":[127.389867835905,36.3522798749659],"sales":{"202602":274}},{"id":"MA010120220807155766","name":"빛과꿈터장애인기업","industry":"카페","coordinates":[127.391466562764,36.3556270157291],"sales":{"202602":1222}},{"id":"MA010120220807163839","name":"서로히","industry":"카페","coordinates":[127.388653438271,36.3522658074684],"sales":{"202602":395}},{"id":"MA010120220807165277","name":"55플란트치과의원","industry":"치과의원","coordinates":[127.387272023643,36.352270292524],"sales":{"202602":12391}},{"id":"MA010120220807170493","name":"영국제특허법률사무소","industry":"변리사","coordinates":[127.389850587461,36.3532892464577],"sales":{"202602":108}},{"id":"MA010120220807210138","name":"라온카페","industry":"카페","coordinates":[127.390993606042,36.3523933493252],"sales":{"202602":968}},{"id":"MA010120220807351000","name":"엠티추억그리고여행","industry":"요리 주점","coordinates":[127.388976555834,36.3522737678382],"sales":{"202602":307}},{"id":"MA010120220807362554","name":"변호사이두철법률사무소","industry":"변호사","coordinates":[127.387251198212,36.3503148111148],"sales":{"202602":2373}},{"id":"MA010120220807371639","name":"에프엠공인중개사사무소","industry":"부동산 중개/대리업","coordinates":[127.388772622554,36.3515895389145],"sales":{"202602":1500}},{"id":"MA010120220807407347","name":"법무사명인제사무소","industry":"법무사","coordinates":[127.388469154948,36.353293745461],"sales":{"202602":739}},{"id":"MA010120220807414771","name":"성무공인중개사사무소","industry":"부동산 중개/대리업","coordinates":[127.387871354845,36.3563056087698],"sales":{"202602":1190}},{"id":"MA010120220807442091","name":"법률사무소한편","industry":"변호사","coordinates":[127.389850587461,36.3532892464577],"sales":{"202602":2774}},{"id":"MA010120220807486138","name":"설류아틀리에","industry":"실/섬유제품 소매업","coordinates":[127.388772622554,36.3515895389145],"sales":{"202602":626}},{"id":"MA010120220807491533","name":"법률사무소유성","industry":"변호사","coordinates":[127.388212921464,36.3532945781978],"sales":{"202602":2306}},{"id":"MA010120220807522747","name":"온더케익","industry":"기타 기술/직업 훈련학원","coordinates":[127.387112711256,36.3515949278506],"sales":{"202602":1707}},{"id":"MA010120220807712050","name":"제이와이에스국제특허법률사무소","industry":"변리사","coordinates":[127.387871354845,36.3563056087698],"sales":{"202602":205}},{"id":"MA010120220807748522","name":"정원","industry":"중국집","coordinates":[127.388473848047,36.3519960391163],"sales":{"202602":4656}},{"id":"MA010120220807750442","name":"부부번역행정사사무소","industry":"행정사","coordinates":[127.388212921464,36.3532945781978],"sales":{"202602":226}},{"id":"MA010120220807752556","name":"법무사김학성사무소","industry":"법무사","coordinates":[127.387251572694,36.3526398403202],"sales":{"202602":1476}},{"id":"MA010120220807758701","name":"카페그리고빚다","industry":"카페","coordinates":[127.387087811359,36.3533162516917],"sales":{"202602":1610}},