[{"id":"MA010120220800079343","name":"왔다삼겹살","industry":"돼지고기 구이/찜","coordinates":[127.375017274638,36.3290229777804],"sales":{"202602":470}},{"id":"MA010120220800086353","name":"이룸공인중개사사무소","industry":"부동산 중개/대리업","coordinates":[127.379957878246,36.3281242193973],"sales":{"202602":1256}},{"id":"MA010120220800228515","name":"에스케이종합보일러","industry":"철물/공구 소매업","coordinates":[127.383762095552,36.3271658284624],"sales":{"202602":529}},{"id":"MA010120220800612479","name":"비에스라인","industry":"산업설비, 운송장비 및 공공장소 청소업","coordinates":[127.375442554985,36.3224880962039],"sales":{"202602":490}},{"id":"MA010120220800632792","name":"도희성식당","industry":"백반/한정식","coordinates":[127.379134835058,36.3260541223646],"sales":{"202602":562}},{"id":"MA010120220800647076","name":"카페꾸오레","industry":"카페","coordinates":[127.367443883114,36.3290194646619],"sales":{"202602":509}},{"id":"MA010120220800931688","name":"중앙시장우리잡곡","industry":"곡물/곡분 소매업","coordinates":[127.381061223989,36.3259939257411],"sales":{"202602":1602}},{"id":"MA010120220801143140","name":"쿠로가배로스터리","industry":"카페","coordinates":[127.374879570948,36.328176302051],"sales":{"202602":375}},{"id":"MA010120220801316297","name":"뽕따러가세","industry":"중국집","coordinates":[127.376306540962,36.3261531779458],"sales":{"202602":2658}},{"id":"MA010120220801317048","name":"넘버원셀프빨래방","industry":"셀프 빨래방","coordinates":[127.376323052599,36.3226385278616],"sales":{"202602":319}},{"id":"MA010120220801635363","name":"청운단청갤러리","industry":"예술품 소매업","coordinates":[127.378892413196,36.3242885806115],"sales":{"202602":201}},{"id":"MA010120220801749639","name":"반석냉난방기","industry":"가전제품 수리업","coordinates":[127.38090679802,36.3240118246758],"sales":{"202602":378}},{"id":"MA010120220802056098","name":"어그멘티드카그니션","industry":"철물/공구 소매업","coordinates":[127.375207859164,36.3292837213653],"sales":{"202602":355}},{"id":"MA010120220802399652","name":"OK광고디자인","industry":"광고 대행업","coordinates":[127.37552534551,36.3281382277564],"sales":{"202602":1277}},{"id":"MA010120220802611537","name":"백두공인중개사사무소","industry":"부동산 중개/대리업","coordinates":[127.380217926274,36.3289254410983],"sales":{"202602":4021}},{"id":"MA010120220802652422","name":"컴퓨터","industry":"컴퓨터/노트북/프린터 수리업","coordinates":[127.377192467093,36.3274210473665],"sales":{"202602":199}},{"id":"MA010120220802885245","name":"다온공인중개사사무소","industry":"부동산 중개/대리업","coordinates":[127.38046249014,36.3219585514137],"sales":{"202602":4922}},{"id":"MA010120220802914166","name":"법인백년","industry":"경영 컨설팅업","coordinates":[127.376311093197,36.32246734145],"sales":{"202602":1030}},{"id":"MA010120220802920150","name":"프로공인중개사사무소","industry":"부동산 중개/대리업","coordinates":[127.382575684011,36.3259620526129],"sales":{"202602":2759}},{"id":"MA010120220802926442","name":"여행","industry":"카페","coordinates":[127.38234625832,36.3245929951291],"sales":{"202602":291}},{"id":"MA010120220802931368","name":"스칼렛","industry":"요리 주점","coordinates":[127.378621238063,36.3257853967486],"sales":{"202602":98}},{"id":"MA010120220802951125","name":"탄탄공인중개사사무소","industry":"부동산 중개/대리업","coordinates":[127.380727296622,36.3283200302448],"sales":{"202602":2741}},{"id":"MA010120220802962460","name":"폰메이드","industry":"핸드폰 소매업","coordinates":[127.377747794964,36.3224898451832],"sales":{"202602":437}},{"id":"MA010120220802974642","name":"클린인테리어","industry":"인테리어 디자인업","coordinates":[127.384369871734,36.3239286444563],"sales":{"202602":1029}},{"id":"MA010120220802979034","name":"국민반찬","industry":"반찬/식료품 소매업","coordinates":[127.377178246531,36.3267812554599],"sales":{"202602":1165}},{"id":"MA010120220802980311","name":"투다리식당","industry":"요리 주점","coordinates":[127.378899742362,36.3258025377996],"sales":{"202602":238}},{"id":"MA010120220802982876","name":"하나당구클럽","industry":"당구장","coordinates":[127.377863295029,36.3302666519047],"sales":{"202602":391}},{"id":"MA010120220802997198","name":"모토니티","industry":"자동차 정비소","coordinates":[127.367677337946,36.3336688263578],"sales":{"202602":2533}},{"id":"MA010120220803038318","name":"심스라이팅LED조명스토어","industry":"전기용품/조명장치 소매업","coordinates":[127.37856435603,36.323235240593],"sales":{"202602":789}},{"id":"MA010120220803143186","name":"두가집","industry":"백반/한정식","coordinates":[127.379942828309,36.3250242129952],"sales":{"202602":554}},{"id":"MA010120220803179328","name":"정빨래방","industry":"셀프 빨래방","coordinates":[127.366371301544,36.3330510242314],"sales":{"202602":198}},{"id":"MA010120220803328183","name":"신명","industry":"경영 컨설팅업","coordinates":[127.380173150735,36.3242935257958],"sales":{"202602":972}},{"id":"MA010120220803369608","name":"도원종합관리","industry":"건축물 일반 청소업","coordinates":[127.380932232904,36.3269495861577],"sales":{"202602":815}},{"id":"MA010120220803412043","name":"남경인테리어","industry":"인테리어 디자인업","coordinates":[127.381026541556,36.3257326945022],"sales":{"202602":664}},{"id":"MA010120220803424709","name":"닦차","industry":"자동차 세차장","coordinates":[127.377080251972,36.3295571941491],"sales":{"202602":1594}},{"id":"MA010120220803504801","name":"금성육가공","industry":"돼지고기 구이/찜","coordinates":[127.377320027421,36.3261589947],"sales":{"202602":119}},{"id":"MA010120220803556494","name":"행복구제옷","industry":"중고 상품 소매업","coordinates":[127.380243077935,36.3249331403472],"sales":{"202602":490}},{"id":"MA010120220803676521","name":"천지유통","industry":"슈퍼마켓","coordinates":[127.368898935202,36.3305469859618],"sales":{"202602":12271}},{"id":"MA010120220804035981","name":"와이파이텔레콤","industry":"핸드폰 소매업","coordinates":[127.378892413196,36.3242885806115],"sales":{"202602":174}},{"id":"MA010120220804054463","name":"대전교차로중고나라","industry":"중고 상품 소매업","coordinates":[127.380128541668,36.3265736498434],"sales":{"202602":71}},{"id":"MA010120220804199277","name":"비디부동산컨설팅","industry":"부동산 중개/대리업","coordinates":[127.376609314365,36.326584790121],"sales":{"202602":3156}},{"id":"MA010120220804214289","name":"디시티","industry":"부동산 중개/대리업","coordinates":[127.387203789255,36.3272358347439],"sales":{"202602":1886}},{"id":"MA010120220804373363","name":"캐리어대전서남부센타","industry":"가전제품 소매업","coordinates":[127.380932232904,36.3269495861577],"sales":{"202602":1218}},{"id":"MA010120220804390580","name":"맥앤윕","industry":"전시/컨벤션/행사 대행 서비스업","coordinates":[127.378689079115,36.3236944468453],"sales":{"202602":2283}},{"id":"MA010120220804422736","name":"청호나이스","industry":"가전제품 소매업","coordinates":[127.379535982877,36.3283959133086],"sales":{"202602":532}},{"id":"MA010120220804426161","name":"에어시스템","industry":"가전제품 수리업","coordinates":[127.375656417976,36.3299221489603],"sales":{"202602":393}},{"id":"MA010120220804573768","name":"이집","industry":"카페","coordinates":[127.379578301894,36.3279361779736],"sales":{"202602":867}},{"id":"MA010120220804656150","name":"씽씽노래연습장","industry":"노래방","coordinates":[127.378899742362,36.3258025377996],"sales":{"202602":1344}},{"id":"MA010120220804760963","name":"대영종합기계공구","industry":"철물/공구 소매업","coordinates":[127.378899742362,36.3258025377996],"sales":{"202602":778}},{"id":"MA010120220804782130","name":"변동건강식품","industry":"김밥/만두/분식","coordinates":[127.384112222808,36.3213521006954],"sales":{"202602":1012}},{"id":"MA010120220804837649","name":"우리마트","industry":"슈퍼마켓","coordinates":[127.371274336967,36.3288544272739],"sales":{"202602":13186}},{"id":"MA010120220804848653","name":"호영식당","industry":"백반/한정식","coordinates":[127.386573580716,36.3259131424617],"sales":{"202602":567}},{"id":"MA010120220804905058","name":"삼월찻집","industry":"카페","coordinates":[127.376147367697,36.3301098523275],"sales":{"202602":651}},{"id":"MA010120220804951678","name":"만세공인중개사사무소","industry":"부동산 중개/대리업","coordinates":[127.381455205899,36.3245688067014],"sales":{"202602":2361}},{"id":"MA010120220804966136","name":"미환경","industry":"건축물 일반 청소업","coordinates":[127.384017580312,36.3270298311545],"sales":{"202602":341}},{"id":"MA010120220804988640","name":"안전셀프세차장","industry":"자동차 세차장","coordinates":[127.375831974247,36.3293718783467],"sales":{"202602":1980}},{"id":"MA010120220805007828","name":"시골집빈대떡","industry":"전/부침개","coordinates":[127.369063615657,36.3300418177026],"sales":{"202602":1989}},{"id":"MA010120220805024301","name":"대전에어컨자재총판","industry":"가전제품 소매업","coordinates":[127.377509134604,36.32611333865],"sales":{"202602":921}},{"id":"MA010120220805039802","name":"꼼지락하우스","industry":"화장품 소매업","coordinates":[127.384487630289,36.3274969327656],"sales":{"202602":727}},{"id":"MA010120220805052347","name":"대한물류","industry":"기타 사무 지원 서비스업","coordinates":[127.381072352677,36.3237048961526],"sales":{"202602":476}},{"id":"MA010120220805056433","name":"트리탑","industry":"카페","coordinates":[127.378695279602,36.3295791233862],"sales":{"202602":449}},{"id":"MA010120220805075643","name":"성원토건","industry":"건설기계/장비 대여업","coordinates":[127.378899742362,36.3258025377996],"sales":{}},{"id":"MA010120220805167768","name":"향수순대","industry":"국/탕/찌개류","coordinates":[127.376724130614,36.3226733116465],"sales":{"202602":924}},{"id":"MA010120220805197864","name":"신성상회","industry":"기타 의류 소매업","coordinates":[127.379596895264,36.3248811234883],"sales":{"202602":628}},{"id":"MA010120220805211245","name":"해피하우스","industry":"여성 의류 소매업","coordinates":[127.380045048778,36.3277274237846],"sales":{"202602":463}},{"id":"MA010120220805224686","name":"혜성엔지니어링","industry":"건물 및 토목 엔지니어링 서비스업","coordinates":[127.381291450921,36.3252452132559],"sales":{}},{"id":"MA010120220805251528","name":"이수연코스메틱","industry":"화장품 소매업","coordinates":[127.369349612574,36.329283944382],"sales":{"202602":288}},{"id":"MA010120220805262489","name":"홍수연커피랩","industry":"카페","coordinates":[127.372230158158,36.3284369123134],"sales":{"202602":428}},{"id":"MA010120220805263416","name":"파크랜드","industry":"남성 의류 소매업","coordinates":[127.379740021975,36.326836226587],"sales":{"202602":1135}},{"id":"MA010120220805300178","name":"한국씨앤디한국C&D","industry":"사무기기 소매업","coordinates":[127.366552790746,36.3313742764501],"sales":{"202602":294}},{"id":"MA010120220805330380","name":"찬자리","industry":"김밥/만두/분식","coordinates":[127.378892413196,36.3242885806115],"sales":{"202602":472}},{"id":"MA010120220805332720","name":"컴브라더스","industry":"컴퓨터/노트북/프린터 수리업","coordinates":[127.369929854123,36.3295164563203],"sales":{"202602":1396}},{"id":"MA010120220805390872","name":"전국건설기계","industry":"건설기계/장비 대여업","coordinates":[127.378899742362,36.3258025377996],"sales":{}},{"id":"MA010120220805421327","name":"평화인테리어","industry":"인테리어 디자인업","coordinates":[127.375967742096,36.3298130286914],"sales":{"202602":1014}},{"id":"MA010120220805432049","name":"속푸리해장국","industry":"국/탕/찌개류","coordinates":[127.375220046637,36.3225338538445],"sales":{"202602":1756}},{"id":"MA010120220805444634","name":"라온통신","industry":"핸드폰 소매업","coordinates":[127.379246900941,36.32619795543],"sales":{"202602":145}},{"id":"MA010120220805454619","name":"마야라틴줌바댄스","industry":"레크리에이션 교육기관","coordinates":[127.385504365169,36.3236366137081],"sales":{"202602":781}},{"id":"MA010120220805465169","name":"주택관리","industry":"건축물 일반 청소업","coordinates":[127.381312290648,36.3272367514076],"sales":{"202602":340}},{"id":"MA010120220805491160","name":"향우한방족발","industry":"족발/보쌈","coordinates":[127.375442554985,36.3224880962039],"sales":{"202602":950}},{"id":"MA010120220805516532","name":"타조","industry":"광고물 설계/제작업","coordinates":[127.371967837291,36.3294830959574],"sales":{"202602":474}},{"id":"MA010120220805569718","name":"이마트24대전변동","industry":"편의점","coordinates":[127.376706498787,36.3236376289314],"sales":{"202602":1422}},{"id":"MA010120220805609640","name":"소풍7080라이브","industry":"요리 주점","coordinates":[127.374559530128,36.3287901067396],"sales":{"202602":558}},{"id":"MA010120220805643797","name":"더원아트컴퍼니","industry":"전시/컨벤션/행사 대행 서비스업","coordinates":[127.368127912827,36.330008656175],"sales":{"202602":1293}},{"id":"MA010120220805739547","name":"와이제이광고기획","industry":"명함/간판/광고물 제작","coordinates":[127.368044334857,36.3335505436678],"sales":{"202602":1952}},{"id":"MA010120220805739746","name":"캠드라이","industry":"세탁소","coordinates":[127.38250669989,36.323240713491],"sales":{"202602":137}},{"id":"MA010120220805740650","name":"공명기획","industry":"문구/회화용품 소매업","coordinates":[127.380233720273,36.327591646976],"sales":{"202602":3440}},{"id":"MA010120220805740911","name":"CATS","industry":"애완동물/애완용품 소매업","coordinates":[127.383086231205,36.3278799274123],"sales":{"202602":712}},{"id":"MA010120220805741741","name":"삼원종합건축사사무소","industry":"건축 설계 및 관련 서비스업","coordinates":[127.383341719472,36.3277439315444],"sales":{"202602":2078}},{"id":"MA010120220805745059","name":"대관령양푼이동태찌개.쏭케이크","industry":"국/탕/찌개류","coordinates":[127.384912232079,36.32325101504],"sales":{"202602":1341}},{"id":"MA010120220805745632","name":"제일건업인테리어","industry":"인테리어 디자인업","coordinates":[127.367187094254,36.3288850770229],"sales":{"202602":611}},{"id":"MA010120220805746013","name":"김민주헤어뜰","industry":"미용실","coordinates":[127.380565599947,36.3248419960354],"sales":{"202602":143}},{"id":"MA010120220805746824","name":"까꼬뽀꼬진헤어샵","industry":"미용실","coordinates":[127.37663376556,36.3293513309273],"sales":{"202602":115}},{"id":"MA010120220805747468","name":"유진기획","industry":"명함/간판/광고물 제작","coordinates":[127.384166959989,36.3279665765492],"sales":{"202602":745}},{"id":"MA010120220805750341","name":"그린적산","industry":"건축 설계 및 관련 서비스업","coordinates":[127.378695279602,36.3295791233862],"sales":{"202602":5107}},{"id":"MA010120220805750389","name":"유나헤어","industry":"미용실","coordinates":[127.378526739196,36.329273256688],"sales":{"202602":336}},{"id":"MA010120220805750521","name":"미소인테리어","industry":"인테리어 디자인업","coordinates":[127.380939953178,36.3285356354524],"sales":{"202602":1577}},{"id":"MA010120220805751606","name":"지코바치킨","industry":"치킨","coordinates":[127.381010359837,36.3246963905447],"sales":{"202602":459}},{"id":"MA010120220805751819","name":"비타크린간판","industry":"명함/간판/광고물 제작","coordinates":[127.377059497295,36.3298726719874],"sales":{"202602":1550}},{"id":"MA010120220805755712","name":"중앙운동구상사","industry":"운동용품 소매업","coordinates":[127.383700365855,36.3213894706228],"sales":{"202602":1015}},{"id":"MA010120220805756738","name":"풍년식당","industry":"백반/한정식","coordinates":[127.379579159458,36.323520399631],"sales":{"202602":220}},{"id":"MA010120220805758283","name":"천일시스템에어컨","industry":"가전제품 소매업","coordinates":[127.379413249843,36.3237552329175],"sales":{"202602":314}},{"id":"MA010120220805763982","name":"온정청소박사","industry":"건축물 일반 청소업","coordinates":[127.377213464226,36.3294666559878],"sales":{"202602":782}},{"id":"MA010120220805764195","name":"수신오가피","industry":"건강보조식품 소매업","coordinates":[127.374326167983,36.3288989792174],"sales":{"202602":4266}},{"id":"MA010120220805765450","name":"아이디오","industry":"카페","coordinates":[127.383489344657,36.3237782722846],"sales":{"202602":199}},{"id":"MA010120220805766373","name":"대전모터스","industry":"자동차 정비소","coordinates":[127.378073206083,36.3299145286441],"sales":{"202602":1268}},{"id":"MA010120220805766777","name":"타이어프로","industry":"타이어 소매업","coordinates":[127.378263193089,36.3300491042437],"sales":{"202602":1504}},{"id":"MA010120220805768631","name":"풀옵션","industry":"자동차 부품 소매업","coordinates":[127.381382405667,36.327912411479],"sales":{"202602":492}},{"id":"MA010120220805768730","name":"목포홍어집","industry":"횟집","coordinates":[127.377365008883,36.3262489705655],"sales":{"202602":1408}},{"id":"MA010120220805771717","name":"견민코스메틱","industry":"화장품 소매업","coordinates":[127.38409631832,36.3226498497291],"sales":{"202602":245}},{"id":"MA010120220805775795","name":"대성화물","industry":"자동차 대여업","coordinates":[127.377198435395,36.3263486260001],"sales":{"202602":2949}},{"id":"MA010120220805778131","name":"헤어퀸","industry":"미용실","coordinates":[127.381278821703,36.3249388527702],"sales":{"202602":179}},{"id":"MA010120220805785986","name":"맛집","industry":"백반/한정식","coordinates":[127.378387672718,36.3258492188795],"sales":{"202602":316}},{"id":"MA010120220805790639","name":"우리에어컨","industry":"가전제품 수리업","coordinates":[127.385209578219,36.3270980897993],"sales":{"202602":132}},{"id":"MA010120220805795151","name":"소망식당","industry":"백반/한정식","coordinates":[127.376046439099,36.3299659814097],"sales":{"202602":672}},{"id":"MA010120220805798013","name":"대독컴퍼니","industry":"자동차 정비소","coordinates":[127.377908493444,36.328094669468],"sales":{"202602":824}},{"id":"MA010120220805798445","name":"철수카서비스","industry":"자동차 정비소","coordinates":[127.370774276304,36.3290902859545],"sales":{"202602":859}},{"id":"MA010120220805807766","name":"시정약국","industry":"약국","coordinates":[127.379134835058,36.3260541223646],"sales":{"202602":2313}},{"id":"MA010120220805810402","name":"탑","industry":"명함/간판/광고물 제작","coordinates":[127.366709614811,36.3339421528395],"sales":{"202602":2088}},{"id":"MA010120220805811471","name":"영인시스템주","industry":"상용 인력 공급 및 인사관리 서비스업","coordinates":[127.381962980124,36.328207946399],"sales":{"202602":351}},{"id":"MA010120220805812907","name":"서진종합관리주","industry":"사업시설 유지·관리 서비스업","coordinates":[127.384017580312,36.3270298311545],"sales":{"202602":887}},{"id":"MA010120220805813256","name":"지비에스","industry":"소독, 구충 및 방제 서비스업","coordinates":[127.383952616086,36.3274085347563],"sales":{"202602":1022}},{"id":"MA010120220805817368","name":"지알크린","industry":"산업설비, 운송장비 및 공공장소 청소업","coordinates":[127.369152161402,36.3299243910681],"sales":{"202602":225}},{"id":"MA010120220805818764","name":"티에스알라딘","industry":"명함/간판/광고물 제작","coordinates":[127.382860505359,36.3227168969475],"sales":{"202602":1303}},{"id":"MA010120220805827552","name":"시원크린","industry":"주방/가정용품 소매업","coordinates":[127.377710117636,36.3262208451517],"sales":{"202602":1007}},{"id":"MA010120220805832511","name":"신진전자.약초건강원","industry":"건강보조식품 소매업","coordinates":[127.380027393333,36.3217977232257],"sales":{"202602":1971}},{"id":"MA010120220805845203","name":"보령카크리닉","industry":"자동차 정비소","coordinates":[127.380628728836,36.3286627919105],"sales":{"202602":560}},{"id":"MA010120220805848871","name":"월드스포츠마크","industry":"운동용품 소매업","coordinates":[127.382664524366,36.32818767887],"sales":{"202602":6117}},{"id":"MA010120220805849472","name":"태양은방","industry":"시계/귀금속 소매업","coordinates":[127.379246900941,36.32619795543],"sales":{"202602":432}},{"id":"MA010120220805851518","name":"윤중오토미션","industry":"자동차 정비소","coordinates":[127.381943409097,36.3241977643835],"sales":{"202602":1417}},{"id":"MA010120220805857122","name":"안광고기획","industry":"광고물 설계/제작업","coordinates":[127.378455233668,36.3260022053638],"sales":{"202602":711}},{"id":"MA010120220805867816","name":"다모아헤어샵","industry":"미용실","coordinates":[127.379729746898,36.3247184893194],"sales":{"202602":62}},{"id":"MA010120220805873462","name":"삼천리마트","industry":"슈퍼마켓","coordinates":[127.379183966365,36.3270002040326],"sales":{"202602":3024}},{"id":"MA010120220805963627","name":"루미플라워케익","industry":"빵/도넛","coordinates":[127.371396545996,36.3287909651037],"sales":{"202602":2879}},{"id":"MA010120220806023756","name":"한남주택건설","industry":"부동산 중개/대리업","coordinates":[127.382499389718,36.32174477959],"sales":{"202602":2089}},{"id":"MA010120220806065283","name":"KY식품","industry":"건강보조식품 소매업","coordinates":[127.369330528057,36.3299598871767],"sales":{"202602":818}},{"id":"MA010120220806170855","name":"베이비핀아","industry":"그 외 기타 상품 전문 소매업","coordinates":[127.380818539557,36.3218943350663],"sales":{"202602":945}},{"id":"MA010120220806171346","name":"하늘세탁소","industry":"세탁소","coordinates":[127.37533132245,36.3225154809046],"sales":{"202602":246}},{"id":"MA010120220806172026","name":"로얄미용실","industry":"미용실","coordinates":[127.382501327301,36.3221412922269],"sales":{"202602":138}},{"id":"MA010120220806172061","name":"대전전기전자","industry":"가전제품 수리업","coordinates":[127.370108859509,36.3296871260553],"sales":{"202602":442}},{"id":"MA010120220806172106","name":"김영희헤어샵","industry":"미용실","coordinates":[127.374280110946,36.3285837110067],"sales":{"202602":216}},{"id":"MA010120220806172189","name":"미도안경","industry":"안경렌즈 소매업","coordinates":[127.377747794964,36.3224898451832],"sales":{"202602":2493}},{"id":"MA010120220806172497","name":"투다리","industry":"요리 주점","coordinates":[127.37524990157,36.3287609059432],"sales":{"202602":189}},{"id":"MA010120220806172646","name":"바로바로세탁소","industry":"세탁소","coordinates":[127.37922144249,36.3232421695407],"sales":{"202602":153}},{"id":"MA010120220806173064","name":"대성나염공사","industry":"명함/간판/광고물 제작","coordinates":[127.377198435395,36.3263486260001],"sales":{"202602":2224}},{"id":"MA010120220806173195","name":"서울유리상사","industry":"주방/가정용품 소매업","coordinates":[127.381142296887,36.326633504027],"sales":{"202602":414}},{"id":"MA010120220806174074","name":"남미식당","industry":"백반/한정식","coordinates":[127.374035525774,36.3286745944951],"sales":{"202602":245}},{"id":"MA010120220806174320","name":"정운세탁소","industry":"세탁소","coordinates":[127.379473043915,36.3269001569823],"sales":{"202602":233}},{"id":"MA010120220806175423","name":"수목건축사사무소","industry":"건축 설계 및 관련 서비스업","coordinates":[127.372646435034,36.3293187700694],"sales":{"202602":1398}},{"id":"MA010120220806175892","name":"코오롱정수산업개발","industry":"가전제품 소매업","coordinates":[127.37598655276,36.32909202692],"sales":{"202602":914}},{"id":"MA010120220806176600","name":"대전중고교차로알뜰매장","industry":"중고 상품 소매업","coordinates":[127.380128541668,36.3265736498434],"sales":{"202602":138}},{"id":"MA010120220806177161","name":"한음건축","industry":"그 외 기타 개인/가정용품 수리업","coordinates":[127.385516793621,36.3261598738019],"sales":{"202602":370}},{"id":"MA010120220806177229","name":"선우낚시","industry":"장난감 소매업","coordinates":[127.378899742362,36.3258025377996],"sales":{"202602":759}},{"id":"MA010120220806177556","name":"우리주택관리","industry":"건축물 일반 청소업","coordinates":[127.378995460847,36.3294700305437],"sales":{"202602":593}},{"id":"MA010120220806177629","name":"충청광고애드컴","industry":"명함/간판/광고물 제작","coordinates":[127.369063615657,36.3300418177026],"sales":{"202602":1008}},{"id":"MA010120220806178545","name":"이목구비화장품","industry":"화장품 소매업","coordinates":[127.380243077935,36.3249331403472],"sales":{"202602":334}},{"id":"MA010120220806179208","name":"쌈꾼","industry":"백반/한정식","coordinates":[127.384912232079,36.32325101504],"sales":{"202602":781}},{"id":"MA010120220806179240","name":"성보공인중개사","industry":"부동산 중개/대리업","coordinates":[127.381156538993,36.3249843017076],"sales":{"202602":1290}},{"id":"MA010120220806180359","name":"명품미용가구","industry":"가전제품 소매업","coordinates":[127.385326316382,36.3236642231732],"sales":{"202602":718}},{"id":"MA010120220806180961","name":"태흥선재철물","industry":"철물/공구 소매업","coordinates":[127.379829685188,36.3269530948979],"sales":{"202602":1546}},{"id":"MA010120220806180969","name":"서천소비자유통","industry":"슈퍼마켓","coordinates":[127.37810108811,36.3287699441304],"sales":{"202602":6343}},{"id":"MA010120220806181183","name":"통통실내마차","industry":"백반/한정식","coordinates":[127.375521819289,36.3297243127178],"sales":{"202602":887}},{"id":"MA010120220806181512","name":"한밭슈퍼","industry":"슈퍼마켓","coordinates":[127.380243077935,36.3249331403472],"sales":{"202602":16071}},{"id":"MA010120220806182055","name":"삼성실사나염","industry":"명함/간판/광고물 제작","coordinates":[127.376705718101,36.3234754191512],"sales":{"202602":1554}},{"id":"MA010120220806182066","name":"샤론헤어","industry":"미용실","coordinates":[127.377493641985,36.3275192261949],"sales":{"202602":113}},{"id":"MA010120220806182068","name":"라이프제화","industry":"신발 소매업","coordinates":[127.379369929268,36.3263057064477],"sales":{"202602":410}},{"id":"MA010120220806182199","name":"지음광고","industry":"명함/간판/광고물 제작","coordinates":[127.376923853415,36.32945855786],"sales":{"202602":1574}},{"id":"MA010120220806182496","name":"새벽","industry":"명함/간판/광고물 제작","coordinates":[127.373446678646,36.3289738246397],"sales":{"202602":1883}},{"id":"MA010120220806182503","name":"성민세탁소","industry":"세탁소","coordinates":[127.378526739196,36.329273256688],"sales":{"202602":146}},{"id":"MA010120220806182519","name":"세광유리","industry":"주방/가정용품 소매업","coordinates":[127.383628939008,36.3272653855306],"sales":{"202602":1260}},{"id":"MA010120220806182577","name":"대전귀뚜라미보일러","industry":"그 외 기타 개인/가정용품 수리업","coordinates":[127.377615925691,36.3297807975115],"sales":{"202602":218}},{"id":"MA010120220806182812","name":"알찬동태","industry":"백반/한정식","coordinates":[127.38402297516,36.3281292513222],"sales":{"202602":377}},{"id":"MA010120220806182921","name":"모녀건강원","industry":"건강보조식품 소매업","coordinates":[127.374559530128,36.3287901067396],"sales":{"202602":688}},{"id":"MA010120220806182932","name":"복음자동차공업사","industry":"자동차 정비소","coordinates":[127.380150897177,36.3220046017401],"sales":{"202602":1658}},{"id":"MA010120220806183058","name":"노다지슈퍼","industry":"슈퍼마켓","coordinates":[127.377414901206,36.3273572627209],"sales":{"202602":6381}},{"id":"MA010120220806183207","name":"간판태광","industry":"명함/간판/광고물 제작","coordinates":[127.377615925691,36.3297807975115],"sales":{"202602":838}},{"id":"MA010120220806183463","name":"미래카시트","industry":"자동차 부품 소매업","coordinates":[127.367544446114,36.3338314471182],"sales":{"202602":720}},{"id":"MA010120220806183613","name":"주은헤어샵","industry":"미용실","coordinates":[127.375428614115,36.3288684861406],"sales":{"202602":187}},{"id":"MA010120220806183630","name":"왕촌영양식당","industry":"백반/한정식","coordinates":[127.377059497295,36.3298726719874],"sales":{"202602":960}},{"id":"MA010120220806183747","name":"갤러리공인중개사무소","industry":"부동산 중개/대리업","coordinates":[127.37926384673,36.3250984636237],"sales":{"202602":3897}},{"id":"MA010120220806183888","name":"변동청과상회","industry":"채소/과일 소매업","coordinates":[127.37926384673,36.3250984636237],"sales":{"202602":3934}},{"id":"MA010120220806184152","name":"모녀건강식품","industry":"건강보조식품 소매업","coordinates":[127.374559530128,36.3287901067396],"sales":{"202602":1777}},{"id":"MA010120220806185551","name":"오너카크리닉","industry":"자동차 정비소","coordinates":[127.378429206503,36.3298322959884],"sales":{"202602":632}},{"id":"MA010120220806186376","name":"명성이용원","industry":"미용실","coordinates":[127.378638983044,36.3294531367997],"sales":{"202602":259}},{"id":"MA010120220806186990","name":"아리랑기획","industry":"명함/간판/광고물 제작","coordinates":[127.38228819861,36.3263865263441],"sales":{"202602":2957}},{"id":"MA010120220806187197","name":"한빛공인중개사","industry":"부동산 중개/대리업","coordinates":[127.375521819289,36.3297243127178],"sales":{"202602":2721}},{"id":"MA010120220806187498","name":"낙원자동차서비스","industry":"자동차 정비소","coordinates":[127.383278459299,36.3239231372981],"sales":{"202602":656}},{"id":"MA010120220806188412","name":"썬디자인","industry":"명함/간판/광고물 제작","coordinates":[127.378076367748,36.3259583454118],"sales":{"202602":1845}},{"id":"MA010120220806188654","name":"굿모닝샵","industry":"자동차 정비소","coordinates":[127.374079298784,36.3285122453867],"sales":{"202602":4707}},{"id":"MA010120220806189789","name":"씨유","industry":"편의점","coordinates":[127.377679368856,36.3221566250748],"sales":{"202602":1634}},{"id":"MA010120220806191630","name":"우가네칼국수","industry":"국수/칼국수","coordinates":[127.382878386064,36.3240956434574],"sales":{"202602":1445}},{"id":"MA010120220806191654","name":"아이원","industry":"운동용품 소매업","coordinates":[127.382920367128,36.328123777029],"sales":{"202602":1233}},{"id":"MA010120220806191861","name":"배팅샵가장","industry":"복권 발행/판매업","coordinates":[127.382846563617,36.3244201697603],"sales":{"202602":426}},{"id":"MA010120220806192345","name":"도움공인중개사사무소","industry":"부동산 중개/대리업","coordinates":[127.380233720273,36.327591646976],"sales":{"202602":3044}},{"id":"MA010120220806192501","name":"황금식당","industry":"돼지고기 구이/찜","coordinates":[127.383766072702,36.3279768761526],"sales":{"202602":1151}},{"id":"MA010120220806196199","name":"동신인테리어","industry":"인테리어 디자인업","coordinates":[127.379579159458,36.323520399631],"sales":{"202602":1456}},{"id":"MA010120220806196353","name":"가마솥","industry":"백반/한정식","coordinates":[127.374568079245,36.3282493728881],"sales":{"202602":848}},{"id":"MA010120220806196396","name":"스피드카공업사","industry":"자동차 정비소","coordinates":[127.370387290704,36.329686263557],"sales":{"202602":1623}},{"id":"MA010120220806197907","name":"대원자동차유리","industry":"자동차 정비소","coordinates":[127.38748172038,36.3271358044614],"sales":{"202602":768}},{"id":"MA010120220806198698","name":"대전콜스카이연합","industry":"광고물 설계/제작업","coordinates":[127.375964851928,36.3268932197157],"sales":{"202602":464}},{"id":"MA010120220806198849","name":"대우이용원","industry":"미용실","coordinates":[127.381156538993,36.3249843017076],"sales":{"202602":133}},{"id":"MA010120220806198850","name":"한일유리상사","industry":"주방/가정용품 소매업","coordinates":[127.380565599947,36.3248419960354],"sales":{"202602":788}},{"id":"MA010120220806198872","name":"대영유리","industry":"주방/가정용품 소매업","coordinates":[127.37926384673,36.3250984636237],"sales":{"202602":471}},{"id":"MA010120220806198882","name":"부덕상회","industry":"슈퍼마켓","coordinates":[127.382142594498,36.3216558028575],"sales":{"202602":3992}},{"id":"MA010120220806198914","name":"미화컴퓨터세탁","industry":"세탁소","coordinates":[127.382687888248,36.3261329173506],"sales":{"202602":135}},{"id":"MA010120220806198938","name":"동일세탁소","industry":"세탁소","coordinates":[127.381321743453,36.324605279698],"sales":{"202602":159}},{"id":"MA010120220806198961","name":"옥수숯불구이","industry":"돼지고기 구이/찜","coordinates":[127.374615603953,36.3288710370598],"sales":{"202602":1691}},{"id":"MA010120220806198962","name":"나드리미용실","industry":"미용실","coordinates":[127.387076826506,36.3263350676693],"sales":{"202602":106}},{"id":"MA010120220806198968","name":"강창선미용실","industry":"미용실","coordinates":[127.375709867441,36.3224962680899],"sales":{"202602":140}},{"id":"MA010120220806198991","name":"한나종합화장품","industry":"화장품 소매업","coordinates":[127.380233720273,36.327591646976],"sales":{"202602":534}},{"id":"MA010120220806199018","name":"물방아식당","industry":"요리 주점","coordinates":[127.376147367697,36.3301098523275],"sales":{"202602":140}},{"id":"MA010120220806199029","name":"성보이용원","industry":"미용실","coordinates":[127.381973325411,36.3280457012513],"sales":{"202602":61}},{"id":"MA010120220806199031","name":"서광문구","industry":"문구/회화용품 소매업","coordinates":[127.374860836562,36.3289153271133],"sales":{"202602":313}},{"id":"MA010120220806199043","name":"조이홈인테리어","industry":"가구 소매업","coordinates":[127.37926384673,36.3250984636237],"sales":{"202602":1522}},{"id":"MA010120220806199056","name":"새로나제과","industry":"빵/도넛","coordinates":[127.380243077935,36.3249331403472],"sales":{"202602":1720}},{"id":"MA010120220806199080","name":"공인중개사수덕사무소","industry":"부동산 중개/대리업","coordinates":[127.378530749889,36.3254973061494],"sales":{"202602":2509}},{"id":"MA010120220806199779","name":"신일조광가스,신일가스설비","industry":"가정용 연료 소매업","coordinates":[127.367672129332,36.3325603934979],"sales":{"202602":10643}},{"id":"MA010120220806199910","name":"건재도매대동한약","industry":"그 외 기타 상품 전문 소매업","coordinates":[127.375611349812,36.3298141492157],"sales":{"202602":708}},{"id":"MA010120220806200118","name":"대전백양","industry":"기타 의류 소매업","coordinates":[127.380491447118,36.3279152510331],"sales":{"202602":1350}},{"id":"MA010120220806200150","name":"백산주유소","industry":"주유소","coordinates":[127.379339840538,36.3292887024272],"sales":{"202602":10809}},{"id":"MA010120220806200192","name":"참사랑약국","industry":"약국","coordinates":[127.381418012669,36.3283628869975],"sales":{"202602":3619}},{"id":"MA010120220806200193","name":"옵티마진명약국","industry":"약국","coordinates":[127.377749143154,36.3227692064812],"sales":{"202602":5436}},{"id":"MA010120220806201497","name":"하이시스템","industry":"가전제품 수리업","coordinates":[127.375656417976,36.3299221489603],"sales":{"202602":244}},{"id":"MA010120220806201899","name":"뱅크포스대전","industry":"컴퓨터/사무기기 대여업","coordinates":[127.378076367748,36.3259583454118],"sales":{"202602":604}},{"id":"MA010120220806201904","name":"정숙헤어샵","industry":"미용실","coordinates":[127.381184945354,36.3239568672479],"sales":{"202602":59}},{"id":"MA010120220806202244","name":"천일공인중개사사무소","industry":"부동산 중개/대리업","coordinates":[127.380022315765,36.3253393728732],"sales":{"202602":5745}},{"id":"MA010120220806202373","name":"솔로몬음향영상","industry":"가전제품 수리업","coordinates":[127.376021566387,36.3294253527353],"sales":{"202602":199}},{"id":"MA010120220806202692","name":"신우","industry":"기타 의류 소매업","coordinates":[127.376371630727,36.3304245586838],"sales":{"202602":1086}},{"id":"MA010120220806202851","name":"토마토공인중개사사무소","industry":"부동산 중개/대리업","coordinates":[127.376812351166,36.3294318740896],"sales":{"202602":1843}},{"id":"MA010120220806203076","name":"2000종합인테리어","industry":"인테리어 디자인업","coordinates":[127.377144401784,36.3266912443931],"sales":{"202602":1625}},{"id":"MA010120220806203116","name":"새롬인테리어","industry":"인테리어 디자인업","coordinates":[127.383341719472,36.3277439315444],"sales":{"202602":1453}},{"id":"MA010120220806203406","name":"대전종합설비천사열쇠","industry":"그 외 기타 개인/가정용품 수리업","coordinates":[127.378718546571,36.3251812987013],"sales":{"202602":233}},{"id":"MA010120220806203454","name":"호식이두마리치킨","industry":"치킨","coordinates":[127.386699290188,36.326561584275],"sales":{"202602":801}},{"id":"MA010120220806203719","name":"미성환경","industry":"소독, 구충 및 방제 서비스업","coordinates":[127.37692922636,36.3236369267896],"sales":{"202602":676}},{"id":"MA010120220806204347","name":"태극사진실","industry":"사진촬영업","coordinates":[127.37926384673,36.3250984636237],"sales":{"202602":483}},{"id":"MA010120220806204592","name":"명신기업","industry":"철물/공구 소매업","coordinates":[127.378067625317,36.3264540213347],"sales":{"202602":392}},{"id":"MA010120220806205099","name":"행복한헤어샵","industry":"미용실","coordinates":[127.38263527884,36.3244839288204],"sales":{"202602":84}},{"id":"MA010120220806205377","name":"오성광고기획","industry":"명함/간판/광고물 제작","coordinates":[127.383903380107,36.3241824736928],"sales":{"202602":1593}},{"id":"MA010120220806207377","name":"수진헤어샵","industry":"미용실","coordinates":[127.382529426517,36.3278907224901],"sales":{"202602":137}},{"id":"MA010120220806207401","name":"현대중고가전가구프라자","industry":"중고 상품 소매업","coordinates":[127.379919523659,36.3271060097207],"sales":{"202602":285}},{"id":"MA010120220806207521","name":"할인마트","industry":"슈퍼마켓","coordinates":[127.379602175159,36.3236735269739],"sales":{"202602":3705}},{"id":"MA010120220806207942","name":"소라문구슈퍼","industry":"문구/회화용품 소매업","coordinates":[127.38482797099,36.3242335712714],"sales":{"202602":687}},{"id":"MA010120220806208583","name":"대박고기촌","industry":"돼지고기 구이/찜","coordinates":[127.38050700957,36.3288253915453],"sales":{"202602":932}},{"id":"MA010120220806209507","name":"어르신이행복한세상","industry":"기타 산업용 기계/장비 대여업","coordinates":[127.378848012037,36.3220177499957],"sales":{"202602":918}},{"id":"MA010120220806209684","name":"대전이지디자인","industry":"광고물 설계/제작업","coordinates":[127.375428614115,36.3288684861406],"sales":{"202602":230}},{"id":"MA010120220806210558","name":"금강산","industry":"일반 유흥 주점","coordinates":[127.378550320801,36.3249385133092],"sales":{"202602":492}},{"id":"MA010120220806211270","name":"세종주방","industry":"가구 소매업","coordinates":[127.384836847713,36.3237739415089],"sales":{"202602":3867}},{"id":"MA010120220806212218","name":"아현에어컨","industry":"가전제품 수리업","coordinates":[127.368268303688,36.3314410971814],"sales":{"202602":343}},{"id":"MA010120220806212719","name":"대전네트워크","industry":"컴퓨터/소프트웨어 소매업","coordinates":[127.367175036593,36.3334360642923],"sales":{"202602":1046}},{"id":"MA010120220806213173","name":"광혜당약국","industry":"약국","coordinates":[127.379747310878,36.3260431662745],"sales":{"202602":3269}},{"id":"MA010120220806213686","name":"빈대떡신사","industry":"요리 주점","coordinates":[127.380767372996,36.3251117070789],"sales":{"202602":403}},{"id":"MA010120220806214019","name":"하늘시설종합관리","industry":"건축물 일반 청소업","coordinates":[127.369656829872,36.3306617975319],"sales":{"202602":370}},{"id":"MA010120220806214583","name":"국보급떡볶이","industry":"김밥/만두/분식","coordinates":[127.379040489818,36.3295690173493],"sales":{"202602":460}},{"id":"MA010120220806215691","name":"영산건축사사무소","industry":"건축 설계 및 관련 서비스업","coordinates":[127.375136240941,36.3282836381691],"sales":{"202602":2179}},{"id":"MA010120220806216070","name":"보안당","industry":"시계/귀금속 소매업","coordinates":[127.379510861626,36.3255122218256],"sales":{"202602":3494}},{"id":"MA010120220806216076","name":"안전자동차공업사","industry":"자동차 정비소","coordinates":[127.375631158662,36.3293004153635],"sales":{"202602":648}},{"id":"MA010120220806216187","name":"대전귀뚜라미보일러","industry":"가전제품 수리업","coordinates":[127.377615925691,36.3297807975115],"sales":{"202602":182}},{"id":"MA010120220806216378","name":"윈디","industry":"미용실","coordinates":[127.375947883172,36.3233606517944],"sales":{"202602":89}},{"id":"MA010120220806216594","name":"대성순대","industry":"국/탕/찌개류","coordinates":[127.374280110946,36.3285837110067],"sales":{"202602":463}},{"id":"MA010120220806217070","name":"칠갑산","industry":"돼지고기 구이/찜","coordinates":[127.383745702535,36.3238225084822],"sales":{"202602":3654}},{"id":"MA010120220806217748","name":"가원수석","industry":"그 외 기타 상품 전문 소매업","coordinates":[127.370907708688,36.3290448130376],"sales":{"202602":1546}},{"id":"MA010120220806218241","name":"그린편의점","industry":"슈퍼마켓","coordinates":[127.378515690823,36.3246862928943],"sales":{"202602":6674}},{"id":"MA010120220806218376","name":"티엔커뮤니케이션","industry":"광고 대행업","coordinates":[127.377642644913,36.3260858815438],"sales":{"202602":865}},{"id":"MA010120220806218561","name":"옥매트수리119","industry":"가전제품 소매업","coordinates":[127.37926384673,36.3250984636237],"sales":{"202602":1296}},{"id":"MA010120220806218728","name":"지호모터스","industry":"자동차 부품 소매업","coordinates":[127.377863295029,36.3302666519047],"sales":{"202602":301}},{"id":"MA010120220806218880","name":"그린옷수선집","industry":"의류/이불 수선업","coordinates":[127.375863784345,36.3290383423508],"sales":{"202602":133}},{"id":"MA010120220806219215","name":"동해식당","industry":"백반/한정식","coordinates":[127.384840865352,36.3268559593646],"sales":{"202602":471}},{"id":"MA010120220806219306","name":"초롱식당","industry":"백반/한정식","coordinates":[127.380923065864,36.3250661520705],"sales":{"202602":619}},{"id":"MA010120220806219580","name":"웅모터스","industry":"모터사이클 수리업","coordinates":[127.378387672718,36.3258492188795],"sales":{"202602":417}},{"id":"MA010120220806219581","name":"금성다방","industry":"카페","coordinates":[127.378948924528,36.3244596254609],"sales":{"202602":708}},{"id":"MA010120220806219670","name":"상상인테리어","industry":"인테리어 디자인업","coordinates":[127.385778846299,36.3273575955083],"sales":{"202602":698}},{"id":"MA010120220806220306","name":"카젠","industry":"자동차 정비소","coordinates":[127.383124710997,36.3243652078217],"sales":{"202602":720}},{"id":"MA010120220806220818","name":"실로암건강원","industry":"건강보조식품 소매업","coordinates":[127.376477671453,36.3293157755671],"sales":{"202602":1583}},{"id":"MA010120220806221454","name":"두두헤어","industry":"미용실","coordinates":[127.376390736698,36.3228185506026],"sales":{"202602":138}},{"id":"MA010120220806221580","name":"해성","industry":"핸드폰 소매업","coordinates":[127.378146870173,36.3221100880668],"sales":{"202602":124}},{"id":"MA010120220806221667","name":"장보고할인마트","industry":"슈퍼마켓","coordinates":[127.368584287282,36.3299531789763],"sales":{"202602":23150}},{"id":"MA010120220806222222","name":"대성주택관리","industry":"건축물 일반 청소업","coordinates":[127.385188102867,36.3272603711025],"sales":{"202602":211}},{"id":"MA010120220806222267","name":"이수희스마일리더십연구소","industry":"그 외 기타 교육기관","coordinates":[127.372483066089,36.330094292658],"sales":{"202602":1559}},{"id":"MA010120220806222686","name":"알베로","industry":"가구 소매업","coordinates":[127.367330077136,36.3332463405233],"sales":{"202602":521}},{"id":"MA010120220806223320","name":"동영건강원","industry":"건강보조식품 소매업","coordinates":[127.379829685188,36.3269530948979],"sales":{"202602":512}},{"id":"MA010120220806223514","name":"채움교육연구소","industry":"기타 교육지원 서비스업","coordinates":[127.369712005882,36.330553485479],"sales":{"202602":1882}},{"id":"MA010120220806223547","name":"봉순이네","industry":"백반/한정식","coordinates":[127.375137536895,36.3285539876311],"sales":{"202602":370}},{"id":"MA010120220806224289","name":"신창종합건축사사무소","industry":"건축 설계 및 관련 서비스업","coordinates":[127.381418012669,36.3283628869975],"sales":{"202602":4700}},{"id":"MA010120220806225576","name":"대전동아유리샷시","industry":"주방/가정용품 소매업","coordinates":[127.380818539557,36.3218943350663],"sales":{"202602":915}},{"id":"MA010120220806225592","name":"종합건축사사무소신창","industry":"건축 설계 및 관련 서비스업","coordinates":[127.381418012669,36.3283628869975],"sales":{"202602":4894}},{"id":"MA010120220806226424","name":"GS25대전","industry":"편의점","coordinates":[127.377351192247,36.3233832652687],"sales":{"202602":1478}},{"id":"MA010120220806227371","name":"김소현피부샵","industry":"피부 관리실","coordinates":[127.382497601222,36.3282152485118],"sales":{"202602":299}},{"id":"MA010120220806227643","name":"맛그랑","industry":"치킨","coordinates":[127.376724130614,36.3226733116465],"sales":{"202602":1292}},{"id":"MA010120220806228545","name":"대원자동차공업사","industry":"자동차 정비소","coordinates":[127.377713817432,36.3246798177156],"sales":{"202602":973}},{"id":"MA010120220806228800","name":"눈이넷안경원","industry":"안경렌즈 소매업","coordinates":[127.379833386888,36.3254210794792],"sales":{"202602":1401}},{"id":"MA010120220806230052","name":"둘리노래연습장","industry":"노래방","coordinates":[127.377556914487,36.3221660237151],"sales":{"202602":366}},{"id":"MA010120220806230368","name":"백마강숯불민물장어","industry":"해산물 구이/찜","coordinates":[127.376413795943,36.3299287779295],"sales":{"202602":482}},{"id":"MA010120220806230732","name":"한밭정보","industry":"컴퓨터/사무기기 대여업","coordinates":[127.378076367748,36.3259583454118],"sales":{"202602":902}},{"id":"MA010120220806232108","name":"중앙운동처방센터","industry":"헬스장","coordinates":[127.382819649135,36.3280249700481],"sales":{"202602":596}},{"id":"MA010120220806233014","name":"립","industry":"요리 주점","coordinates":[127.37926384673,36.3250984636237],"sales":{"202602":168}},{"id":"MA010120220806234480","name":"장터","industry":"일반 유흥 주점","coordinates":[127.380721248564,36.3247874296418],"sales":{"202602":756}},{"id":"MA010120220806235981","name":"대전부동산","industry":"중고 상품 소매업","coordinates":[127.377951597359,36.3231831089226],"sales":{"202602":250}},{"id":"MA010120220806236327","name":"영풍에어컨","industry":"가전제품 수리업","coordinates":[127.376477671453,36.3293157755671],"sales":{"202602":283}},{"id":"MA010120220806237010","name":"팝스","industry":"생맥주 전문","coordinates":[127.381002469567,36.3253632879764],"sales":{"202602":787}},{"id":"MA010120220806237047","name":"아이솝","industry":"화장품 소매업","coordinates":[127.381562156179,36.3259472687638],"sales":{"202602":890}},{"id":"MA010120220806237509","name":"뉴일출공인중개사사무소","industry":"부동산 중개/대리업","coordinates":[127.377747794964,36.3224898451832],"sales":{"202602":2241}},{"id":"MA010120220806238144","name":"정관장","industry":"건강보조식품 소매업","coordinates":[127.381418012669,36.3283628869975],"sales":{"202602":600}},{"id":"MA010120220806238269","name":"코스모아트","industry":"시각 디자인업","coordinates":[127.37765960875,36.3272934072879],"sales":{"202602":147}},{"id":"MA010120220806238302","name":"짬뽕명가상하이","industry":"중국집","coordinates":[127.37870446292,36.3222705350679],"sales":{"202602":1078}},{"id":"MA010120220806238533","name":"내동카서비스","industry":"자동차 정비소","coordinates":[127.376403698993,36.3301450924831],"sales":{"202602":266}},{"id":"MA010120220806238860","name":"헤어카페","industry":"미용실","coordinates":[127.380246377796,36.3233200195868],"sales":{"202602":106}},{"id":"MA010120220806244676","name":"영창흥업자","industry":"상용 인력 공급 및 인사관리 서비스업","coordinates":[127.378291640247,36.3221096299938],"sales":{"202602":948}},{"id":"MA010120220806246040","name":"정원기업자","industry":"상용 인력 공급 및 인사관리 서비스업","coordinates":[127.376021566387,36.3294253527353],"sales":{"202602":892}},{"id":"MA010120220806246848","name":"조형그룹건축사사무소주","industry":"건축 설계 및 관련 서비스업","coordinates":[127.387203789255,36.3272358347439],"sales":{"202602":7683}},{"id":"MA010120220806246887","name":"청우건축종합건축사사무소주","industry":"건축 설계 및 관련 서비스업","coordinates":[127.385326316382,36.3236642231732],"sales":{"202602":1413}},{"id":"MA010120220806247996","name":"전원이엔지","industry":"기타 엔지니어링 서비스업","coordinates":[127.384045898835,36.3237224146705],"sales":{"202602":392}},{"id":"MA010120220806248192","name":"대산클렌징주","industry":"건축물 일반 청소업","coordinates":[127.377080251972,36.3295571941491],"sales":{"202602":1013}},{"id":"MA010120220806248928","name":"신화기획주","industry":"명함/간판/광고물 제작","coordinates":[127.384166959989,36.3279665765492],"sales":{"202602":2068}},{"id":"MA010120220806252314","name":"제네스","industry":"상용 인력 공급 및 인사관리 서비스업","coordinates":[127.378291640247,36.3221096299938],"sales":{"202602":382}},{"id":"MA010120220806252511","name":"미진개발","industry":"소독, 구충 및 방제 서비스업","coordinates":[127.382736829287,36.3247539573267],"sales":{"202602":800}},{"id":"MA010120220806253981","name":"우리자산관리","industry":"경영 컨설팅업","coordinates":[127.378952317851,36.3274605397159],"sales":{"202602":2098}},{"id":"MA010120220806254613","name":"씨앤에스주","industry":"상용 인력 공급 및 인사관리 서비스업","coordinates":[127.376021566387,36.3294253527353],"sales":{"202602":1244}},{"id":"MA010120220806254720","name":"푸른솔애드","industry":"명함/간판/광고물 제작","coordinates":[127.370783577451,36.3287027503489],"sales":{"202602":1046}},{"id":"MA010120220806255007","name":"신한방역공사주","industry":"소독, 구충 및 방제 서비스업","coordinates":[127.386227587308,36.3257610606216],"sales":{"202602":3274}},{"id":"MA010120220806255795","name":"티지에스대전주","industry":"컴퓨터/노트북/프린터 수리업","coordinates":[127.377872517635,36.3298701043843],"sales":{"202602":948}},{"id":"MA010120220806255957","name":"포도힐","industry":"슈퍼마켓","coordinates":[127.377898308758,36.3236789259089],"sales":{"202602":14980}},{"id":"MA010120220806256182","name":"케이","industry":"자동차 정비소","coordinates":[127.383903380107,36.3241824736928],"sales":{"202602":3460}},{"id":"MA010120220806256980","name":"소울크레아","industry":"시각 디자인업","coordinates":[127.375947883172,36.3233606517944],"sales":{"202602":520}},{"id":"MA010120220806267123","name":"성민세탁소","industry":"세탁소","coordinates":[127.383881857239,36.3220647722757],"sales":{"202602":114}},{"id":"MA010120220806349839","name":"유성피씨건설","industry":"건설기계/장비 대여업","coordinates":[127.384241157998,36.3272003365151],"sales":{}},{"id":"MA010120220806356230","name":"중고대통령","industry":"중고 상품 소매업","coordinates":[127.378550320801,36.3249385133092],"sales":{"202602":38}},{"id":"MA010120220806388381","name":"장어대가","industry":"해산물 구이/찜","coordinates":[127.378673016199,36.3226761653407],"sales":{"202602":3131}},{"id":"MA010120220806423827","name":"바로크음악학원","industry":"음악학원","coordinates":[127.384433945982,36.3233697075064],"sales":{"202602":234}},{"id":"MA010120220806473339","name":"휴레스트","industry":"그 외 기타 교육기관","coordinates":[127.380886542438,36.324426431509],"sales":{"202602":905}},{"id":"MA010120220806507899","name":"등뼈감자탕","industry":"국/탕/찌개류","coordinates":[127.381677364709,36.3244509442738],"sales":{"202602":639}},{"id":"MA010120220806537856","name":"미선이네맛집","industry":"요리 주점","coordinates":[127.380721248564,36.3247874296418],"sales":{"202602":194}},{"id":"MA010120220806551007","name":"숙이네순대국","industry":"국/탕/찌개류","coordinates":[127.369094052218,36.3294108988221],"sales":{"202602":1184}},{"id":"MA010120220806568978","name":"장모님손맛","industry":"백반/한정식","coordinates":[127.379742501181,36.3250518849633],"sales":{"202602":402}},{"id":"MA010120220806610944","name":"최가네꼬마김밥","industry":"김밥/만두/분식","coordinates":[127.378718546571,36.3251812987013],"sales":{"202602":370}},{"id":"MA010120220806635691","name":"그레이스학원","industry":"입시·교과학원","coordinates":[127.384433945982,36.3233697075064],"sales":{"202602":383}},{"id":"MA010120220806638899","name":"아은약국","industry":"약국","coordinates":[127.378824416741,36.3240454778124],"sales":{"202602":5449}},{"id":"MA010120220806711721","name":"대산공인중개사사무소","industry":"부동산 중개/대리업","coordinates":[127.387076826506,36.3263350676693],"sales":{"202602":1500}},{"id":"MA010120220806803776","name":"이북순대평양순대국밥","industry":"백반/한정식","coordinates":[127.383477305878,36.3281400150424],"sales":{"202602":196}},{"id":"MA010120220806828919","name":"민스헤어","industry":"미용실","coordinates":[127.381455205899,36.3245688067014],"sales":{"202602":135}},{"id":"MA010120220806880032","name":"윤스타일","industry":"여성 의류 소매업","coordinates":[127.379134835058,36.3260541223646],"sales":{"202602":655}},{"id":"MA010120220806904234","name":"에스제이헤어샵","industry":"미용실","coordinates":[127.375863784345,36.3290383423508],"sales":{"202602":108}},{"id":"MA010120220806911358","name":"가보인테리어","industry":"인테리어 디자인업","coordinates":[127.376304546925,36.328054671055],"sales":{"202602":1189}},{"id":"MA010120220806982346","name":"갤럭시PC","industry":"PC방","coordinates":[127.378550320801,36.3249385133092],"sales":{"202602":1941}},{"id":"MA010120220807019589","name":"현아트","industry":"액세서리/잡화 소매업","coordinates":[127.381861471723,36.3279469290445],"sales":{"202602":455}},{"id":"MA010120220807032779","name":"상큼헤어","industry":"미용실","coordinates":[127.372420517562,36.3286526021744],"sales":{"202602":450}},{"id":"MA010120220807033102","name":"맑은김유통,신재생에너지공사서비스센터","industry":"사업시설 유지·관리 서비스업","coordinates":[127.370092863683,36.3286598321265],"sales":{"202602":865}},{"id":"MA010120220807050670","name":"원카페","industry":"카페","coordinates":[127.375629558174,36.3289669844192],"sales":{"202602":629}},{"id":"MA010120220807064954","name":"대전덴트한밭카케어대전","industry":"자동차 정비소","coordinates":[127.387881754143,36.3269542713118],"sales":{"202602":3834}},{"id":"MA010120220807112765","name":"채윤건축설계","industry":"건축 설계 및 관련 서비스업","coordinates":[127.376147367697,36.3301098523275],"sales":{"202602":3508}},{"id":"MA010120220807163767","name":"견민한방자원연구소","industry":"교육컨설팅업","coordinates":[127.38409631832,36.3226498497291],"sales":{"202602":2046}},{"id":"MA010120220807202920","name":"지인당","industry":"기타 기술/직업 훈련학원","coordinates":[127.38146388285,36.3240641188538],"sales":{"202602":903}},{"id":"MA010120220807272318","name":"에스피브랜딩","industry":"시각 디자인업","coordinates":[127.372914844194,36.3295522393027],"sales":{"202602":266}},{"id":"MA010120220807274047","name":"봄약국","industry":"약국","coordinates":[127.379740254232,36.3291792895586],"sales":{"202602":7628}},{"id":"MA010120220807334226","name":"스마트카","industry":"자동차 부품 소매업","coordinates":[127.378651951661,36.3298315905336],"sales":{"202602":398}},{"id":"MA010120220807369023","name":"에이스다방","industry":"카페","coordinates":[127.377679368856,36.3221566250748],"sales":{"202602":481}},{"id":"MA010120220807384384","name":"금손언니","industry":"네일숍","coordinates":[127.375999755403,36.3225674509171],"sales":{"202602":114}},{"id":"MA010120220807404877","name":"씨카자동차유리글라스존차유리왕","industry":"자동차 정비소","coordinates":[127.367815436254,36.3322445402442],"sales":{"202602":222}},{"id":"MA010120220807485510","name":"대전원스톱코너","industry":"자동차 부품 소매업","coordinates":[127.37798187741,36.3248411825462],"sales":{"202602":168}},{"id":"MA010120220807665874","name":"태리주","industry":"전시/컨벤션/행사 대행 서비스업","coordinates":[127.378689079115,36.3236944468453],"sales":{"202602":1643}},{"id":"MA010120220807774771","name":"원컴퍼니","industry":"전시/컨벤션/행사 대행 서비스업","coordinates":[127.377027370164,36.3232040512826],"sales":{"202602":1174}},{"id":"MA010120220807825152","name":"갈채노래연습장","industry":"노래방","coordinates":[127.381455205899,36.3245688067014],"sales":{"202602":228}},{"id":"MA010120220807996074","name":"대전에어컨","industry":"가전제품 소매업","coordinates":[127.376086534398,36.326721612966],"sales":{"202602":1756}},{"id":"MA010120220808047887","name":"알토란공인중개사사무소","industry":"부동산 중개/대리업","coordinates":[127.380243077935,36.3249331403472],"sales":{"202602":2797}},{"id":"MA010120220808088069","name":"대전사람수부씨","industry":"카페","coordinates":[127.38392706483,36.3221998039475],"sales":{"202602":1091}},{"id":"MA010120220808109255","name":"아라한식부페","industry":"뷔페","coordinates":[127.378458595494,36.3220910779205],"sales":{"202602":2525}},{"id":"MA010120220808109414","name":"렌탈스토리","industry":"기타 개인/가정용품 대여업","coordinates":[127.383362315894,36.3274014177316],"sales":{"202602":972}},{"id":"MA010120220808146037","name":"변동컴퓨터수리","industry":"컴퓨터/노트북/프린터 수리업","coordinates":[127.381156538993,36.3249843017076],"sales":{"202602":1141}},{"id":"MA010120220808146839","name":"에이치에스컴퍼니","industry":"광고물 설계/제작업","coordinates":[127.381553523698,36.326460968102],"sales":{"202602":587}},{"id":"MA010120220808149051","name":"미환경","industry":"소독, 구충 및 방제 서비스업","coordinates":[127.384017580312,36.3270298311545],"sales":{"202602":1079}},{"id":"MA010120220808276729","name":"인테리어","industry":"인테리어 디자인업","coordinates":[127.382101613328,36.3223858889978],"sales":{"202602":840}},{"id":"MA010120220808285113","name":"중앙메딕스충청지사","industry":"의료기기 소매업","coordinates":[127.383952616086,36.3274085347563],"sales":{"202602":4056}},{"id":"MA010120220808285501","name":"신세계시스템","industry":"가전제품 수리업","coordinates":[127.375434407481,36.3300760468168],"sales":{"202602":321}},{"id":"MA010120220808325638","name":"미소토탈홈케어","industry":"건축물 일반 청소업","coordinates":[127.375603023546,36.3257588720766],"sales":{"202602":558}},{"id":"MA010120220808363167","name":"민형제수산","industry":"수산물 소매업","coordinates":[127.379946265577,36.3234381271849],"sales":{"202602":2495}},{"id":"MA010120220808442684","name":"이지파워","industry":"건설기계/장비 대여업","coordinates":[127.384241157998,36.3272003365151],"sales":{}},{"id":"MA010120220808473829","name":"황태해장국","industry":"국/탕/찌개류","coordinates":[127.379418448314,36.3248276193301],"sales":{"202602":797}},{"id":"MA010120220808508973","name":"은희네포차","industry":"백반/한정식","coordinates":[127.37926384673,36.3250984636237],"sales":{"202602":500}},{"id":"MA010120220808511217","name":"끌리고","industry":"주방/가정용품 소매업","coordinates":[127.381651840026,36.3237841534079],"sales":{"202602":338}},{"id":"MA010120220808523567","name":"썬노래연습장","industry":"노래방","coordinates":[127.375137536895,36.3285539876311],"sales":{"202602":350}},{"id":"MA010120220808534352","name":"대전컴퓨터수리센터","industry":"가전제품 수리업","coordinates":[127.386166058603,36.326833661722],"sales":{"202602":447}},{"id":"MA010120220808609283","name":"본가옥해장국","industry":"국/탕/찌개류","coordinates":[127.377863295029,36.3302666519047],"sales":{"202602":529}},{"id":"MA010120220808624148","name":"마니아","industry":"요리 주점","coordinates":[127.37856435603,36.323235240593],"sales":{"202602":524}},{"id":"MA010120220808626956","name":"특별한커피엔알씨티에스일반음식점","industry":"카페","coordinates":[127.387076826506,36.3263350676693],"sales":{"202602":412}},{"id":"MA010120220808680489","name":"드림","industry":"요리 주점","coordinates":[127.378892413196,36.3242885806115],"sales":{"202602":258}},{"id":"MA010120220808763461","name":"엄마손김밥","industry":"김밥/만두/분식","coordinates":[127.379489287463,36.3256564789186],"sales":{"202602":529}},{"id":"MA010120220808764369","name":"골드","industry":"노래방","coordinates":[127.378538399718,36.3247763388677],"sales":{"202602":660}},{"id":"MA010120220808801658","name":"굿모닝장식","industry":"인테리어 디자인업","coordinates":[127.37926384673,36.3250984636237],"sales":{"202602":962}},{"id":"MA010120220809207562","name":"충무엄마손분식","industry":"김밥/만두/분식","coordinates":[127.384707533522,36.3269194710645],"sales":{"202602":213}},{"id":"MA010120220809274006","name":"바리스타케이","industry":"카페","coordinates":[127.376501453246,36.3249990552634],"sales":{"202602":1722}},{"id":"MA010120220809298053","name":"SD홈케어","industry":"건축물 일반 청소업","coordinates":[127.384433945982,36.3233697075064],"sales":{"202602":734}},{"id":"MA010120220809332081","name":"세븐일레븐대전변동","industry":"편의점","coordinates":[127.369349612574,36.329283944382],"sales":{"202602":2094}},{"id":"MA010120220809573485","name":"뷰티앤쑤","industry":"피부 관리실","coordinates":[127.385751375544,36.3263033055148],"sales":{"202602":561}},{"id":"MA010120220809573808","name":"라파탁구클럽","industry":"탁구장","coordinates":[127.377863295029,36.3302666519047],"sales":{"202602":194}},{"id":"MA010120220809595253","name":"비체","industry":"전기용품/조명장치 소매업","coordinates":[127.370085860494,36.3295339969412],"sales":{"202602":683}},{"id":"MA010120220809601246","name":"우주기획","industry":"광고물 설계/제작업","coordinates":[127.385810968641,36.327096150127],"sales":{"202602":234}},{"id":"MA010120220809620371","name":"알뜰매장","industry":"중고 상품 소매업","coordinates":[127.381421269392,36.3244607735394],"sales":{"202602":124}},{"id":"MA010120220809672676","name":"메이폴","industry":"슈퍼마켓","coordinates":[127.378718546571,36.3251812987013],"sales":{"202602":8085}},{"id":"MA010120220809703001","name":"방과후과학교육진흥회","industry":"서점","coordinates":[127.380217926274,36.3289254410983],"sales":{"202602":8293}},{"id":"MA010120220809714841","name":"먹태랑호프랑","industry":"생맥주 전문","coordinates":[127.380843575074,36.3247509927969],"sales":{"202602":1341}},{"id":"MA010120220809715159","name":"씨에스시스템","industry":"가전제품 수리업","coordinates":[127.378387672718,36.3258492188795],"sales":{"202602":363}},{"id":"MA010120220809812891","name":"박사공인중개사사무소","industry":"부동산 중개/대리업","coordinates":[127.368519627948,36.3304129793232],"sales":{"202602":2861}},{"id":"MA010120220809814706","name":"하늘빛정숙지사","industry":"건강보조식품 소매업","coordinates":[127.384783070758,36.3241616215184],"sales":{"202602":768}},{"id":"MA010120220809815736","name":"둥지카센타","industry":"자동차 정비소","coordinates":[127.368563625582,36.3302956904741],"sales":{"202602":421}},{"id":"MA010120220809816852","name":"도나트앤코","industry":"기타 기술/직업 훈련학원","coordinates":[127.381461462686,36.3281374537706],"sales":{"202602":2255}},{"id":"MA010120220809827396","name":"변동뒷고기","industry":"돼지고기 구이/찜","coordinates":[127.381010359837,36.3246963905447],"sales":{"202602":1319}},{"id":"MA010120220809854558","name":"카페보타니","industry":"카페","coordinates":[127.378673016199,36.3226761653407],"sales":{"202602":492}},{"id":"MA010120220809957029","name":"살롱드봄","industry":"미용실","coordinates":[127.379369929268,36.3263057064477],"sales":{"202602":94}},{"id":"MA010120220809973767","name":"에스사운드","industry":"전시/컨벤션/행사 대행 서비스업","coordinates":[127.367175036593,36.3334360642923],"sales":{"202602":1566}},{"id":"MA010120220809994745","name":"뱅크노래연습장","industry":"노래방","coordinates":[127.382074042368,36.3281445089513],"sales":{"202602":300}},{"id":"MA010120220810019382","name":"모아공인중개사사무소","industry":"부동산 중개/대리업","coordinates":[127.37844133367,36.3231274886558],"sales":{"202602":2463}},{"id":"MA010120220810022836","name":"다비다","industry":"침구류/커튼 소매업","coordinates":[127.38586323174,36.3264020740932],"sales":{"202602":634}},{"id":"MA010120220810036090","name":"대한모터스","industry":"자동차 정비소","coordinates":[127.381382405667,36.327912411479],"sales":{"202602":202}},{"id":"MA010120220810106462","name":"조은빨래방","industry":"셀프 빨래방","coordinates":[127.367428674996,36.3305244794494],"sales":{"202602":263}},{"id":"MA010120220810129219","name":"라인씨지","industry":"시각 디자인업","coordinates":[127.376706498787,36.3236376289314],"sales":{"202602":176}},{"id":"MA010120220810151315","name":"골든터치","industry":"건축물 일반 청소업","coordinates":[127.384433945982,36.3233697075064],"sales":{"202602":651}},{"id":"MA010120220810152552","name":"훈기타웍스","industry":"악기 소매업","coordinates":[127.383002297976,36.3243836237004],"sales":{"202602":1614}},{"id":"MA010120220810170183","name":"착한선희네식당","industry":"백반/한정식","coordinates":[127.379510861626,36.3255122218256],"sales":{"202602":317}},{"id":"MA010120220810175196","name":"도원주택관리","industry":"건축물 일반 청소업","coordinates":[127.380932232904,36.3269495861577],"sales":{"202602":758}},{"id":"MA010120220810243821","name":"놀부펫","industry":"애완동물/애완용품 소매업","coordinates":[127.378689079115,36.3236944468453],"sales":{"202602":86}},{"id":"MA010120220810283678","name":"임가네가정식백반","industry":"백반/한정식","coordinates":[127.384433945982,36.3233697075064],"sales":{"202602":1547}},{"id":"MA010120220810305297","name":"현대셀프주유소","industry":"주유소","coordinates":[127.38516872204,36.3233222831332],"sales":{"202602":39192}},{"id":"MA010120220810366575","name":"그린빈","industry":"카페","coordinates":[127.378621238063,36.3257853967486],"sales":{"202602":871}},{"id":"MA010120220810384990","name":"백두통신","industry":"핸드폰 소매업","coordinates":[127.379489287463,36.3256564789186],"sales":{"202602":260}},{"id":"MA010120220810424568","name":"성심시스템에어컨","industry":"가전제품 소매업","coordinates":[127.3828058819,36.3229333548614],"sales":{"202602":515}},{"id":"MA010120220810427801","name":"서구대명인력","industry":"고용 알선업","coordinates":[127.37926384673,36.3250984636237],"sales":{"202602":16011}},{"id":"MA010120220810446974","name":"대구아구찜","industry":"해산물 구이/찜","coordinates":[127.383777651617,36.3280669567971],"sales":{"202602":2186}},{"id":"MA010120220810579971","name":"디자인리드넷","industry":"광고 대행업","coordinates":[127.378892413196,36.3242885806115],"sales":{"202602":1828}},{"id":"MA010120220810750228","name":"차량토탈관리","industry":"자동차 세차장","coordinates":[127.378087904687,36.3283464320241],"sales":{"202602":897}},{"id":"MA010120220810967864","name":"로안나","industry":"기타 의류 소매업","coordinates":[127.367359640204,36.3324261776755],"sales":{"202602":204}},{"id":"MA010120220810974335","name":"행복을굽는교실","industry":"기타 교육지원 서비스업","coordinates":[127.377293437912,36.3275739290325],"sales":{"202602":575}},{"id":"MA010120220811129408","name":"라니의홈쿡","industry":"입시·교과학원","coordinates":[127.368709982031,36.3306286750537],"sales":{"202602":209}},{"id":"MA010120220811210215","name":"푸르미세차협동조합","industry":"자동차 세차장","coordinates":[127.371125408832,36.3279807465928],"sales":{"202602":885}},{"id":"MA010120220811660596","name":"참좋은집수리쎈터","industry":"그 외 기타 개인/가정용품 수리업","coordinates":[127.379839522489,36.3220957095233],"sales":{"202602":100}},{"id":"MA010120220811835977","name":"하나모터스","industry":"자동차 정비소","coordinates":[127.381078934058,36.3250566434507],"sales":{"202602":9663}},{"id":"MA010120220811840868","name":"나라장어","industry":"해산물 구이/찜","coordinates":[127.37956352931,36.3248902412342],"sales":{"202602":2636}},{"id":"MA010120220811902777","name":"세븐일레븐대전코디","industry":"편의점","coordinates":[127.379103706931,36.3219268213954],"sales":{"202602":3138}},{"id":"MA010120220811913534","name":"대륙광고","industry":"명함/간판/광고물 제작","coordinates":[127.378220927193,36.3259128291361],"sales":{"202602":1958}},{"id":"MA010120220811914101","name":"전진모터스","industry":"자동차 정비소","coordinates":[127.374079298784,36.3285122453867],"sales":{"202602":1176}},{"id":"MA010120220811927928","name":"그린홈케어","industry":"건축물 일반 청소업","coordinates":[127.376505658306,36.3258731854906],"sales":{"202602":405}},{"id":"MA010120220811936991","name":"디에이치산업개발","industry":"건축물 일반 청소업","coordinates":[127.378291640247,36.3221096299938],"sales":{"202602":451}},{"id":"MA010120220811940426","name":"준이네","industry":"백반/한정식","coordinates":[127.381455205899,36.3245688067014],"sales":{"202602":242}},{"id":"MA010120220811976411","name":"대전알뜰장터","industry":"중고 상품 소매업","coordinates":[127.377951597359,36.3231831089226],"sales":{"202602":547}},{"id":"MA010120220811994563","name":"도마육류정육식당","industry":"소고기 구이/찜","coordinates":[127.376724130614,36.3226733116465],"sales":{"202602":2363}},{"id":"MA010120220812056281","name":"미래에너지시스템","industry":"기타 엔지니어링 서비스업","coordinates":[127.376706498787,36.3236376289314],"sales":{"202602":843}},{"id":"MA010120220812061612","name":"감각인테리어","industry":"인테리어 디자인업","coordinates":[127.377293437912,36.3275739290325],"sales":{"202602":468}},{"id":"MA010120220812074285","name":"나라소방","industry":"그 외 기타 상품 전문 소매업","coordinates":[127.379767193358,36.327845460123],"sales":{"202602":975}},{"id":"MA010120220812093165","name":"신나는노래연습장","industry":"노래방","coordinates":[127.374280110946,36.3285837110067],"sales":{"202602":607}},{"id":"MA010120220812126767","name":"현대직업전문학교","industry":"기타 기술/직업 훈련학원","coordinates":[127.377369294008,36.3225180761041],"sales":{"202602":1286}},{"id":"MA010120220812146299","name":"바른라이프","industry":"장례식장","coordinates":[127.384707533522,36.3269194710645],"sales":{"202602":14878}},{"id":"MA010120220812151724","name":"도마변동현대공인중개사사무소","industry":"부동산 중개/대리업","coordinates":[127.380243077935,36.3249331403472],"sales":{"202602":4853}},{"id":"MA010120220812155885","name":"한결하우스","industry":"부동산 중개/대리업","coordinates":[127.382003665579,36.3251347977591],"sales":{"202602":3714}},{"id":"MA010120220812185357","name":"다온티앤씨","industry":"소독, 구충 및 방제 서비스업","coordinates":[127.375303080481,36.3282380554946],"sales":{"202602":1699}},{"id":"MA010120220812222734","name":"향우갈비촌","industry":"돼지고기 구이/찜","coordinates":[127.379315249773,36.3219171384999],"sales":{"202602":1396}},{"id":"MA010120220812229284","name":"대전아이폰수리고치고","industry":"핸드폰/통신장비 수리업","coordinates":[127.380939953178,36.3285356354524],"sales":{"202602":337}},{"id":"MA010120220812239185","name":"반하인테리어","industry":"인테리어 디자인업","coordinates":[127.374073589381,36.3296477479952],"sales":{"202602":687}},{"id":"MA010120220812291506","name":"진글래스","industry":"자동차 정비소","coordinates":[127.375232997279,36.3229123084908],"sales":{"202602":292}},{"id":"MA010120220812309955","name":"가람","industry":"법무사","coordinates":[127.37878173113,36.3267311258333],"sales":{"202602":1052}},{"id":"MA010120220812318946","name":"신정육식당","industry":"소고기 구이/찜","coordinates":[127.37926384673,36.3250984636237],"sales":{"202602":1203}},{"id":"MA010120220812338389","name":"스마트","industry":"주방/가정용품 소매업","coordinates":[127.384943469381,36.3228093367686],"sales":{"202602":856}},{"id":"MA010120220812424916","name":"액티브에이디","industry":"자동차 대여업","coordinates":[127.380217926274,36.3289254410983],"sales":{"202602":471}},{"id":"MA010120220812428620","name":"유가네파육개장","industry":"국/탕/찌개류","coordinates":[127.383423276785,36.3239316846371],"sales":{"202602":1871}},{"id":"MA010120220812508801","name":"스피드시스템","industry":"부동산 중개/대리업","coordinates":[127.378292756616,36.326948957253],"sales":{"202602":1500}},{"id":"MA010120220812515139","name":"가온프린팅","industry":"복사업","coordinates":[127.379719759614,36.3272508330673],"sales":{"202602":728}},{"id":"MA010120220812538694","name":"둔곡지구공인중개사사무소","industry":"부동산 중개/대리업","coordinates":[127.379957878246,36.3281242193973],"sales":{"202602":4183}},{"id":"MA010120220812646399","name":"이동밥차변동고을","industry":"돼지고기 구이/찜","coordinates":[127.380243077935,36.3249331403472],"sales":{"202602":701}},{"id":"MA010120220812692917","name":"티아이에스","industry":"경영 컨설팅업","coordinates":[127.375946324965,36.3230362321861],"sales":{"202602":413}},{"id":"MA010120220812726722","name":"월평모터스","industry":"자동차 부품 소매업","coordinates":[127.378427706047,36.3272188836314],"sales":{"202602":95}},{"id":"MA010120220812728683","name":"미연인테리어","industry":"인테리어 디자인업","coordinates":[127.379518977102,36.3225923762542],"sales":{"202602":1290}},{"id":"MA010120220812729657","name":"신영이용원","industry":"미용실","coordinates":[127.378220927193,36.3259128291361],"sales":{"202602":218}},{"id":"MA010120220812741108","name":"백마기원","industry":"바둑/장기/체스 경기 운영업","coordinates":[127.380935742045,36.3276705177078],"sales":{"202602":186}},{"id":"MA010120220812761006","name":"보타니","industry":"경양식","coordinates":[127.378673016199,36.3226761653407],"sales":{"202602":6541}},{"id":"MA010120220812796702","name":"미이테크","industry":"소독, 구충 및 방제 서비스업","coordinates":[127.378673016199,36.3226761653407],"sales":{"202602":2122}},{"id":"MA010120220812829307","name":"목연","industry":"액세서리/잡화 소매업","coordinates":[127.366431291142,36.3315909317857],"sales":{"202602":681}},{"id":"MA010120220812836633","name":"이상원공인중개사사무소","industry":"부동산 중개/대리업","coordinates":[127.375629558174,36.3289669844192],"sales":{"202602":3596}},{"id":"MA010120220812923134","name":"매점","industry":"슈퍼마켓","coordinates":[127.380843883654,36.3271030680332],"sales":{"202602":11246}},{"id":"MA010120220812941458","name":"여행이야기","industry":"여행사","coordinates":[127.380022315765,36.3253393728732],"sales":{"202602":4199}},{"id":"MA010120220812992570","name":"세이프휠","industry":"그 외 기타 개인/가정용품 수리업","coordinates":[127.371604642313,36.3280513519049],"sales":{"202602":216}},{"id":"MA010120220813058668","name":"이쁜내미용실","industry":"미용실","coordinates":[127.378638983044,36.3294531367997],"sales":{"202602":115}},{"id":"MA010120220813062739","name":"창가애","industry":"침구류/커튼 소매업","coordinates":[127.37926384673,36.3250984636237],"sales":{"202602":673}},{"id":"MA010120220813082213","name":"주민공인중개사사무소","industry":"부동산 중개/대리업","coordinates":[127.384760443474,36.3240896000543],"sales":{"202602":1908}},{"id":"MA010120220813100637","name":"궁전노래연습장","industry":"노래방","coordinates":[127.377747794964,36.3224898451832],"sales":{"202602":780}},{"id":"MA010120220813161007","name":"우성서비스센터","industry":"가전제품 수리업","coordinates":[127.38369695325,36.3275084853602],"sales":{"202602":187}},{"id":"MA010120220813198847","name":"엠디텍","industry":"경영 컨설팅업","coordinates":[127.372011058116,36.329203596142],"sales":{"202602":1434}},{"id":"MA010120220813206680","name":"네거리공인중개사사무소","industry":"부동산 중개/대리업","coordinates":[127.379489287463,36.3256564789186],"sales":{"202602":2704}},{"id":"MA010120220813243370","name":"도마정문공인중개사사무소","industry":"부동산 중개/대리업","coordinates":[127.382288815154,36.3242327073378],"sales":{"202602":2705}},{"id":"MA010120220813281291","name":"성민ENG","industry":"가전제품 수리업","coordinates":[127.368442218074,36.3305303711563],"sales":{"202602":203}},{"id":"MA010120220813298112","name":"리치","industry":"경영 컨설팅업","coordinates":[127.382003665579,36.3251347977591],"sales":{"202602":1702}},{"id":"MA010120220813364889","name":"Y.P기획","industry":"명함/간판/광고물 제작","coordinates":[127.375046410412,36.3281307197344],"sales":{"202602":1189}},{"id":"MA010120220813400165","name":"위드보나WithBona","industry":"카페","coordinates":[127.371585577484,36.328727295085],"sales":{"202602":503}},{"id":"MA010120220813401318","name":"청담","industry":"건축물 일반 청소업","coordinates":[127.383489344657,36.3237782722846],"sales":{"202602":391}},{"id":"MA010120220813460433","name":"우리에어컨","industry":"가전제품 수리업","coordinates":[127.384341049854,36.3225949923348],"sales":{"202602":229}},{"id":"MA010120220813484182","name":"예인","industry":"의류 대여업","coordinates":[127.374855699768,36.3278429408727],"sales":{"202602":1032}},{"id":"MA010120220813484783","name":"룩1978","industry":"기타 의류 소매업","coordinates":[127.376354598973,36.3291990099847],"sales":{"202602":268}},{"id":"MA010120220813499522","name":"파비스애니원효소다이어트","industry":"건강보조식품 소매업","coordinates":[127.375220046637,36.3225338538445],"sales":{"202602":1413}},{"id":"MA010120220813519204","name":"우리집","industry":"백반/한정식","coordinates":[127.376953209562,36.3263043406844],"sales":{"202602":406}},{"id":"MA010120220813538790","name":"식신생선구이","industry":"해산물 구이/찜","coordinates":[127.386603644337,36.3274901073029],"sales":{"202602":586}},{"id":"MA010120220813580174","name":"프렌드식당","industry":"요리 주점","coordinates":[127.375521819289,36.3297243127178],"sales":{"202602":722}},{"id":"MA010120220813586731","name":"와이멕스","industry":"전시/컨벤션/행사 대행 서비스업","coordinates":[127.378689079115,36.3236944468453],"sales":{"202602":2917}},{"id":"MA010120220813638260","name":"윤형","industry":"주유소","coordinates":[127.380009581271,36.3273039826969],"sales":{"202602":19547}},{"id":"MA010120220813651214","name":"퓨어","industry":"담배/전자담배 소매업","coordinates":[127.375587369044,36.3224966530593],"sales":{"202602":922}},{"id":"MA010120220813667570","name":"공주칼국수식당","industry":"국수/칼국수","coordinates":[127.383659217556,36.3243544816067],"sales":{"202602":2058}},{"id":"MA010120220813682778","name":"파고스","industry":"카페","coordinates":[127.38035623908,36.3253022636026],"sales":{"202602":306}},{"id":"MA010120220813735721","name":"제주뒷고기","industry":"돼지고기 구이/찜","coordinates":[127.382074042368,36.3281445089513],"sales":{"202602":2109}},{"id":"MA010120220813736768","name":"티에스텍","industry":"가전제품 수리업","coordinates":[127.38260600167,36.323051148091],"sales":{"202602":254}},{"id":"MA010120220813770571","name":"어우동포차","industry":"일식 면 요리","coordinates":[127.380923065864,36.3250661520705],"sales":{"202602":1281}},{"id":"MA010120220813776986","name":"쓰레기집청소집정리페기물처리유품정리대행업체","industry":"건축물 일반 청소업","coordinates":[127.369218092198,36.3297349399554],"sales":{"202602":1028}},{"id":"MA010120220813803373","name":"장어대가수산","industry":"해산물 구이/찜","coordinates":[127.378673016199,36.3226761653407],"sales":{"202602":1929}},{"id":"MA010120220813863135","name":"오케이부동산컨설팅","industry":"부동산 중개/대리업","coordinates":[127.37844133367,36.3231274886558],"sales":{"202602":2492}},{"id":"MA010120220813900966","name":"아이폭스","industry":"환경 관련 엔지니어링 서비스업","coordinates":[127.381598750249,36.3243160184505],"sales":{}},{"id":"MA010120220813931339","name":"테마종합건축사사무소","industry":"건축 설계 및 관련 서비스업","coordinates":[127.376147367697,36.3301098523275],"sales":{"202602":3000}},{"id":"MA010120220813950372","name":"국민디제이이종환문화협회","industry":"전시/컨벤션/행사 대행 서비스업","coordinates":[127.378538399718,36.3247763388677],"sales":{"202602":2039}},{"id":"MA010120220813950969","name":"넥스트랩","industry":"교육컨설팅업","coordinates":[127.372760854747,36.3299582498895],"sales":{"202602":1426}},{"id":"MA010120220813966627","name":"미소인테리어","industry":"인테리어 디자인업","coordinates":[127.382954867689,36.3215180264193],"sales":{"202602":1088}},{"id":"MA010120220814010866","name":"삼원에프엔에스","industry":"정육점","coordinates":[127.367362728819,36.3330840281348],"sales":{"202602":3806}},{"id":"MA010120220814025348","name":"모든모터스","industry":"자동차 정비소","coordinates":[127.377898308758,36.3236789259089],"sales":{"202602":1093}},{"id":"MA010120220814029441","name":"우리하나에너지우리하나셀프주유소","industry":"주유소","coordinates":[127.384724518053,36.3281089717091],"sales":{"202602":25906}},{"id":"MA010120220814034184","name":"이츠몽","industry":"산업설비, 운송장비 및 공공장소 청소업","coordinates":[127.370907708688,36.3290448130376],"sales":{"202602":239}},{"id":"MA010120220814070815","name":"세븐부동산컨설팅","industry":"부동산 중개/대리업","coordinates":[127.37844133367,36.3231274886558],"sales":{"202602":1499}},{"id":"MA010120220814162612","name":"스마트공조","industry":"가전제품 소매업","coordinates":[127.369917353731,36.3292281179053],"sales":{"202602":1051}},{"id":"MA010120220814165300","name":"문앤썬cafe","industry":"카페","coordinates":[127.377747794964,36.3224898451832],"sales":{"202602":388}},{"id":"MA010120220814167032","name":"세븐일레븐","industry":"편의점","coordinates":[127.386811415185,36.3267144217873],"sales":{"202602":2656}},{"id":"MA010120220814183219","name":"짱노래연습장","industry":"노래방","coordinates":[127.379742501181,36.3250518849633],"sales":{"202602":513}},{"id":"MA010120220814227456","name":"대선상재","industry":"벽지/장판/마루 소매업","coordinates":[127.378948924528,36.3244596254609],"sales":{"202602":198}},{"id":"MA010120220814248927","name":"뉴우리공인중개사사무소","industry":"부동산 중개/대리업","coordinates":[127.383659217556,36.3243544816067],"sales":{"202602":3685}},{"id":"MA010120220814299729","name":"감동돼지","industry":"돼지고기 구이/찜","coordinates":[127.379130998784,36.3229630909219],"sales":{"202602":2556}},{"id":"MA010120220814301573","name":"머리하는날","industry":"미용실","coordinates":[127.378146870173,36.3221100880668],"sales":{"202602":196}},{"id":"MA010120220814341825","name":"역마차","industry":"요리 주점","coordinates":[127.375375911156,36.3294904647039],"sales":{"202602":237}},{"id":"MA010120220814363736","name":"배떡","industry":"김밥/만두/분식","coordinates":[127.37533132245,36.3225154809046],"sales":{"202602":850}},{"id":"MA0101202209A0043707","name":"보람인테리어","industry":"인테리어 디자인업","coordinates":[127.379841636997,36.324826275267],"sales":{"202602":1646}},{"id":"MA0101202210A0022051","name":"만화1번지","industry":"만화방","coordinates":[127.378530749889,36.3254973061494],"sales":{"202602":585}},{"id":"MA0101202210A0051070","name":"눈꽃처럼협동조합","industry":"소독, 구충 및 방제 서비스업","coordinates":[127.371051978961,36.3289362238338],"sales":{"202602":839}},{"id":"MA0101202210A0082910","name":"은서네집","industry":"백반/한정식","coordinates":[127.377556914487,36.3221660237151],"sales":{"202602":705}},{"id":"MA0101202211A0020742","name":"대산인력사무소","industry":"고용 알선업","coordinates":[127.387076826506,36.3263350676693],"sales":{"202602":4726}},{"id":"MA0101202211A0027284","name":"스마트코칭교육원","industry":"기타 교육지원 서비스업","coordinates":[127.377198435395,36.3263486260001],"sales":{"202602":756}},{"id":"MA0101202211A0029644","name":"세탁인","industry":"세탁소","coordinates":[127.369773932985,36.3295169388006],"sales":{"202602":184}},{"id":"MA0101202211A0082090","name":"동강추어탕&장어구이","industry":"백반/한정식","coordinates":[127.37444583054,36.3283038266374],"sales":{"202602":459}},{"id":"MA0101202212A0000309","name":"대박아그로","industry":"그 외 기타 상품 전문 소매업","coordinates":[127.371949761226,36.3280232430735],"sales":{"202602":1881}},{"id":"MA0101202212A0038848","name":"매일미용실","industry":"미용실","coordinates":[127.375712450485,36.3299940670935],"sales":{"202602":66}},{"id":"MA0101202212A0084363","name":"푸드스토리","industry":"백반/한정식","coordinates":[127.375556701496,36.3300306037063],"sales":{"202602":639}},{"id":"MA0101202301A0016040","name":"네힐샵","industry":"네일숍","coordinates":[127.372003519438,36.3299606094221],"sales":{"202602":284}},{"id":"MA0101202302A0000181","name":"좋은대패","industry":"돼지고기 구이/찜","coordinates":[127.375587369044,36.3224966530593],"sales":{"202602":438}},{"id":"MA0101202302A0015605","name":"문화설비","industry":"가전제품 수리업","coordinates":[127.382533647856,36.3264758589142],"sales":{"202602":205}},{"id":"MA0101202302A0054448","name":"이동수순대국밥","industry":"백반/한정식","coordinates":[127.379596895264,36.3248811234883],"sales":{"202602":453}},{"id":"MA0101202302A0087078","name":"미담치유안마센터","industry":"유사 의료업","coordinates":[127.377129377227,36.3235732129295],"sales":{"202602":624}},{"id":"MA0101202302A0095109","name":"더드림공인중개사사무소","industry":"부동산 중개/대리업","coordinates":[127.381421269392,36.3244607735394],"sales":{"202602":3010}},{"id":"MA0101202303A0020635","name":"목운정육점","industry":"정육점","coordinates":[127.369494310964,36.3292654735813],"sales":{"202602":2805}},{"id":"MA0101202303A0038262","name":"스윗클라우드9","industry":"빵/도넛","coordinates":[127.371396545996,36.3287909651037],"sales":{"202602":825}},{"id":"MA0101202303A0056646","name":"해피투어여행사","industry":"여행사","coordinates":[127.380217926274,36.3289254410983],"sales":{"202602":2661}},{"id":"MA0101202305A0008346","name":"눈꽃인테리어","industry":"인테리어 디자인업","coordinates":[127.382288815154,36.3242327073378],"sales":{"202602":2045}},{"id":"MA0101202305A0064673","name":"빙구문구","industry":"문구/회화용품 소매업","coordinates":[127.368885326954,36.3323854314188],"sales":{"202602":220}},{"id":"MA0101202305A0078516","name":"용환포토","industry":"사진촬영업","coordinates":[127.374896061171,36.3292937115351],"sales":{"202602":257}},{"id":"MA0101202305A0137098","name":"서부수산","industry":"수산물 소매업","coordinates":[127.379315686816,36.3266032675331],"sales":{"202602":3742}},{"id":"MA0101202305A0166845","name":"구광","industry":"명함/간판/광고물 제작","coordinates":[127.387803260434,36.3268463846185],"sales":{"202602":1450}},{"id":"MA0101202305A0195709","name":"모든열쇠","industry":"그 외 기타 개인/가정용품 수리업","coordinates":[127.383034163864,36.3240681090051],"sales":{"202602":243}},{"id":"MA0101202306A0012232","name":"수연밥상","industry":"백반/한정식","coordinates":[127.380565599947,36.3248419960354],"sales":{"202602":383}},{"id":"MA0101202306A0015848","name":"더브라더족발","industry":"족발/보쌈","coordinates":[127.377401051577,36.3221755277154],"sales":{"202602":2238}},{"id":"MA0101202306A0054706","name":"토리스타특별한커피변동","industry":"카페","coordinates":[127.376724130614,36.3226733116465],"sales":{"202602":775}},{"id":"MA0101202306A0104342","name":"프롬데이지","industry":"시각 디자인업","coordinates":[127.37878173113,36.3267311258333],"sales":{"202602":192}},{"id":"MA0101202306A0106717","name":"수구리원조풍년식당","industry":"백반/한정식","coordinates":[127.380843575074,36.3247509927969],"sales":{"202602":329}},{"id":"MA0101202307A0057239","name":"상하의영어교실","industry":"외국어학원","coordinates":[127.376323052599,36.3226385278616],"sales":{"202602":1760}},{"id":"MA0101202307A0066490","name":"뮤직뱅크","industry":"생맥주 전문","coordinates":[127.380739310533,36.3285002276274],"sales":{"202602":848}},{"id":"MA0101202307A0079303","name":"메이풀","industry":"채소/과일 소매업","coordinates":[127.37871845936,36.3251632754014],"sales":{"202602":1735}},{"id":"MA0101202307A0082865","name":"탑스포츠","industry":"기타 스포츠시설 운영업","coordinates":[127.38465815836,36.3259373454818],"sales":{"202602":1929}},{"id":"MA0101202307A0096262","name":"웅이네돈까스","industry":"경양식","coordinates":[127.387020117802,36.326127980272],"sales":{"202602":3897}},{"id":"MA0101202308A0038614","name":"신재생에너지공사대전지사","industry":"경영 컨설팅업","coordinates":[127.370092863683,36.3286598321265],"sales":{"202602":1604}},{"id":"MA0101202308A0061537","name":"씨유","industry":"편의점","coordinates":[127.377642644913,36.3260858815438],"sales":{"202602":2029}},{"id":"MA0101202308A0077576","name":"아빠A/C","industry":"건축물 일반 청소업","coordinates":[127.381061223989,36.3259939257411],"sales":{"202602":1109}},{"id":"MA0101202308A0084107","name":"야무진파크골프","industry":"운동용품 소매업","coordinates":[127.381020092526,36.3244079822952],"sales":{"202602":2926}},{"id":"MA0101202308A0087297","name":"큰통치킨","industry":"치킨","coordinates":[127.379103706931,36.3219268213954],"sales":{"202602":903}},{"id":"MA0101202309A0011170","name":"카페오늘","industry":"카페","coordinates":[127.380739310533,36.3285002276274],"sales":{"202602":556}},{"id":"MA0101202309A0079902","name":"꿈","industry":"백반/한정식","coordinates":[127.378146870173,36.3221100880668],"sales":{"202602":144}},{"id":"MA0101202309A0091020","name":"비호","industry":"사업/무형 재산권 중개업","coordinates":[127.368434050819,36.3311612211231],"sales":{}},{"id":"MA0101202310A0021999","name":"도요포토","industry":"사진촬영업","coordinates":[127.377153560587,36.3239696554167],"sales":{"202602":186}},{"id":"MA0101202311A0030129","name":"이마트24","industry":"편의점","coordinates":[127.37524990157,36.3287609059432],"sales":{"202602":5581}},{"id":"MA0101202311A0032337","name":"나의생각","industry":"상용 인력 공급 및 인사관리 서비스업","coordinates":[127.378550320801,36.3249385133092],"sales":{"202602":311}},{"id":"MA0101202311A0039123","name":"초롱","industry":"요리 주점","coordinates":[127.38026543862,36.3249510927879],"sales":{"202602":80}},{"id":"MA0101202406A0043561","name":"스테이휴","industry":"펜션","coordinates":[127.376352518678,36.3287664509468],"sales":{"202602":297}},{"id":"MA0101202406A0118868","name":"서진푸드","industry":"백반/한정식","coordinates":[127.383952616086,36.3274085347563],"sales":{"202602":394}},{"id":"MA0101202406A0130900","name":"소리샘음향기기","industry":"중고 상품 소매업","coordinates":[127.379473043915,36.3269001569823],"sales":{"202602":154}},{"id":"MA0101202406A0238008","name":"지D인테리어","industry":"인테리어 디자인업","coordinates":[127.367803914672,36.3297933708193],"sales":{"202602":1012}},{"id":"MA0101202406A0290640","name":"타미띠에커피","industry":"카페","coordinates":[127.376311093197,36.32246734145],"sales":{"202602":413}},{"id":"MA0101202406A0310314","name":"보컬레시피","industry":"음악학원","coordinates":[127.369870036457,36.3286424983041],"sales":{"202602":492}},{"id":"MA0101202406A0322629","name":"동우인테리어","industry":"인테리어 디자인업","coordinates":[127.376345715438,36.3296676506421],"sales":{"202602":938}},{"id":"MA0101202406A0337073","name":"한지붕세탁소","industry":"세탁소","coordinates":[127.369063615657,36.3300418177026],"sales":{"202602":53}},{"id":"MA0101202406A0352099","name":"길모퉁이","industry":"백반/한정식","coordinates":[127.377679368856,36.3221566250748],"sales":{"202602":2020}},{"id":"MA0101202406A0392277","name":"스튜디오0F","industry":"시각 디자인업","coordinates":[127.37552534551,36.3281382277564],"sales":{"202602":123}},{"id":"MA0101202406A0525577","name":"미쓰봉","industry":"카페","coordinates":[127.370295932656,36.3292089220633],"sales":{"202602":670}},{"id":"MA0101202406A0541243","name":"비스트리","industry":"경영 컨설팅업","coordinates":[127.381421269392,36.3244607735394],"sales":{"202602":1843}},{"id":"MA0101202406A0557836","name":"더모아","industry":"명함/간판/광고물 제작","coordinates":[127.370783577451,36.3287027503489],"sales":{"202602":3035}},{"id":"MA0101202406A0569475","name":"한밭주거복지사회적협동조합","industry":"기타 의류 소매업","coordinates":[127.378440200841,36.3228931856653],"sales":{"202602":1096}},{"id":"MA0101202406A0585718","name":"와이엘엔지니어링","industry":"기타 엔지니어링 서비스업","coordinates":[127.36799874918,36.3285942036537],"sales":{"202602":2761}},{"id":"MA0101202406A0596104","name":"용명에너지신대전셀프주유소","industry":"주유소","coordinates":[127.380009581271,36.3273039826969],"sales":{"202602":40546}},{"id":"MA0101202408A0028825","name":"청휘수학전문","industry":"입시·교과학원","coordinates":[127.370295932656,36.3292089220633],"sales":{"202602":704}},{"id":"MA0101202408A0034493","name":"형제인력","industry":"고용 알선업","coordinates":[127.377747794964,36.3224898451832],"sales":{"202602":19205}},{"id":"MA0101202409A0025730","name":"예원인테리어","industry":"인테리어 디자인업","coordinates":[127.38047330968,36.3241844292772],"sales":{"202602":1217}},{"id":"MA0101202409A0064206","name":"수리당","industry":"백반/한정식","coordinates":[127.377747794964,36.3224898451832],"sales":{"202602":323}},{"id":"MA0101202409A0177586","name":"다래짬뽕이가냉면","industry":"중국집","coordinates":[127.375832926413,36.3295701345681],"sales":{"202602":1653}},{"id":"MA0101202409A0179425","name":"케이씨인테리어","industry":"인테리어 디자인업","coordinates":[127.38046249014,36.3219585514137],"sales":{"202602":1785}},{"id":"MA0101202409A0243593","name":"카페마리에","industry":"카페","coordinates":[127.374249716472,36.3292146310509],"sales":{"202602":997}},{"id":"MA0101202409A0246411","name":"영주네전주김치","industry":"반찬/식료품 소매업","coordinates":[127.377556914487,36.3221660237151],"sales":{"202602":2175}},{"id":"MA0101202409A0255083","name":"사랑채식품","industry":"반찬/식료품 소매업","coordinates":[127.373949055787,36.3292245838766],"sales":{"202602":536}},{"id":"MA0101202410A0203934","name":"나라수산","industry":"수산물 소매업","coordinates":[127.37926384673,36.3250984636237],"sales":{"202602":4302}},{"id":"MA0101202410A0204967","name":"변동미즈요양보호사교육원","industry":"기타 기술/직업 훈련학원","coordinates":[127.379173007751,36.3247382802868],"sales":{"202602":847}},{"id":"MA0101202410A0370636","name":"새마음연합의원","industry":"기타 의원","coordinates":[127.377749143154,36.3227692064812],"sales":{"202602":7773}},{"id":"MA0101202410A0426684","name":"NE플라워","industry":"꽃집","coordinates":[127.377737441544,36.3226520901632],"sales":{"202602":66}},{"id":"MA0101202410A0444498","name":"혜성음악학원","industry":"음악학원","coordinates":[127.375738653864,36.3261729880377],"sales":{"202602":564}},{"id":"MA0101202410A0478884","name":"홍수연꽃집","industry":"꽃집","coordinates":[127.372230158158,36.3284369123134],"sales":{"202602":277}},{"id":"MA0101202410A0478971","name":"윤진치과의원","industry":"치과의원","coordinates":[127.379851100956,36.3290707959537],"sales":{"202602":3659}},{"id":"MA0101202410A0479182","name":"늘푸른꽃집","industry":"꽃집","coordinates":[127.379246900941,36.32619795543],"sales":{"202602":502}},{"id":"MA0101202410A0479198","name":"신선육류정육점","industry":"정육점","coordinates":[127.37926384673,36.3250984636237],"sales":{"202602":668}},{"id":"MA0101202410A0479654","name":"용인대변동태권도","industry":"태권도/무술학원","coordinates":[127.384433945982,36.3233697075064],"sales":{"202602":487}},{"id":"MA0101202410A0480212","name":"수플라워","industry":"꽃집","coordinates":[127.369629191634,36.3295263982886],"sales":{"202602":279}},{"id":"MA0101202410A0480860","name":"편한석치과의원","industry":"치과의원","coordinates":[127.377749143154,36.3227692064812],"sales":{"202602":2892}},{"id":"MA0101202410A0480909","name":"백합평생교육원","industry":"기타 기술/직업 훈련학원","coordinates":[127.386273779623,36.3260943473816],"sales":{"202602":1579}},{"id":"MA0101202410A0481014","name":"삼광상회","industry":"건어물/젓갈 소매업","coordinates":[127.379211654659,36.3281175774497],"sales":{"202602":2487}},{"id":"MA0101202410A0481018","name":"한내과의원","industry":"내과/소아과 의원","coordinates":[127.378824416741,36.3240454778124],"sales":{"202602":4986}},{"id":"MA0101202410A0481577","name":"행림내과의원","industry":"내과/소아과 의원","coordinates":[127.379134835058,36.3260541223646],"sales":{"202602":7199}},{"id":"MA0101202410A0481604","name":"이용배치과의원","industry":"치과의원","coordinates":[127.374280110946,36.3285837110067],"sales":{"202602":1794}},{"id":"MA0101202410A0481644","name":"아주정형외과의원","industry":"외과 의원","coordinates":[127.379740254232,36.3291792895586],"sales":{"202602":15175}},{"id":"MA0101202410A0481653","name":"서울가정의학과의원","industry":"내과/소아과 의원","coordinates":[127.378899742362,36.3258025377996],"sales":{"202602":12109}},{"id":"MA0101202410A0481658","name":"인삼당한의원","industry":"한의원","coordinates":[127.378756944011,36.3239105147847],"sales":{"202602":2799}},{"id":"MA0101202410A0481663","name":"미치과의원","industry":"치과의원","coordinates":[127.378824416741,36.3240454778124],"sales":{"202602":4035}},{"id":"MA0101202410A0523701","name":"고기마루","industry":"정육점","coordinates":[127.38046249014,36.3219585514137],"sales":{"202602":8025}},{"id":"MA0101202410A0684073","name":"김청용댄스스포츠학원","industry":"레크리에이션 교육기관","coordinates":[127.380346184569,36.3278165837477],"sales":{"202602":461}},{"id":"MA0101202410A0788108","name":"싱싱청과","industry":"채소/과일 소매업","coordinates":[127.381902424953,36.324927850164],"sales":{"202602":2590}},{"id":"MA0101202410A0815596","name":"명품건어물","industry":"건어물/젓갈 소매업","coordinates":[127.37547714786,36.3250563480375],"sales":{"202602":2349}},{"id":"MA0101202411A0016509","name":"우리당구클럽","industry":"당구장","coordinates":[127.377747794964,36.3224898451832],"sales":{"202602":193}},{"id":"MA0101202411A0051074","name":"쏭케이크","industry":"피자","coordinates":[127.384912232079,36.32325101504],"sales":{"202602":2486}},{"id":"MA0101202411A0064108","name":"헤라커튼","industry":"침구류/커튼 소매업","coordinates":[127.375264150088,36.3294097096044],"sales":{"202602":511}},{"id":"MA0101202411A0105836","name":"에프지랩","industry":"자동차 부품 소매업","coordinates":[127.372325986158,36.3298514639451],"sales":{"202602":2873}},{"id":"MA0101202411A0112467","name":"그린워터","industry":"가전제품 소매업","coordinates":[127.377898615555,36.3260490253945],"sales":{"202602":830}},{"id":"MA0101202411A0117055","name":"가온주택관리","industry":"건축물 일반 청소업","coordinates":[127.377898615555,36.3260490253945],"sales":{"202602":156}},{"id":"MA0101202412A0026344","name":"미소천사홈케어","industry":"건축물 일반 청소업","coordinates":[127.371796026582,36.3284833224451],"sales":{"202602":485}},{"id":"MA0101202502A0004013","name":"서진푸드","industry":"백반/한정식","coordinates":[127.383897152583,36.3274537718236],"sales":{"202602":716}},{"id":"MA0101202502A0009243","name":"로즈베리","industry":"사진촬영업","coordinates":[127.371949761226,36.3280232430735],"sales":{"202602":408}},{"id":"MA0101202502A0064668","name":"한우축산물판매장","industry":"정육점","coordinates":[127.380217926274,36.3289254410983],"sales":{"202602":4141}},{"id":"MA0101202502A0069869","name":"프레이즈컴퓨터","industry":"컴퓨터/소프트웨어 소매업","coordinates":[127.376706498787,36.3236376289314],"sales":{"202602":1168}},{"id":"MA0101202502A0086969","name":"제이에스주방세척기","industry":"주방/가정용품 소매업","coordinates":[127.375999755403,36.3225674509171],"sales":{"202602":386}},{"id":"MA0101202502A0101671","name":"굽네치킨내동","industry":"치킨","coordinates":[127.369783750117,36.3292375431085],"sales":{"202602":545}},{"id":"MA0101202503A0002770","name":"별빛수선의상실","industry":"의류/이불 수선업","coordinates":[127.3791761478,36.3276851244712],"sales":{"202602":139}},{"id":"MA0101202503A0050125","name":"깔끔인테리어","industry":"인테리어 디자인업","coordinates":[127.368377068745,36.3332521298814],"sales":{"202602":1156}},{"id":"MA0101202503A0053293","name":"한수테크","industry":"가전제품 수리업","coordinates":[127.375677842837,36.322784746115],"sales":{"202602":199}},{"id":"MA0101202503A0076023","name":"뷔페기사식당","industry":"백반/한정식","coordinates":[127.386781523196,36.3274264493512],"sales":{"202602":539}},{"id":"MA0101202504A0026530","name":"디피","industry":"시각 디자인업","coordinates":[127.367067355913,36.3318503216959],"sales":{"202602":151}},{"id":"MA0101202504A0038466","name":"퍼포먼스솔루션","industry":"광고 대행업","coordinates":[127.376114928276,36.3233601262905],"sales":{"202602":1008}},{"id":"MA0101202504A0105794","name":"향우공주칼국수","industry":"국수/칼국수","coordinates":[127.378291640247,36.3221096299938],"sales":{"202602":1785}},{"id":"MA0101202505A0013253","name":"도구필름","industry":"사진촬영업","coordinates":[127.368217068902,36.3323874920588],"sales":{"202602":471}},{"id":"MA0101202505A0023490","name":"새마을추어탕","industry":"국/탕/찌개류","coordinates":[127.378550320801,36.3249385133092],"sales":{"202602":1646}},{"id":"MA0101202505A0025413","name":"차담헌","industry":"카페","coordinates":[127.367443883114,36.3290194646619],"sales":{"202602":842}},{"id":"MA0101202505A0028614","name":"웨이브스튜디오","industry":"광고 대행업","coordinates":[127.37387290383,36.3296033170004],"sales":{"202602":1200}},{"id":"MA0101202505A0054258","name":"곁에미디어","industry":"사진촬영업","coordinates":[127.376802154338,36.3273141370272],"sales":{"202602":661}},{"id":"MA0101202505A0068225","name":"뽕따러가세","industry":"중국집","coordinates":[127.376306540962,36.3261531779458],"sales":{"202602":1687}},{"id":"MA0101202505A0086466","name":"에어쿨크린","industry":"소독, 구충 및 방제 서비스업","coordinates":[127.377129377227,36.3235732129295],"sales":{"202602":630}},{"id":"MA0106202201A1902539","name":"파크랜드대전","industry":"운동용품 소매업","coordinates":[127.379740021975,36.326836226587],"sales":{"202602":1229}},{"id":"MA0106202506A2315358","name":"향우공주칼국수","industry":"국수/칼국수","coordinates":[127.378291640247,36.3221096299938],"sales":{"202602":1512}},{"id":"MA0106202507A0995403","name":"복돈오리","industry":"백반/한정식","coordinates":[127.374624411523,36.32838437311],"sales":{"202602":606}},{"id":"MA0106202507A1102424","name":"더맨솔","industry":"미용실","coordinates":[127.373446678646,36.3289738246397],"sales":{"202602":193}},{"id":"MA0106202507A1495665","name":"신광상회","industry":"백반/한정식","coordinates":[127.384707533522,36.3269194710645],"sales":{"202602":126}},{"id":"MA0106202507A1520091","name":"지에스25대전변동스타","industry":"슈퍼마켓","coordinates":[127.369349612574,36.329283944382],"sales":{"202602":12415}},{"id":"MA0106202508A2229072","name":"주식회사 렛츠캠핑","industry":"운동용품 소매업","coordinates":[127.379096437854,36.3296229105979],"sales":{"202602":770}},{"id":"MA0106202508A2457786","name":"태용유통","industry":"그 외 기타 상품 전문 소매업","coordinates":[127.376646324452,36.3273326517446],"sales":{"202602":1061}},{"id":"MA0106202509A0763305","name":"남도한식뷔페","industry":"뷔페","coordinates":[127.384707533522,36.3269194710645],"sales":{"202602":4155}},{"id":"MA0106202509A1026256","name":"뭔닭인지알지","industry":"백반/한정식","coordinates":[127.369773932985,36.3295169388006],"sales":{"202602":258}},{"id":"MA0106202510A0949775","name":"빅픽처","industry":"광고 대행업","coordinates":[127.367055691653,36.3341123142796],"sales":{"202602":830}},{"id":"MA0106202510A1044734","name":"복온당","industry":"슈퍼마켓","coordinates":[127.372420517562,36.3286526021744],"sales":{"202602":12060}},{"id":"MA0106202510A1351269","name":"원포인트짐도마","industry":"헬스장","coordinates":[127.377749143154,36.3227692064812],"sales":{"202602":1036}},{"id":"MA0106202512A0015547","name":"헤어살롱앤","industry":"미용실","coordinates":[127.377747794964,36.3224898451832],"sales":{"202602":274}},{"id":"MA0106202601A0649892","name":"주식회사 승마트","industry":"슈퍼마켓","coordinates":[127.37789783016,36.3235797977247],"sales":{"202602":18449}},{"id":"MA0106202601A0882426","name":"그린프레임","industry":"기념품점","coordinates":[127.376046439099,36.3299659814097],"sales":{"202602":518}},{"id":"MA0106202601A0992980","name":"소울미디어","industry":"기타 산업용 기계/장비 대여업","coordinates":[127.371431368846,36.3290882457883],"sales":{"202602":378}},{"id":"MA0106202601A1070164","name":"일상간식","industry":"그 외 기타 간이 음식점","coordinates":[127.37878173113,36.3267311258333],"sales":{"202602":756}},{"id":"MA0106202601A1543943","name":"이제이푸드","industry":"백반/한정식","coordinates":[127.375137536895,36.3285539876311],"sales":{"202602":477}},{"id":"MA0106202601A1716227","name":"사주까페엔포차","industry":"백반/한정식","coordinates":[127.379369929268,36.3263057064477],"sales":{"202602":402}},{"id":"MA0106202602A0128928","name":"서진푸드 변동점","industry":"백반/한정식","coordinates":[127.383897152583,36.3274537718236],"sales":{"202602":768}},{"id":"MA0106202602A0759058","name":"인성바이오 변동점","industry":"건강보조식품 소매업","coordinates":[127.379235676868,36.3261799674693],"sales":{"202602":850}}]