[{"id":"MA010120220800043873","name":"꾸밈아뜰리에","industry":"그 외 기타 교육기관","coordinates":[127.382689379171,36.3401011636452],"sales":{"202602":696}},{"id":"MA010120220800052382","name":"근돈","industry":"돼지고기 구이/찜","coordinates":[127.38862899747,36.3406227021583],"sales":{"202602":1126}},{"id":"MA010120220800052997","name":"한마음","industry":"기타 기술/직업 훈련학원","coordinates":[127.382889346709,36.339992381977],"sales":{"202602":785}},{"id":"MA010120220800057490","name":"커브스괴정클럽","industry":"헬스장","coordinates":[127.382478291621,36.3333790593496],"sales":{"202602":1000}},{"id":"MA010120220800085119","name":"장미맨숀","industry":"요리 주점","coordinates":[127.38819932855,36.3393354165366],"sales":{"202602":531}},{"id":"MA010120220800095229","name":"풋조이롯데대전점","industry":"기타 의류 소매업","coordinates":[127.389542691581,36.3406828097712],"sales":{"202602":863}},{"id":"MA010120220800102725","name":"백곰사세탁소","industry":"세탁소","coordinates":[127.387314799665,36.3406630155946],"sales":{"202602":365}},{"id":"MA010120220800104046","name":"롯데대전나이스크랍","industry":"여성 의류 소매업","coordinates":[127.389542691581,36.3406828097712],"sales":{"202602":266}},{"id":"MA010120220800113864","name":"옛골찜","industry":"백반/한정식","coordinates":[127.382918550684,36.3368561935536],"sales":{"202602":556}},{"id":"MA010120220800115234","name":"펠리쓰팩토리아","industry":"카페","coordinates":[127.376923105781,36.3385514415506],"sales":{"202602":492}},{"id":"MA010120220800144785","name":"롯데대전헤지스남성","industry":"남성 의류 소매업","coordinates":[127.389542691581,36.3406828097712],"sales":{"202602":329}},{"id":"MA010120220800151081","name":"롱이카롱","industry":"기타 기술/직업 훈련학원","coordinates":[127.385908935929,36.3379279871405],"sales":{"202602":971}},{"id":"MA010120220800235668","name":"큐노래연습장","industry":"노래방","coordinates":[127.384114092875,36.3353473915163],"sales":{"202602":404}},{"id":"MA010120220800294783","name":"미강종합주택관리","industry":"사업시설 유지·관리 서비스업","coordinates":[127.379972646978,36.3380461375885],"sales":{"202602":1238}},{"id":"MA010120220800296896","name":"춘식당","industry":"백반/한정식","coordinates":[127.387287049804,36.3418075991989],"sales":{"202602":370}},{"id":"MA010120220800298088","name":"롯데대전갭키즈","industry":"유아용 의류 소매업","coordinates":[127.389542691581,36.3406828097712],"sales":{"202602":287}},{"id":"MA010120220800453249","name":"동방유통","industry":"반찬/식료품 소매업","coordinates":[127.385093477761,36.33971494707],"sales":{"202602":1592}},{"id":"MA010120220800456944","name":"건축사사무소정연","industry":"건축 설계 및 관련 서비스업","coordinates":[127.374980995318,36.3400444926273],"sales":{"202602":2828}},{"id":"MA010120220800458104","name":"오봉자싸롱","industry":"요리 주점","coordinates":[127.385462372244,36.3354602036696],"sales":{"202602":946}},{"id":"MA010120220800464748","name":"유닛","industry":"기타 의류 소매업","coordinates":[127.389542691581,36.3406828097712],"sales":{"202602":204}},{"id":"MA010120220800613211","name":"우리동네닭강정","industry":"치킨","coordinates":[127.385488474274,36.338497085361],"sales":{"202602":679}},{"id":"MA010120220800657748","name":"해윰책방","industry":"서점","coordinates":[127.38116125315,36.3373844935774],"sales":{"202602":638}},{"id":"MA010120220800676451","name":"천사마트","industry":"슈퍼마켓","coordinates":[127.387586169822,36.3392292654817],"sales":{"202602":6953}},{"id":"MA010120220800699191","name":"충남정형외과학연구회","industry":"전시/컨벤션/행사 대행 서비스업","coordinates":[127.387977396561,36.3417512894424],"sales":{"202602":707}},{"id":"MA010120220800708420","name":"수자상사","industry":"남성 의류 소매업","coordinates":[127.389542691581,36.3406828097712],"sales":{"202602":1232}},{"id":"MA010120220800754464","name":"브로콜리","industry":"미용실","coordinates":[127.38153863785,36.3371129363251],"sales":{"202602":237}},{"id":"MA010120220800758521","name":"카페올라","industry":"카페","coordinates":[127.386263957254,36.3421533572434],"sales":{"202602":365}},{"id":"MA010120220800828176","name":"완도수산","industry":"횟집","coordinates":[127.389207829588,36.3383047953061],"sales":{"202602":841}},{"id":"MA010120220800847341","name":"한쌈대패","industry":"돼지고기 구이/찜","coordinates":[127.383248989991,36.3360981457297],"sales":{"202602":2606}},{"id":"MA010120220800876608","name":"블링크에듀케이션","industry":"경영 컨설팅업","coordinates":[127.384005153803,36.3381143546798],"sales":{"202602":1223}},{"id":"MA010120220800889365","name":"프렌치캣롯데대전","industry":"유아용 의류 소매업","coordinates":[127.389542691581,36.3406828097712],"sales":{"202602":1480}},{"id":"MA010120220801049769","name":"춘추학사한문강의실","industry":"그 외 기타 교육기관","coordinates":[127.380347639478,36.3349899545642],"sales":{"202602":579}},{"id":"MA010120220801053857","name":"딜리버리킹","industry":"백반/한정식","coordinates":[127.38795575424,36.3396335956759],"sales":{"202602":1439}},{"id":"MA010120220801135936","name":"포트","industry":"요리 주점","coordinates":[127.384761610336,36.3424465799337],"sales":{"202602":1816}},{"id":"MA010120220801137057","name":"어상","industry":"일식 회/초밥","coordinates":[127.388120637781,36.3414354127145],"sales":{"202602":3323}},{"id":"MA010120220801150431","name":"로미스토리","industry":"기타 의류 소매업","coordinates":[127.389542691581,36.3406828097712],"sales":{"202602":283}},{"id":"MA010120220801232285","name":"키움쇼핑","industry":"주방/가정용품 소매업","coordinates":[127.380849950233,36.3375026390006],"sales":{"202602":653}},{"id":"MA010120220801233673","name":"에어드림냉난방","industry":"가전제품 수리업","coordinates":[127.384249374471,36.3402133110374],"sales":{"202602":138}},{"id":"MA010120220801240536","name":"한민시장떡갈비","industry":"돼지고기 구이/찜","coordinates":[127.383999129903,36.3346178074379],"sales":{"202602":2924}},{"id":"MA010120220801415360","name":"칠하는사람들","industry":"네일숍","coordinates":[127.381857919696,36.3340659378721],"sales":{"202602":134}},{"id":"MA010120220801974910","name":"토종순대마을","industry":"국/탕/찌개류","coordinates":[127.381889828385,36.3360394140366],"sales":{"202602":3346}},{"id":"MA010120220802399975","name":"SM공인중개사사무소","industry":"부동산 중개/대리업","coordinates":[127.380724971698,36.3347093881905],"sales":{"202602":1575}},{"id":"MA010120220802551645","name":"월드당구장","industry":"당구장","coordinates":[127.389314130099,36.3395210372232],"sales":{"202602":218}},{"id":"MA010120220802588050","name":"대전롯데소다","industry":"신발 소매업","coordinates":[127.389542691581,36.3406828097712],"sales":{"202602":932}},{"id":"MA010120220802662188","name":"힌즈","industry":"경영 컨설팅업","coordinates":[127.380849950233,36.3375026390006],"sales":{"202602":893}},{"id":"MA010120220802687299","name":"엠유스포츠","industry":"기타 의류 소매업","coordinates":[127.389542691581,36.3406828097712],"sales":{"202602":241}},{"id":"MA010120220802687372","name":"해자네가자","industry":"국수/칼국수","coordinates":[127.385208015364,36.3380924601765],"sales":{"202602":705}},{"id":"MA010120220802784792","name":"공룡닭발","industry":"닭/오리고기 구이/찜","coordinates":[127.390259654171,36.3392656240027],"sales":{"202602":1810}},{"id":"MA010120220802837719","name":"네일숑","industry":"네일숍","coordinates":[127.386358611057,36.3387646285063],"sales":{"202602":110}},{"id":"MA010120220802860542","name":"원'스디저트","industry":"빵/도넛","coordinates":[127.387287049804,36.3418075991989],"sales":{"202602":1839}},{"id":"MA010120220802864341","name":"서울새로이치과의원","industry":"치과의원","coordinates":[127.388410965078,36.341578657646],"sales":{"202602":4223}},{"id":"MA010120220802864357","name":"제이앤케이클래식호텔","industry":"여관/모텔","coordinates":[127.389934793459,36.338897202079],"sales":{"202602":1276}},{"id":"MA010120220802896821","name":"롯데대전라코스테우먼","industry":"기타 의류 소매업","coordinates":[127.389542691581,36.3406828097712],"sales":{"202602":903}},{"id":"MA010120220802901192","name":"데싱디자인","industry":"시각 디자인업","coordinates":[127.38175932442,36.3389686557556],"sales":{"202602":110}},{"id":"MA010120220802937963","name":"쉬즈미스","industry":"여성 의류 소매업","coordinates":[127.389542691581,36.3406828097712],"sales":{"202602":705}},{"id":"MA010120220802939629","name":"아람분식","industry":"김밥/만두/분식","coordinates":[127.384310726404,36.334562735261],"sales":{"202602":417}},{"id":"MA010120220802946472","name":"윤시스템","industry":"컴퓨터/소프트웨어 소매업","coordinates":[127.386351522685,36.3395847220008],"sales":{"202602":706}},{"id":"MA010120220802951494","name":"미도안동찜닭","industry":"닭/오리고기 구이/찜","coordinates":[127.385840016553,36.3375046566158],"sales":{"202602":666}},{"id":"MA010120220802957196","name":"롯데대전점르까프","industry":"기타 의류 소매업","coordinates":[127.389542691581,36.3406828097712],"sales":{"202602":1051}},{"id":"MA010120220802959906","name":"살롱드느티","industry":"요리 주점","coordinates":[127.386210784974,36.3381523062401],"sales":{"202602":552}},{"id":"MA010120220802961643","name":"진성종합알뜰","industry":"중고 상품 소매업","coordinates":[127.377050643563,36.3372803797569],"sales":{"202602":867}},{"id":"MA010120220802978975","name":"하늬","industry":"일반 유흥 주점","coordinates":[127.389469801618,36.3394664594314],"sales":{"202602":624}},{"id":"MA010120220802990883","name":"타미힐피거키즈","industry":"기타 의류 소매업","coordinates":[127.389542691581,36.3406828097712],"sales":{"202602":439}},{"id":"MA010120220803005389","name":"케이골프아카데미","industry":"골프 연습장","coordinates":[127.389542691581,36.3406828097712],"sales":{"202602":260}},{"id":"MA010120220803050875","name":"까치네식당","industry":"백반/한정식","coordinates":[127.377341674276,36.3375768496477],"sales":{"202602":561}},{"id":"MA010120220803063332","name":"바이윤엔코지","industry":"카페","coordinates":[127.38390238721,36.3376010140952],"sales":{"202602":1132}},{"id":"MA010120220803074521","name":"갤러리옷집","industry":"여성 의류 소매업","coordinates":[127.383194418175,36.3340526485196],"sales":{"202602":499}},{"id":"MA010120220803101972","name":"옥이네포차","industry":"요리 주점","coordinates":[127.385965807333,36.335909167428],"sales":{"202602":248}},{"id":"MA010120220803136000","name":"나들이초밥&활어회","industry":"일식 회/초밥","coordinates":[127.382532183169,36.3352893827732],"sales":{"202602":854}},{"id":"MA010120220803141186","name":"강윤자명품집반찬","industry":"반찬/식료품 소매업","coordinates":[127.383128120592,36.3341610023421],"sales":{"202602":4590}},{"id":"MA010120220803145800","name":"다파라몰","industry":"기타 의류 소매업","coordinates":[127.380849950233,36.3375026390006],"sales":{"202602":481}},{"id":"MA010120220803150716","name":"마이램","industry":"중국집","coordinates":[127.382761953801,36.3367215186421],"sales":{"202602":2585}},{"id":"MA010120220803193537","name":"루나캣고양이분양대전","industry":"애완동물/애완용품 소매업","coordinates":[127.383918257642,36.3385652221862],"sales":{"202602":367}},{"id":"MA010120220803212510","name":"여기로","industry":"핸드폰 소매업","coordinates":[127.390641156188,36.3398231068935],"sales":{"202602":111}},{"id":"MA010120220803214434","name":"예신대전","industry":"피부 관리실","coordinates":[127.389542691581,36.3406828097712],"sales":{"202602":268}},{"id":"MA010120220803232433","name":"롯데대전나우","industry":"기타 의류 소매업","coordinates":[127.389542691581,36.3406828097712],"sales":{"202602":181}},{"id":"MA010120220803237177","name":"빽다방대전","industry":"카페","coordinates":[127.388138578081,36.3405612136039],"sales":{"202602":480}},{"id":"MA010120220803241522","name":"롯데대전숙디다스","industry":"기타 의류 소매업","coordinates":[127.389542691581,36.3406828097712],"sales":{"202602":646}},{"id":"MA010120220803244579","name":"롯데대전미샤","industry":"여성 의류 소매업","coordinates":[127.389542691581,36.3406828097712],"sales":{"202602":251}},{"id":"MA010120220803246937","name":"코오롱스포츠정창영","industry":"기타 의류 소매업","coordinates":[127.389542691581,36.3406828097712],"sales":{"202602":602}},{"id":"MA010120220803262123","name":"토종순대","industry":"국/탕/찌개류","coordinates":[127.379316656022,36.3359935378418],"sales":{"202602":3421}},{"id":"MA010120220803271463","name":"그린파이브","industry":"그 외 기타 간이 음식점","coordinates":[127.389542691581,36.3406828097712],"sales":{"202602":1264}},{"id":"MA010120220803284221","name":"케이디유통(정주는돼지)","industry":"돼지고기 구이/찜","coordinates":[127.372313450402,36.3412604094436],"sales":{"202602":1897}},{"id":"MA010120220803287124","name":"숭어리샘한식뷔페","industry":"뷔페","coordinates":[127.382490027975,36.3403361077042],"sales":{"202602":3340}},{"id":"MA010120220803302070","name":"라노보","industry":"요리 주점","coordinates":[127.389599111496,36.3385918968694],"sales":{"202602":793}},{"id":"MA010120220803310586","name":"탐나공인중개사사무소","industry":"부동산 중개/대리업","coordinates":[127.387732015617,36.33719213337],"sales":{"202602":5634}},{"id":"MA010120220803322201","name":"케이투노래연습장","industry":"노래방","coordinates":[127.389314130099,36.3395210372232],"sales":{"202602":1095}},{"id":"MA010120220803335879","name":"한땀한땀","industry":"의류/이불 수선업","coordinates":[127.385451906265,36.3378573678925],"sales":{"202602":258}},{"id":"MA010120220803344423","name":"바더바피부관리실","industry":"피부 관리실","coordinates":[127.383209160492,36.3370625327818],"sales":{"202602":360}},{"id":"MA010120220803388705","name":"승희명품수선","industry":"의류/이불 수선업","coordinates":[127.384761610336,36.3424465799337],"sales":{"202602":101}},{"id":"MA010120220803395375","name":"개업상사","industry":"명함/간판/광고물 제작","coordinates":[127.379782943753,36.3379746464248],"sales":{"202602":1669}},{"id":"MA010120220803395681","name":"마마스룸","industry":"실/섬유제품 소매업","coordinates":[127.38731912797,36.3415371424229],"sales":{"202602":705}},{"id":"MA010120220803402238","name":"봄온디자인","industry":"인테리어 디자인업","coordinates":[127.381272883046,36.3351492183998],"sales":{"202602":392}},{"id":"MA010120220803408423","name":"이마트24","industry":"편의점","coordinates":[127.386437150353,36.3411344683552],"sales":{"202602":1592}},{"id":"MA010120220803409593","name":"한울컨설팅","industry":"경영 컨설팅업","coordinates":[127.38116125315,36.3373844935774],"sales":{"202602":689}},{"id":"MA010120220803414583","name":"귀뚜라미보일러서비스","industry":"가전제품 수리업","coordinates":[127.385451906265,36.3378573678925],"sales":{"202602":409}},{"id":"MA010120220803423292","name":"이룸디자인","industry":"명함/간판/광고물 제작","coordinates":[127.381046456898,36.3389709307701],"sales":{"202602":807}},{"id":"MA010120220803508510","name":"왓에버","industry":"백반/한정식","coordinates":[127.38854287945,36.3389828413138],"sales":{"202602":623}},{"id":"MA010120220803515137","name":"워시프레쉬셀프빨래방대전","industry":"셀프 빨래방","coordinates":[127.384030960243,36.336564247644],"sales":{"202602":79}},{"id":"MA010120220803546668","name":"황금바다횟집","industry":"횟집","coordinates":[127.383151174065,36.3365941066998],"sales":{"202602":3690}},{"id":"MA010120220803587444","name":"롯데대전CC콜렉트","industry":"여성 의류 소매업","coordinates":[127.389542691581,36.3406828097712],"sales":{"202602":235}},{"id":"MA010120220803601670","name":"메르시","industry":"꽃집","coordinates":[127.389542691581,36.3406828097712],"sales":{"202602":495}},{"id":"MA010120220803704454","name":"더멀리즘피어싱","industry":"액세서리/잡화 소매업","coordinates":[127.388404163534,36.340208892024],"sales":{"202602":264}},{"id":"MA010120220803711166","name":"인앤인공인중개사사무소","industry":"부동산 중개/대리업","coordinates":[127.380902395099,36.3368356009323],"sales":{"202602":1380}},{"id":"MA010120220803743458","name":"마라연구소","industry":"마라탕/훠궈","coordinates":[127.388707416747,36.3407125647386],"sales":{"202602":1474}},{"id":"MA010120220803813807","name":"롯데대전아이더","industry":"기타 의류 소매업","coordinates":[127.389542691581,36.3406828097712],"sales":{"202602":346}},{"id":"MA010120220803823855","name":"킨록앤더슨롯데대전점","industry":"남성 의류 소매업","coordinates":[127.389542691581,36.3406828097712],"sales":{"202602":735}},{"id":"MA010120220803825673","name":"여유드림24시셀프빨래방대전","industry":"셀프 빨래방","coordinates":[127.375037207364,36.3401524574412],"sales":{"202602":284}},{"id":"MA010120220803828661","name":"논뚜렁추어탕","industry":"국/탕/찌개류","coordinates":[127.374980995318,36.3400444926273],"sales":{"202602":1418}},{"id":"MA010120220803854697","name":"삼촌네심야식당","industry":"요리 주점","coordinates":[127.390149257107,36.3394642432392],"sales":{"202602":1166}},{"id":"MA010120220803921602","name":"블라썸케이크","industry":"빵/도넛","coordinates":[127.386314902528,36.3389359933371],"sales":{"202602":550}},{"id":"MA010120220804126151","name":"풋볼아울렛","industry":"기타 의류 소매업","coordinates":[127.38114739273,36.3368258080805],"sales":{"202602":356}},{"id":"MA010120220804139981","name":"홀리써니","industry":"액세서리/잡화 소매업","coordinates":[127.380849950233,36.3375026390006],"sales":{"202602":143}},{"id":"MA010120220804140138","name":"와플칸대전","industry":"빵/도넛","coordinates":[127.383918257642,36.3385652221862],"sales":{"202602":1143}},{"id":"MA010120220804142355","name":"쏘맥하소","industry":"생맥주 전문","coordinates":[127.382939150995,36.3365136803105],"sales":{"202602":125}},{"id":"MA010120220804204353","name":"파스타마니아","industry":"파스타/스테이크","coordinates":[127.382580293991,36.333739203852],"sales":{"202602":925}},{"id":"MA010120220804206658","name":"대전롯데비너스","industry":"기타 의류 소매업","coordinates":[127.389542691581,36.3406828097712],"sales":{"202602":784}},{"id":"MA010120220804288580","name":"한민구제나라","industry":"중고 상품 소매업","coordinates":[127.383087804999,36.3350262617354],"sales":{"202602":380}},{"id":"MA010120220804338534","name":"브롬리이앤엠","industry":"전시/컨벤션/행사 대행 서비스업","coordinates":[127.38116125315,36.3373844935774],"sales":{"202602":1818}},{"id":"MA010120220804405351","name":"대패불패","industry":"돼지고기 구이/찜","coordinates":[127.389002293456,36.3395310644107],"sales":{"202602":2322}},{"id":"MA010120220804409033","name":"지에스25","industry":"편의점","coordinates":[127.381699600723,36.3358597863067],"sales":{"202602":4985}},{"id":"MA010120220804409982","name":"미르엔지니어링","industry":"기타 엔지니어링 서비스업","coordinates":[127.385591163655,36.3389924011918],"sales":{"202602":1555}},{"id":"MA010120220804411659","name":"찾아가는통신","industry":"핸드폰 소매업","coordinates":[127.375127700131,36.340440549955],"sales":{"202602":102}},{"id":"MA010120220804434009","name":"버커루","industry":"남성 의류 소매업","coordinates":[127.389542691581,36.3406828097712],"sales":{"202602":2095}},{"id":"MA010120220804471402","name":"라라네일","industry":"네일숍","coordinates":[127.387053702611,36.3396725675771],"sales":{"202602":202}},{"id":"MA010120220804600506","name":"2020메이드인오푼두잔","industry":"요리 주점","coordinates":[127.39003845509,36.3395817578254],"sales":{"202602":587}},{"id":"MA010120220804602966","name":"여행사도안점","industry":"여행사","coordinates":[127.38116125315,36.3373844935774],"sales":{"202602":4528}},{"id":"MA010120220804726389","name":"엠에스커뮤니케이션즈","industry":"전시/컨벤션/행사 대행 서비스업","coordinates":[127.38116125315,36.3373844935774],"sales":{"202602":1196}},{"id":"MA010120220804729444","name":"부라보성형외과의원","industry":"성형외과 의원","coordinates":[127.384761610336,36.3424465799337],"sales":{"202602":15111}},{"id":"MA010120220804771096","name":"수작","industry":"요리 주점","coordinates":[127.38790122289,36.3398680785281],"sales":{"202602":1643}},{"id":"MA010120220804772063","name":"미카사로","industry":"일식 회/초밥","coordinates":[127.388402686943,36.3399115086565],"sales":{"202602":419}},{"id":"MA010120220804772589","name":"천수부동산공인중개사사무소","industry":"부동산 중개/대리업","coordinates":[127.383033620274,36.3398837784878],"sales":{"202602":4103}},{"id":"MA010120220804796800","name":"신화유통","industry":"그 외 기타 상품 전문 소매업","coordinates":[127.380849950233,36.3375026390006],"sales":{"202602":3146}},{"id":"MA010120220804814399","name":"황금축산","industry":"정육점","coordinates":[127.382870009307,36.3337653114355],"sales":{"202602":1832}},{"id":"MA010120220804828524","name":"에코랩","industry":"환경 관련 엔지니어링 서비스업","coordinates":[127.381395464494,36.342015793791],"sales":{}},{"id":"MA010120220804836627","name":"길드커피","industry":"카페","coordinates":[127.385262601051,36.3423908953424],"sales":{"202602":387}},{"id":"MA010120220804838370","name":"롯데대전점NBA","industry":"기타 의류 소매업","coordinates":[127.389542691581,36.3406828097712],"sales":{"202602":615}},{"id":"MA010120220804841182","name":"73스트릿커피","industry":"카페","coordinates":[127.382345180199,36.3403275594377],"sales":{"202602":1430}},{"id":"MA010120220804866720","name":"밝은365약국","industry":"약국","coordinates":[127.387977396561,36.3417512894424],"sales":{"202602":5411}},{"id":"MA010120220804867849","name":"지앤씨롯데대전점","industry":"건강보조식품 소매업","coordinates":[127.389542691581,36.3406828097712],"sales":{"202602":1005}},{"id":"MA010120220804880596","name":"헤어블리","industry":"미용실","coordinates":[127.378095305193,36.3390974566846],"sales":{"202602":127}},{"id":"MA010120220804894040","name":"별난해산물","industry":"백반/한정식","coordinates":[127.383482802662,36.3360793721924],"sales":{"202602":898}},{"id":"MA010120220804904698","name":"로빈스헤어로빈스샵","industry":"미용실","coordinates":[127.385005572293,36.3376965947664],"sales":{"202602":365}},{"id":"MA010120220804935262","name":"문크린","industry":"건축물 일반 청소업","coordinates":[127.384233720756,36.3392941613968],"sales":{"202602":83}},{"id":"MA010120220804935566","name":"비브네일","industry":"네일숍","coordinates":[127.38731912797,36.3415371424229],"sales":{"202602":145}},{"id":"MA010120220804953422","name":"레노마수영복롯데대전","industry":"기타 의류 소매업","coordinates":[127.389542691581,36.3406828097712],"sales":{"202602":474}},{"id":"MA010120220804955188","name":"탑노래연습장","industry":"노래방","coordinates":[127.387545588928,36.340031444038],"sales":{"202602":642}},{"id":"MA010120220804955982","name":"솔이네김","industry":"김밥/만두/분식","coordinates":[127.383999129903,36.3346178074379],"sales":{"202602":1139}},{"id":"MA010120220804967984","name":"남이전기자재","industry":"전기용품/조명장치 소매업","coordinates":[127.380512244548,36.3390627505119],"sales":{"202602":713}},{"id":"MA010120220804972052","name":"지에스25괴정","industry":"편의점","coordinates":[127.387919109721,36.3412287965384],"sales":{"202602":1322}},{"id":"MA010120220804972066","name":"탕화쿵푸마라탕","industry":"마라탕/훠궈","coordinates":[127.384001385608,36.3350774005556],"sales":{"202602":2045}},{"id":"MA010120220804982698","name":"바쏘","industry":"남성 의류 소매업","coordinates":[127.389542691581,36.3406828097712],"sales":{"202602":368}},{"id":"MA010120220804993045","name":"롯데대전잭니클라우스","industry":"기타 의류 소매업","coordinates":[127.389542691581,36.3406828097712],"sales":{"202602":296}},{"id":"MA010120220805010928","name":"수정뷰티","industry":"피부 관리실","coordinates":[127.390641156188,36.3398231068935],"sales":{"202602":215}},{"id":"MA010120220805026736","name":"본우리집밥KT인재개발원점","industry":"백반/한정식","coordinates":[127.375253742829,36.3365290464501],"sales":{"202602":1787}},{"id":"MA010120220805038228","name":"비엔나댄스스포츠학원","industry":"레크리에이션 교육기관","coordinates":[127.389469801618,36.3394664594314],"sales":{"202602":108}},{"id":"MA010120220805074619","name":"어스시스템","industry":"가전제품 소매업","coordinates":[127.375380734995,36.3397818964715],"sales":{"202602":1835}},{"id":"MA010120220805084869","name":"수아","industry":"피부 관리실","coordinates":[127.382580293991,36.333739203852],"sales":{"202602":337}},{"id":"MA010120220805091449","name":"룰루","industry":"미용실","coordinates":[127.386683051623,36.3413048964335],"sales":{"202602":186}},{"id":"MA010120220805099345","name":"쫄쫄호떡","industry":"빵/도넛","coordinates":[127.383999129903,36.3346178074379],"sales":{"202602":1067}},{"id":"MA010120220805119030","name":"씨유","industry":"편의점","coordinates":[127.386479175837,36.3383677210004],"sales":{"202602":4543}},{"id":"MA010120220805155876","name":"롯데대전오가닉맘","industry":"기타 의류 소매업","coordinates":[127.389542691581,36.3406828097712],"sales":{"202602":405}},{"id":"MA010120220805169485","name":"진희HAIR","industry":"미용실","coordinates":[127.375193495394,36.3402240610194],"sales":{"202602":405}},{"id":"MA010120220805174114","name":"젊은언니샵","industry":"중고 상품 소매업","coordinates":[127.383209160492,36.3370625327818],"sales":{"202602":437}},{"id":"MA010120220805199832","name":"오조크","industry":"여성 의류 소매업","coordinates":[127.389542691581,36.3406828097712],"sales":{"202602":405}},{"id":"MA010120220805211332","name":"일구칠팔","industry":"신발 소매업","coordinates":[127.389542691581,36.3406828097712],"sales":{"202602":823}},{"id":"MA010120220805225647","name":"허허감자탕","industry":"국/탕/찌개류","coordinates":[127.379415550859,36.3380118604236],"sales":{"202602":2087}},{"id":"MA010120220805237870","name":"이모네양념게장","industry":"건어물/젓갈 소매업","coordinates":[127.383170024116,36.3336201615937],"sales":{"202602":3103}},{"id":"MA010120220805249326","name":"새참왔어요","industry":"김밥/만두/분식","coordinates":[127.38674836999,36.340998285179],"sales":{"202602":459}},{"id":"MA010120220805275739","name":"정석속독학원","industry":"그 외 기타 교육기관","coordinates":[127.382768578681,36.333522318421],"sales":{"202602":422}},{"id":"MA010120220805281384","name":"디케이앤와이여성","industry":"여성 의류 소매업","coordinates":[127.389542691581,36.3406828097712],"sales":{"202602":308}},{"id":"MA010120220805307684","name":"천복순대국밥","industry":"백반/한정식","coordinates":[127.382918550684,36.3368561935536],"sales":{"202602":349}},{"id":"MA010120220805324371","name":"바로공인중개사무소","industry":"부동산 중개/대리업","coordinates":[127.381102520684,36.3344738787953],"sales":{"202602":2549}},{"id":"MA010120220805331048","name":"무대포노래연습장","industry":"노래방","coordinates":[127.382918550684,36.3368561935536],"sales":{"202602":371}},{"id":"MA010120220805339727","name":"네파","industry":"기타 의류 소매업","coordinates":[127.389542691581,36.3406828097712],"sales":{"202602":206}},{"id":"MA010120220805364259","name":"아이리스PCPOP","industry":"PC방","coordinates":[127.387914238489,36.3402465303186],"sales":{"202602":2310}},{"id":"MA010120220805368202","name":"외가집누룽지잡화","industry":"반찬/식료품 소매업","coordinates":[127.383797763009,36.334438218798],"sales":{"202602":334}},{"id":"MA010120220805378200","name":"삐삐네","industry":"김밥/만두/분식","coordinates":[127.389542691581,36.3406828097712],"sales":{"202602":495}},{"id":"MA010120220805391871","name":"차오름에스테틱","industry":"피부 관리실","coordinates":[127.388602332592,36.3397396361538],"sales":{"202602":339}},{"id":"MA010120220805397836","name":"젊은간판","industry":"명함/간판/광고물 제작","coordinates":[127.383159014953,36.3404691411952],"sales":{"202602":1007}},{"id":"MA010120220805437071","name":"살롱9헤어","industry":"미용실","coordinates":[127.382572515699,36.3367041016571],"sales":{"202602":253}},{"id":"MA010120220805447358","name":"온양삼색호떡","industry":"빵/도넛","coordinates":[127.38279940769,36.3352705036313],"sales":{"202602":1760}},{"id":"MA010120220805454507","name":"다이아나","industry":"시계/귀금속 소매업","coordinates":[127.388654901843,36.3413525705702],"sales":{"202602":1728}},{"id":"MA010120220805458909","name":"엠휘트니스","industry":"헬스장","coordinates":[127.390149257107,36.3394642432392],"sales":{"202602":673}},{"id":"MA010120220805473763","name":"웅진창업컨설팅","industry":"부동산 중개/대리업","coordinates":[127.38512711338,36.3420218498692],"sales":{"202602":2575}},{"id":"MA010120220805494130","name":"세진유통","industry":"의료기기 소매업","coordinates":[127.380347639478,36.3349899545642],"sales":{"202602":1514}},{"id":"MA010120220805496272","name":"최고식품니혼만땅","industry":"일식 회/초밥","coordinates":[127.389542691581,36.3406828097712],"sales":{"202602":2046}},{"id":"MA010120220805501144","name":"두형복권","industry":"복권 발행/판매업","coordinates":[127.383030418536,36.3369549645402],"sales":{"202602":259}},{"id":"MA010120220805502430","name":"허준헤어","industry":"미용실","coordinates":[127.387950917313,36.3409042698829],"sales":{"202602":195}},{"id":"MA010120220805535624","name":"네일룸","industry":"네일숍","coordinates":[127.384054584966,36.3413764545834],"sales":{"202602":217}},{"id":"MA010120220805537632","name":"영동닭집","industry":"정육점","coordinates":[127.384310726404,36.334562735261],"sales":{"202602":10683}},{"id":"MA010120220805541410","name":"앤드지","industry":"남성 의류 소매업","coordinates":[127.389542691581,36.3406828097712],"sales":{"202602":719}},{"id":"MA010120220805546003","name":"제이에스서비스","industry":"경영 컨설팅업","coordinates":[127.380340643565,36.3404240733637],"sales":{"202602":1673}},{"id":"MA010120220805595347","name":"롯데대전악어","industry":"남성 의류 소매업","coordinates":[127.389542691581,36.3406828097712],"sales":{"202602":1669}},{"id":"MA010120220805595387","name":"롯데대전닥스신사","industry":"남성 의류 소매업","coordinates":[127.389542691581,36.3406828097712],"sales":{"202602":642}},{"id":"MA010120220805610724","name":"흙공방수","industry":"기타 기술/직업 훈련학원","coordinates":[127.380508869349,36.3383688551879],"sales":{"202602":811}},{"id":"MA010120220805627763","name":"바로그집","industry":"김밥/만두/분식","coordinates":[127.388517251586,36.340550971396],"sales":{"202602":873}},{"id":"MA010120220805639647","name":"그레이트대디","industry":"중국집","coordinates":[127.378831978705,36.3394105356519],"sales":{"202602":1702}},{"id":"MA010120220805681773","name":"여러분의행복한밥상","industry":"백반/한정식","coordinates":[127.380556053554,36.3389094109857],"sales":{"202602":313}},{"id":"MA010120220805723581","name":"에이스","industry":"피부 관리실","coordinates":[127.379327095068,36.3358493163624],"sales":{"202602":646}},{"id":"MA010120220805724957","name":"디케이바이크","industry":"모터사이클 및 부품 소매업","coordinates":[127.37829565146,36.3367627745078],"sales":{"202602":482}},{"id":"MA010120220805735656","name":"에이원스포츠","industry":"기타 의류 소매업","coordinates":[127.389542691581,36.3406828097712],"sales":{"202602":177}},{"id":"MA010120220805738908","name":"투다리","industry":"요리 주점","coordinates":[127.380270242952,36.3351073538907],"sales":{"202602":339}},{"id":"MA010120220805739881","name":"아이쉘","industry":"화장품 소매업","coordinates":[127.382823870743,36.3334410353615],"sales":{"202602":1029}},{"id":"MA010120220805740082","name":"온누리이용원","industry":"미용실","coordinates":[127.379626393706,36.3378489790411],"sales":{"202602":337}},{"id":"MA010120220805740545","name":"목원","industry":"서점","coordinates":[127.379871024881,36.3354690943347],"sales":{"202602":422}},{"id":"MA010120220805741289","name":"수노래연습장","industry":"노래방","coordinates":[127.389305054501,36.3399356078774],"sales":{"202602":959}},{"id":"MA010120220805741656","name":"우정토목측량설계공사","industry":"건축 설계 및 관련 서비스업","coordinates":[127.383589585292,36.3374127713479],"sales":{"202602":4595}},{"id":"MA010120220805742297","name":"서베이","industry":"시장 조사 및 여론 조사업","coordinates":[127.390641156188,36.3398231068935],"sales":{"202602":6635}},{"id":"MA010120220805747598","name":"신안경원","industry":"안경렌즈 소매업","coordinates":[127.382823870743,36.3334410353615],"sales":{"202602":4033}},{"id":"MA010120220805749906","name":"진인테리어","industry":"인테리어 디자인업","coordinates":[127.38230969392,36.3399041200331],"sales":{"202602":806}},{"id":"MA010120220805750027","name":"캘러웨이","industry":"기타 의류 소매업","coordinates":[127.389542691581,36.3406828097712],"sales":{"202602":797}},{"id":"MA010120220805750636","name":"바이오포톤대전지사","industry":"침구류/커튼 소매업","coordinates":[127.390641156188,36.3398231068935],"sales":{"202602":518}},{"id":"MA010120220805751159","name":"ViaTrading","industry":"액세서리/잡화 소매업","coordinates":[127.38116125315,36.3373844935774],"sales":{"202602":169}},{"id":"MA010120220805751749","name":"명가인테리어","industry":"인테리어 디자인업","coordinates":[127.385400170975,36.3409215346974],"sales":{"202602":741}},{"id":"MA010120220805751852","name":"페리카나","industry":"치킨","coordinates":[127.388402686943,36.3399115086565],"sales":{"202602":269}},{"id":"MA010120220805753309","name":"예술인헤어크리닉","industry":"미용실","coordinates":[127.386479175837,36.3383677210004],"sales":{"202602":433}},{"id":"MA010120220805753743","name":"한신종합주택관리","industry":"건축물 일반 청소업","coordinates":[127.384305485045,36.3425652004791],"sales":{"202602":149}},{"id":"MA010120220805753896","name":"SOUP","industry":"기타 의류 소매업","coordinates":[127.389542691581,36.3406828097712],"sales":{"202602":870}},{"id":"MA010120220805756698","name":"스타비안","industry":"목욕탕/사우나","coordinates":[127.383626493783,36.3358536167925],"sales":{"202602":4887}},{"id":"MA010120220805758692","name":"새미래공인중개사사무소","industry":"부동산 중개/대리업","coordinates":[127.379161115211,36.3360751373402],"sales":{"202602":2299}},{"id":"MA010120220805759841","name":"플러스마트","industry":"슈퍼마켓","coordinates":[127.382395713532,36.3369930441012],"sales":{"202602":5870}},{"id":"MA010120220805761061","name":"와이드앵글","industry":"남성 의류 소매업","coordinates":[127.389542691581,36.3406828097712],"sales":{"202602":1155}},{"id":"MA010120220805763112","name":"신화공인중개사사무소","industry":"부동산 중개/대리업","coordinates":[127.388185283246,36.338749697484],"sales":{"202602":2973}},{"id":"MA010120220805763594","name":"동양부동산공인중개사사무소","industry":"부동산 중개/대리업","coordinates":[127.388296131626,36.3386411962093],"sales":{"202602":2086}},{"id":"MA010120220805764173","name":"만호공인중개사사무소","industry":"부동산 중개/대리업","coordinates":[127.384442874011,36.3387888299112],"sales":{"202602":5792}},{"id":"MA010120220805766076","name":"청우할인마트","industry":"슈퍼마켓","coordinates":[127.382134997813,36.338345643233],"sales":{"202602":4715}},{"id":"MA010120220805766715","name":"둥지방역","industry":"소독, 구충 및 방제 서비스업","coordinates":[127.380179766266,36.3371172667004],"sales":{"202602":830}},{"id":"MA010120220805767211","name":"부동산마을공인중개사사무소","industry":"부동산 중개/대리업","coordinates":[127.383661718005,36.3407649166087],"sales":{"202602":1557}},{"id":"MA010120220805767404","name":"크레타피씨방크레타PC방","industry":"PC방","coordinates":[127.387545588928,36.340031444038],"sales":{"202602":2625}},{"id":"MA010120220805767872","name":"하이파이브","industry":"태권도/무술학원","coordinates":[127.378640282813,36.3366265065942],"sales":{"202602":804}},{"id":"MA010120220805768190","name":"미소페","industry":"신발 소매업","coordinates":[127.389542691581,36.3406828097712],"sales":{"202602":182}},{"id":"MA010120220805768512","name":"웅진공인중개사사무소","industry":"부동산 중개/대리업","coordinates":[127.38512711338,36.3420218498692],"sales":{"202602":3256}},{"id":"MA010120220805769093","name":"조환우세무회계사무소","industry":"세무사","coordinates":[127.382918550684,36.3368561935536],"sales":{"202602":1040}},{"id":"MA010120220805770048","name":"틈새라면","industry":"김밥/만두/분식","coordinates":[127.38853174744,36.3412268063697],"sales":{"202602":401}},{"id":"MA010120220805770195","name":"롯데대전헤지스","industry":"기타 의류 소매업","coordinates":[127.389542691581,36.3406828097712],"sales":{"202602":239}},{"id":"MA010120220805773216","name":"볼빅롯데대전","industry":"기타 의류 소매업","coordinates":[127.389542691581,36.3406828097712],"sales":{"202602":866}},{"id":"MA010120220805783644","name":"롯데빈폴레이디스","industry":"기타 의류 소매업","coordinates":[127.389542691581,36.3406828097712],"sales":{"202602":1362}},{"id":"MA010120220805784981","name":"탄방자이공인중개사사무소","industry":"부동산 중개/대리업","coordinates":[127.383560007399,36.3427388188829],"sales":{"202602":3348}},{"id":"MA010120220805786249","name":"탑이동통신","industry":"핸드폰 소매업","coordinates":[127.382871704345,36.3363877316218],"sales":{"202602":109}},{"id":"MA010120220805788066","name":"레노마스포츠","industry":"기타 의류 소매업","coordinates":[127.389542691581,36.3406828097712],"sales":{"202602":447}},{"id":"MA010120220805789271","name":"에고이스트","industry":"여성 의류 소매업","coordinates":[127.389542691581,36.3406828097712],"sales":{"202602":850}},{"id":"MA010120220805790461","name":"미소라인","industry":"네일숍","coordinates":[127.383790428913,36.3374842206956],"sales":{"202602":122}},{"id":"MA010120220805794874","name":"광통신","industry":"핸드폰 소매업","coordinates":[127.385208015364,36.3380924601765],"sales":{"202602":99}},{"id":"MA010120220805797409","name":"와이드앵글","industry":"기타 의류 소매업","coordinates":[127.389542691581,36.3406828097712],"sales":{"202602":559}},{"id":"MA010120220805798181","name":"미끄마끄","industry":"네일숍","coordinates":[127.385005572293,36.3376965947664],"sales":{"202602":132}},{"id":"MA010120220805798838","name":"케이투","industry":"기타 의류 소매업","coordinates":[127.389542691581,36.3406828097712],"sales":{"202602":882}},{"id":"MA010120220805799480","name":"패뷸러스","industry":"자동차 세차장","coordinates":[127.381389007568,36.3361221192126],"sales":{"202602":166}},{"id":"MA010120220805801248","name":"케이엠티약국","industry":"약국","coordinates":[127.388410965078,36.341578657646],"sales":{"202602":9319}},{"id":"MA010120220805805096","name":"라인","industry":"요리 주점","coordinates":[127.383397318854,36.3368186115613],"sales":{"202602":404}},{"id":"MA010120220805809950","name":"성남무역주","industry":"피자","coordinates":[127.37637285349,36.3376249634548],"sales":{"202602":924}},{"id":"MA010120220805810016","name":"알프스투어앤골프합자회사","industry":"여행사","coordinates":[127.389542691581,36.3406828097712],"sales":{"202602":1753}},{"id":"MA010120220805810823","name":"세진해외여행사주","industry":"여행사","coordinates":[127.390641156188,36.3398231068935],"sales":{"202602":4009}},{"id":"MA010120220805811119","name":"이타민주","industry":"전시/컨벤션/행사 대행 서비스업","coordinates":[127.386263957254,36.3421533572434],"sales":{"202602":993}},{"id":"MA010120220805815380","name":"한국전화번호부주","industry":"광고 매체 판매업","coordinates":[127.381752979444,36.3399509584776],"sales":{"202602":77}},{"id":"MA010120220805824488","name":"왔다떡방","industry":"떡/한과","coordinates":[127.382823870743,36.3334410353615],"sales":{"202602":2633}},{"id":"MA010120220805825695","name":"화장품나라","industry":"화장품 소매업","coordinates":[127.383999129903,36.3346178074379],"sales":{"202602":558}},{"id":"MA010120220805825788","name":"재복","industry":"기타 의류 소매업","coordinates":[127.389542691581,36.3406828097712],"sales":{"202602":445}},{"id":"MA010120220805827350","name":"옥천집","industry":"백반/한정식","coordinates":[127.380953354941,36.338151156759],"sales":{"202602":525}},{"id":"MA010120220805829574","name":"피어나뷰티샵","industry":"피부 관리실","coordinates":[127.38853174744,36.3412268063697],"sales":{"202602":616}},{"id":"MA010120220805835526","name":"한올수선실","industry":"의류/이불 수선업","coordinates":[127.389542691581,36.3406828097712],"sales":{"202602":59}},{"id":"MA010120220805835976","name":"디아도라롯데대전","industry":"기타 의류 소매업","coordinates":[127.389542691581,36.3406828097712],"sales":{"202602":686}},{"id":"MA010120220805847792","name":"한신옷수선","industry":"의류/이불 수선업","coordinates":[127.382302739276,36.3407602598748],"sales":{"202602":43}},{"id":"MA010120220805852243","name":"우리철물","industry":"철물/공구 소매업","coordinates":[127.385574108038,36.3355319374099],"sales":{"202602":754}},{"id":"MA010120220805856756","name":"옛집","industry":"백반/한정식","coordinates":[127.385574108038,36.3355319374099],"sales":{"202602":333}},{"id":"MA010120220805901379","name":"지스테이션","industry":"모터사이클 수리업","coordinates":[127.377075526366,36.3378210074504],"sales":{"202602":195}},{"id":"MA010120220805917258","name":"포맨남성컷트","industry":"미용실","coordinates":[127.382823870743,36.3334410353615],"sales":{"202602":129}},{"id":"MA010120220805923318","name":"롯데대전점살레와","industry":"기타 의류 소매업","coordinates":[127.389542691581,36.3406828097712],"sales":{"202602":596}},{"id":"MA010120220805925689","name":"조은가게","industry":"채소/과일 소매업","coordinates":[127.384310726404,36.334562735261],"sales":{"202602":2555}},{"id":"MA010120220805925946","name":"무지개밥상","industry":"백반/한정식","coordinates":[127.388410965078,36.341578657646],"sales":{"202602":387}},{"id":"MA010120220805949284","name":"스마트","industry":"자동차 부품 소매업","coordinates":[127.38116125315,36.3373844935774],"sales":{"202602":550}},{"id":"MA010120220806027600","name":"두톰숙성회","industry":"횟집","coordinates":[127.390024530748,36.3390230739479],"sales":{"202602":507}},{"id":"MA010120220806039258","name":"엠제이디앤씨","industry":"부동산 중개/대리업","coordinates":[127.381389007568,36.3361221192126],"sales":{"202602":1118}},{"id":"MA010120220806158915","name":"아라헤어","industry":"미용실","coordinates":[127.382889346709,36.339992381977],"sales":{"202602":434}},{"id":"MA010120220806170682","name":"한밭카센타","industry":"자동차 정비소","coordinates":[127.376698035867,36.3380745274231],"sales":{"202602":545}},{"id":"MA010120220806171340","name":"정훈종롯데대전점","industry":"여성 의류 소매업","coordinates":[127.389542691581,36.3406828097712],"sales":{"202602":192}},{"id":"MA010120220806171565","name":"성모중고피아노，삼익，중고피아노，리즈피아노","industry":"중고 상품 소매업","coordinates":[127.384995530292,36.3424458265803],"sales":{"202602":623}},{"id":"MA010120220806172250","name":"큰마을카센타","industry":"자동차 정비소","coordinates":[127.375917383638,36.3401947509236],"sales":{"202602":290}},{"id":"MA010120220806172369","name":"스피드정보통신","industry":"핸드폰 소매업","coordinates":[127.379327095068,36.3358493163624],"sales":{"202602":77}},{"id":"MA010120220806172443","name":"큐헤어샵","industry":"미용실","coordinates":[127.386742666981,36.3398447980211],"sales":{"202602":125}},{"id":"MA010120220806172698","name":"우리건강원","industry":"건강보조식품 소매업","coordinates":[127.380091097752,36.3372076664234],"sales":{"202602":674}},{"id":"MA010120220806173122","name":"신헤어뷰티샵","industry":"미용실","coordinates":[127.3816239368,36.3340486616697],"sales":{"202602":208}},{"id":"MA010120220806173289","name":"머리사랑헤어","industry":"미용실","coordinates":[127.382768578681,36.333522318421],"sales":{"202602":409}},{"id":"MA010120220806174307","name":"류머리방","industry":"미용실","coordinates":[127.386556560408,36.3405032588316],"sales":{"202602":259}},{"id":"MA010120220806174561","name":"상명약국","industry":"약국","coordinates":[127.382823870743,36.3334410353615],"sales":{"202602":4532}},{"id":"MA010120220806175231","name":"진양곱창","industry":"곱창 전골/구이","coordinates":[127.38979362973,36.3396276154102],"sales":{"202602":1243}},{"id":"MA010120220806175270","name":"불로설비","industry":"가전제품 수리업","coordinates":[127.380580569439,36.3370799439718],"sales":{"202602":366}},{"id":"MA010120220806175455","name":"보떼화장품","industry":"화장품 소매업","coordinates":[127.384310726404,36.334562735261],"sales":{"202602":546}},{"id":"MA010120220806176894","name":"머리나라미용실","industry":"미용실","coordinates":[127.379161115211,36.3360751373402],"sales":{"202602":413}},{"id":"MA010120220806176965","name":"소망이용원","industry":"미용실","coordinates":[127.38802263927,36.3373984607983],"sales":{"202602":491}},{"id":"MA010120220806177693","name":"한밭부동산중개인","industry":"부동산 중개/대리업","coordinates":[127.383710427323,36.3370699362347],"sales":{"202602":2608}},{"id":"MA010120220806177747","name":"남양문구","industry":"문구/회화용품 소매업","coordinates":[127.385596494132,36.3400737957104],"sales":{"202602":1848}},{"id":"MA010120220806177824","name":"양산전기조명","industry":"전기용품/조명장치 소매업","coordinates":[127.379316656022,36.3359935378418],"sales":{"202602":928}},{"id":"MA010120220806178031","name":"괴정동공주칼국수딜리버리","industry":"국수/칼국수","coordinates":[127.387198103579,36.3395909939506],"sales":{"202602":589}},{"id":"MA010120220806178653","name":"과메기앤홍탁","industry":"횟집","coordinates":[127.386742666981,36.3398447980211],"sales":{"202602":1492}},{"id":"MA010120220806178694","name":"여럿이함께","industry":"한복 소매업","coordinates":[127.382823870743,36.3334410353615],"sales":{"202602":876}},{"id":"MA010120220806178894","name":"서부누수탐지공사","industry":"철물/공구 소매업","coordinates":[127.377985043253,36.3370250986161],"sales":{"202602":337}},{"id":"MA010120220806179786","name":"퍼펙트","industry":"시계/귀금속 소매업","coordinates":[127.389542691581,36.3406828097712],"sales":{"202602":1418}},{"id":"MA010120220806180014","name":"예루살렘","industry":"기숙사/고시원","coordinates":[127.383666005842,36.339368079405],"sales":{"202602":375}},{"id":"MA010120220806180170","name":"황박사왕족발보쌈","industry":"백반/한정식","coordinates":[127.387344467635,36.3399059313803],"sales":{"202602":2485}},{"id":"MA010120220806180360","name":"서광전기","industry":"기타 엔지니어링 서비스업","coordinates":[127.386200580798,36.3383415863021],"sales":{"202602":1910}},{"id":"MA010120220806180528","name":"유럽인테리어","industry":"인테리어 디자인업","coordinates":[127.377885233996,36.3371155319447],"sales":{"202602":701}},{"id":"MA010120220806180624","name":"에필로그","industry":"생맥주 전문","coordinates":[127.38979362973,36.3396276154102],"sales":{"202602":794}},{"id":"MA010120220806181521","name":"작품하나","industry":"기타 의류 소매업","coordinates":[127.383441687632,36.3390533875332],"sales":{"202602":315}},{"id":"MA010120220806181555","name":"돈돈복권방","industry":"복권 발행/판매업","coordinates":[127.38582993623,36.3422358651155],"sales":{"202602":438}},{"id":"MA010120220806181793","name":"미강두부요리","industry":"백반/한정식","coordinates":[127.38626751522,36.3361064516291],"sales":{"202602":747}},{"id":"MA010120220806181974","name":"종로기획","industry":"명함/간판/광고물 제작","coordinates":[127.374321654888,36.339595971222],"sales":{"202602":1110}},{"id":"MA010120220806182217","name":"한국지엠서구바로서비스","industry":"자동차 정비소","coordinates":[127.37397782144,36.3399034477556],"sales":{"202602":374}},{"id":"MA010120220806182249","name":"모텔올리브","industry":"여관/모텔","coordinates":[127.38907712632,36.3388999973517],"sales":{"202602":313}},{"id":"MA010120220806182408","name":"한민당","industry":"시계/귀금속 소매업","coordinates":[127.38197898427,36.3337681624712],"sales":{"202602":2047}},{"id":"MA010120220806182415","name":"온양건재","industry":"철물/공구 소매업","coordinates":[127.386831600657,36.34206140359],"sales":{"202602":2194}},{"id":"MA010120220806182416","name":"대전철물","industry":"철물/공구 소매업","coordinates":[127.383520281335,36.3369083347278],"sales":{"202602":1105}},{"id":"MA010120220806182421","name":"관악이용원","industry":"미용실","coordinates":[127.382268172783,36.335966110337],"sales":{"202602":162}},{"id":"MA010120220806182427","name":"따봉문구사","industry":"문구/회화용품 소매업","coordinates":[127.385294417436,36.339804417061],"sales":{"202602":550}},{"id":"MA010120220806182430","name":"대광오토바이","industry":"모터사이클 수리업","coordinates":[127.383607926465,36.3388816305037],"sales":{"202602":1354}},{"id":"MA010120220806182435","name":"둔산부동산중개인","industry":"부동산 중개/대리업","coordinates":[127.384016311833,36.3426562476453],"sales":{"202602":1818}},{"id":"MA010120220806182454","name":"로얄이용원","industry":"미용실","coordinates":[127.386742666981,36.3398447980211],"sales":{"202602":449}},{"id":"MA010120220806182461","name":"서헤령미용실","industry":"미용실","coordinates":[127.381857919696,36.3340659378721],"sales":{"202602":329}},{"id":"MA010120220806182473","name":"페리카나치킨","industry":"치킨","coordinates":[127.375231523036,36.3388631647285],"sales":{"202602":1320}},{"id":"MA010120220806182474","name":"미진기계세탁","industry":"세탁소","coordinates":[127.37987509417,36.3363071761595],"sales":{"202602":402}},{"id":"MA010120220806182476","name":"대성지업사","industry":"벽지/장판/마루 소매업","coordinates":[127.381618232364,36.3374461176503],"sales":{"202602":136}},{"id":"MA010120220806182485","name":"서천조명젼기","industry":"전기용품/조명장치 소매업","coordinates":[127.383945215768,36.3372494175605],"sales":{"202602":1145}},{"id":"MA010120220806182497","name":"경성앵글철물","industry":"철물/공구 소매업","coordinates":[127.37682029819,36.3380200713791],"sales":{"202602":1917}},{"id":"MA010120220806182505","name":"태영카센타","industry":"자동차 정비소","coordinates":[127.387397661825,36.3394011002014],"sales":{"202602":4245}},{"id":"MA010120220806182521","name":"가장유리","industry":"주방/가정용품 소매업","coordinates":[127.385072141294,36.3353803556706],"sales":{"202602":799}},{"id":"MA010120220806182524","name":"목련관","industry":"백반/한정식","coordinates":[127.375902607291,36.3394378089798],"sales":{"202602":685}},{"id":"MA010120220806182526","name":"맷돌순대","industry":"국/탕/찌개류","coordinates":[127.382823870743,36.3334410353615],"sales":{"202602":3296}},{"id":"MA010120220806182532","name":"이인규미용실","industry":"미용실","coordinates":[127.385719569249,36.3356666445959],"sales":{"202602":139}},{"id":"MA010120220806182535","name":"공인중개사대일사무소","industry":"부동산 중개/대리업","coordinates":[127.390024530748,36.3390230739479],"sales":{"202602":1603}},{"id":"MA010120220806182546","name":"안전키쎈타","industry":"그 외 기타 개인/가정용품 수리업","coordinates":[127.378905854392,36.3362651940833],"sales":{"202602":1761}},{"id":"MA010120220806182601","name":"허룡약국","industry":"약국","coordinates":[127.38235947992,36.3364164067749],"sales":{"202602":5753}},{"id":"MA010120220806182603","name":"천화당한약방","industry":"건강보조식품 소매업","coordinates":[127.381260417253,36.3394478719998],"sales":{"202602":888}},{"id":"MA010120220806182607","name":"엘레지앙홈패션","industry":"침구류/커튼 소매업","coordinates":[127.382823870743,36.3334410353615],"sales":{"202602":447}},{"id":"MA010120220806182934","name":"한백공인중개사사무소","industry":"부동산 중개/대리업","coordinates":[127.386510580456,36.3402150311377],"sales":{"202602":2755}},{"id":"MA010120220806183361","name":"전성공업사","industry":"자동차 정비소","coordinates":[127.384794164906,36.337742334456],"sales":{"202602":1312}},{"id":"MA010120220806183400","name":"성스튜디오","industry":"사진촬영업","coordinates":[127.371969944585,36.3416399732584],"sales":{"202602":758}},{"id":"MA010120220806183411","name":"진성주방","industry":"중고 상품 소매업","coordinates":[127.376107742183,36.3380853983154],"sales":{"202602":449}},{"id":"MA010120220806184174","name":"이기명색소폰스튜디오","industry":"입시·교과학원","coordinates":[127.38554076604,36.3423269159576],"sales":{"202602":1039}},{"id":"MA010120220806184520","name":"늘조은미용실","industry":"미용실","coordinates":[127.389756442223,36.3388707485689],"sales":{"202602":269}},{"id":"MA010120220806184678","name":"미래주택관리","industry":"건축물 일반 청소업","coordinates":[127.385246711727,36.3391647355732],"sales":{"202602":160}},{"id":"MA010120220806184853","name":"한민횟집","industry":"횟집","coordinates":[127.385462372244,36.3354602036696],"sales":{"202602":923}},{"id":"MA010120220806185692","name":"스카이","industry":"여관/모텔","coordinates":[127.388586851702,36.3388655454119],"sales":{"202602":4519}},{"id":"MA010120220806185946","name":"뉴동아부동산중개사무소","industry":"부동산 중개/대리업","coordinates":[127.38581237914,36.3386762754714],"sales":{"202602":2231}},{"id":"MA010120220806185958","name":"동일부동산중개인사무소","industry":"부동산 중개/대리업","coordinates":[127.384114856684,36.3377715549904],"sales":{"202602":3674}},{"id":"MA010120220806186065","name":"파평윤씨상임공파종중","industry":"사업시설 유지·관리 서비스업","coordinates":[127.37829565146,36.3367627745078],"sales":{"202602":607}},{"id":"MA010120220806186166","name":"보람식당","industry":"백반/한정식","coordinates":[127.389207829588,36.3383047953061],"sales":{"202602":82}},{"id":"MA010120220806186470","name":"엄소정헤어두","industry":"미용실","coordinates":[127.38862899747,36.3406227021583],"sales":{"202602":779}},{"id":"MA010120220806186553","name":"목향인테리어","industry":"인테리어 디자인업","coordinates":[127.377720987721,36.3377018162043],"sales":{"202602":338}},{"id":"MA010120220806186663","name":"유신공인중개사사무소","industry":"부동산 중개/대리업","coordinates":[127.382871704345,36.3363877316218],"sales":{"202602":5190}},{"id":"MA010120220806186664","name":"백제공인중개사사무소","industry":"부동산 중개/대리업","coordinates":[127.380374068449,36.3381349783334],"sales":{"202602":2630}},{"id":"MA010120220806186901","name":"갯벌바지락손칼국수","industry":"국수/칼국수","coordinates":[127.382212483947,36.3405262427064],"sales":{"202602":1351}},{"id":"MA010120220806187096","name":"성원미용실","industry":"미용실","coordinates":[127.375411729153,36.3392771401344],"sales":{"202602":435}},{"id":"MA010120220806187527","name":"수원왕숯불구이","industry":"돼지고기 구이/찜","coordinates":[127.380599470255,36.3363859774845],"sales":{"202602":3698}},{"id":"MA010120220806187897","name":"원다정부동산중개사무소","industry":"부동산 중개/대리업","coordinates":[127.384750320532,36.3378866638879],"sales":{"202602":2581}},{"id":"MA010120220806188497","name":"수정미용실","industry":"미용실","coordinates":[127.384551069737,36.3381396346497],"sales":{"202602":432}},{"id":"MA010120220806188548","name":"코니카미놀타OA","industry":"컴퓨터/노트북/프린터 수리업","coordinates":[127.385138922164,36.3376330827401],"sales":{"202602":680}},{"id":"MA010120220806190243","name":"처갓집양념치킨","industry":"치킨","coordinates":[127.388382780951,36.3403891967605],"sales":{"202602":982}},{"id":"MA010120220806190256","name":"한밭순대","industry":"국/탕/찌개류","coordinates":[127.383945215768,36.3372494175605],"sales":{"202602":1868}},{"id":"MA010120220806190718","name":"괴정동공주칼국수","industry":"국수/칼국수","coordinates":[127.387198103579,36.3395909939506],"sales":{"202602":3055}},{"id":"MA010120220806191340","name":"BornPartners","industry":"제품 디자인업","coordinates":[127.384305485045,36.3425652004791],"sales":{"202602":628}},{"id":"MA010120220806191447","name":"소망세탁","industry":"세탁소","coordinates":[127.37871082016,36.3373922835734],"sales":{"202602":212}},{"id":"MA010120220806191498","name":"아모레카운셀러","industry":"화장품 소매업","coordinates":[127.381752979444,36.3399509584776],"sales":{"202602":356}},{"id":"MA010120220806192089","name":"쉼갤러리","industry":"예술품 소매업","coordinates":[127.377341674276,36.3375768496477],"sales":{"202602":74}},{"id":"MA010120220806192558","name":"토종집","industry":"백반/한정식","coordinates":[127.375805359364,36.3377439022842],"sales":{"202602":364}},{"id":"MA010120220806192783","name":"대전꼬기야","industry":"애완동물/애완용품 소매업","coordinates":[127.382302739276,36.3407602598748],"sales":{"202602":410}},{"id":"MA010120220806193746","name":"GS25","industry":"편의점","coordinates":[127.389305054501,36.3399356078774],"sales":{"202602":2613}},{"id":"MA010120220806194618","name":"럭셔리센세이션","industry":"자동차 부품 소매업","coordinates":[127.384306732535,36.3382846088638],"sales":{"202602":2800}},{"id":"MA010120220806195070","name":"신우종합관리","industry":"건축물 일반 청소업","coordinates":[127.380664413278,36.3382872539482],"sales":{"202602":195}},{"id":"MA010120220806195574","name":"오렌지약국","industry":"약국","coordinates":[127.390641156188,36.3398231068935],"sales":{"202602":5420}},{"id":"MA010120220806195582","name":"예진상사","industry":"남성 의류 소매업","coordinates":[127.389542691581,36.3406828097712],"sales":{"202602":428}},{"id":"MA010120220806196339","name":"벨리시앙","industry":"여성 의류 소매업","coordinates":[127.389542691581,36.3406828097712],"sales":{"202602":521}},{"id":"MA010120220806196778","name":"한민속옷","industry":"기타 의류 소매업","coordinates":[127.382823870743,36.3334410353615],"sales":{"202602":1780}},{"id":"MA010120220806196813","name":"여의도떡집","industry":"떡/한과","coordinates":[127.383729388656,36.3341230262967],"sales":{"202602":2345}},{"id":"MA010120220806196941","name":"오즈헤어뷰띠끄","industry":"미용실","coordinates":[127.382823870743,36.3334410353615],"sales":{"202602":236}},{"id":"MA010120220806197106","name":"맛고을","industry":"백반/한정식","coordinates":[127.381605011191,36.339302583933],"sales":{"202602":2080}},{"id":"MA010120220806197144","name":"샤론미용실","industry":"미용실","coordinates":[127.384265072922,36.3411414721524],"sales":{"202602":493}},{"id":"MA010120220806197284","name":"파리바게트","industry":"빵/도넛","coordinates":[127.390641156188,36.3398231068935],"sales":{"202602":1719}},{"id":"MA010120220806197465","name":"미의공간미용실","industry":"미용실","coordinates":[127.381045173334,36.3364206043737],"sales":{"202602":301}},{"id":"MA010120220806197587","name":"선미디어시스템","industry":"컴퓨터/노트북/프린터 수리업","coordinates":[127.382478291621,36.3333790593496],"sales":{"202602":1246}},{"id":"MA010120220806197630","name":"보티첼리롯데대전점","industry":"여성 의류 소매업","coordinates":[127.389542691581,36.3406828097712],"sales":{"202602":205}},{"id":"MA010120220806197939","name":"롯데수지공인중개사사무소","industry":"부동산 중개/대리업","coordinates":[127.389207829588,36.3383047953061],"sales":{"202602":1077}},{"id":"MA010120220806198012","name":"안경","industry":"안경렌즈 소매업","coordinates":[127.38853174744,36.3412268063697],"sales":{"202602":816}},{"id":"MA010120220806198195","name":"미래열쇠","industry":"철물/공구 소매업","coordinates":[127.385406104893,36.3353432321124],"sales":{"202602":1023}},{"id":"MA010120220806198250","name":"편안한통증의학과","industry":"건강보조식품 소매업","coordinates":[127.390598041459,36.3401116242001],"sales":{"202602":3121}},{"id":"MA010120220806198774","name":"아트프라자","industry":"기타 의류 소매업","coordinates":[127.383952853459,36.3342664969849],"sales":{"202602":622}},{"id":"MA010120220806198876","name":"성심건강원","industry":"건강보조식품 소매업","coordinates":[127.383653500487,36.3345468232425],"sales":{"202602":1405}},{"id":"MA010120220806199244","name":"세이헤어샵","industry":"미용실","coordinates":[127.382982600937,36.3362882468373],"sales":{"202602":430}},{"id":"MA010120220806199414","name":"로얄카크리닉","industry":"자동차 정비소","coordinates":[127.37898849269,36.3372291915133],"sales":{"202602":2320}},{"id":"MA010120220806199656","name":"동수식당","industry":"백반/한정식","coordinates":[127.390026283041,36.3393745270016],"sales":{"202602":917}},{"id":"MA010120220806199808","name":"매직플라워","industry":"꽃집","coordinates":[127.382345180199,36.3403275594377],"sales":{"202602":476}},{"id":"MA010120220806200489","name":"아트헤어라인","industry":"미용실","coordinates":[127.383297372003,36.3391529798937],"sales":{"202602":168}},{"id":"MA010120220806200518","name":"초록유통","industry":"주방/가정용품 소매업","coordinates":[127.389542691581,36.3406828097712],"sales":{"202602":704}},{"id":"MA010120220806201193","name":"림스헤어","industry":"미용실","coordinates":[127.382144946896,36.340382270459],"sales":{"202602":283}},{"id":"MA010120220806201310","name":"써니","industry":"요리 주점","coordinates":[127.389846807932,36.3391227832144],"sales":{"202602":407}},{"id":"MA010120220806201666","name":"미소약국","industry":"약국","coordinates":[127.381434812941,36.3340943242688],"sales":{"202602":2827}},{"id":"MA010120220806201931","name":"애니컴랜드","industry":"컴퓨터/노트북/프린터 수리업","coordinates":[127.384551069737,36.3381396346497],"sales":{"202602":1411}},{"id":"MA010120220806202005","name":"투다리","industry":"요리 주점","coordinates":[127.384557709635,36.3349584587824],"sales":{"202602":847}},{"id":"MA010120220806202128","name":"소망커텐","industry":"침구류/커튼 소매업","coordinates":[127.383639799705,36.3340241843979],"sales":{"202602":796}},{"id":"MA010120220806202279","name":"진주공인중개사사무소","industry":"부동산 중개/대리업","coordinates":[127.38581237914,36.3386762754714],"sales":{"202602":2165}},{"id":"MA010120220806202402","name":"경성스포츠","industry":"헬스장","coordinates":[127.378640282813,36.3366265065942],"sales":{"202602":817}},{"id":"MA010120220806202729","name":"한민원조막창","industry":"곱창 전골/구이","coordinates":[127.384836159125,36.3349575625145],"sales":{"202602":1321}},{"id":"MA010120220806202807","name":"괴정고을","industry":"백반/한정식","coordinates":[127.387420277269,36.3372201796237],"sales":{"202602":1069}},{"id":"MA010120220806203327","name":"덕성","industry":"백반/한정식","coordinates":[127.387344467635,36.3399059313803],"sales":{"202602":970}},{"id":"MA010120220806203782","name":"우리집김밥","industry":"김밥/만두/분식","coordinates":[127.384016311833,36.3426562476453],"sales":{"202602":177}},{"id":"MA010120220806203817","name":"떡메랑","industry":"떡/한과","coordinates":[127.383170024116,36.3336201615937],"sales":{"202602":2566}},{"id":"MA010120220806203981","name":"가위소리미용실","industry":"미용실","coordinates":[127.382458438845,36.3338747704604],"sales":{"202602":373}},{"id":"MA010120220806203986","name":"알짜공인중개사사무소","industry":"부동산 중개/대리업","coordinates":[127.385294417436,36.339804417061],"sales":{"202602":3226}},{"id":"MA010120220806204020","name":"인컴","industry":"광고 대행업","coordinates":[127.386605840752,36.3392054054779],"sales":{"202602":1001}},{"id":"MA010120220806204431","name":"아리아악기","industry":"악기 소매업","coordinates":[127.374321654888,36.339595971222],"sales":{"202602":2559}},{"id":"MA010120220806204467","name":"토탈기획","industry":"제품 디자인업","coordinates":[127.375253742829,36.3365290464501],"sales":{"202602":114}},{"id":"MA010120220806204584","name":"월드정보시스템","industry":"컴퓨터/노트북/프린터 수리업","coordinates":[127.379316656022,36.3359935378418],"sales":{"202602":573}},{"id":"MA010120220806204776","name":"헤라노래연습장","industry":"노래방","coordinates":[127.38235947992,36.3364164067749],"sales":{"202602":543}},{"id":"MA010120220806204915","name":"발사랑쌩얼뷰티","industry":"피부 관리실","coordinates":[127.383626493783,36.3358536167925],"sales":{"202602":392}},{"id":"MA010120220806205415","name":"하눌","industry":"카페","coordinates":[127.390641156188,36.3398231068935],"sales":{"202602":936}},{"id":"MA010120220806206168","name":"한민수선","industry":"의류/이불 수선업","coordinates":[127.382823870743,36.3334410353615],"sales":{"202602":37}},{"id":"MA010120220806206297","name":"럭키스트라이크","industry":"요리 주점","coordinates":[127.38795575424,36.3396335956759],"sales":{"202602":1189}},{"id":"MA010120220806206346","name":"스타일리쉬헤어&붙임머리","industry":"미용실","coordinates":[127.388719842376,36.338729936457],"sales":{"202602":151}},{"id":"MA010120220806206675","name":"친환경엘샤론","industry":"미용실","coordinates":[127.383155616103,36.3397752462491],"sales":{"202602":425}},{"id":"MA010120220806207451","name":"와이엠하우스헤어","industry":"미용실","coordinates":[127.38866698106,36.3415417782559],"sales":{"202602":244}},{"id":"MA010120220806207602","name":"조개향","industry":"해산물 구이/찜","coordinates":[127.380805130418,36.3351597214521],"sales":{"202602":1059}},{"id":"MA010120220806208077","name":"휴먼시스템","industry":"컴퓨터/소프트웨어 소매업","coordinates":[127.383862693264,36.3363214704351],"sales":{"202602":803}},{"id":"MA010120220806208278","name":"로렌랄프로렌","industry":"여성 의류 소매업","coordinates":[127.389542691581,36.3406828097712],"sales":{"202602":217}},{"id":"MA010120220806208299","name":"놀부보쌈&부대찌개","industry":"족발/보쌈","coordinates":[127.378831978705,36.3394105356519],"sales":{"202602":3051}},{"id":"MA010120220806208326","name":"구미호헤어","industry":"미용실","coordinates":[127.37696475033,36.3379475216824],"sales":{"202602":114}},{"id":"MA010120220806208708","name":"M마트","industry":"슈퍼마켓","coordinates":[127.384065225982,36.3390063265062],"sales":{"202602":4197}},{"id":"MA010120220806208770","name":"빨강손톱","industry":"네일숍","coordinates":[127.385151388176,36.3424273008562],"sales":{"202602":260}},{"id":"MA010120220806209033","name":"또,봄스튜디오","industry":"사진촬영업","coordinates":[127.382478291621,36.3333790593496],"sales":{"202602":423}},{"id":"MA010120220806209399","name":"에스티코스메틱","industry":"화장품 소매업","coordinates":[127.388410965078,36.341578657646],"sales":{"202602":976}},{"id":"MA010120220806209885","name":"녹원건축사사무소","industry":"건축 설계 및 관련 서비스업","coordinates":[127.377718899225,36.3372692578513],"sales":{"202602":5717}},{"id":"MA010120220806209926","name":"5.5춘천닭갈비","industry":"닭/오리고기 구이/찜","coordinates":[127.384058845067,36.3354376867757],"sales":{"202602":738}},{"id":"MA010120220806209929","name":"허성준의맛쌈","industry":"백반/한정식","coordinates":[127.3887178721,36.3383334252135],"sales":{"202602":647}},{"id":"MA010120220806210306","name":"부산진오뎅","industry":"요리 주점","coordinates":[127.388404163534,36.340208892024],"sales":{"202602":671}},{"id":"MA010120220806210390","name":"성경의류수선","industry":"의류/이불 수선업","coordinates":[127.389605798913,36.3399346278201],"sales":{"202602":46}},{"id":"MA010120220806211398","name":"한진BM","industry":"소독, 구충 및 방제 서비스업","coordinates":[127.381434812941,36.3340943242688],"sales":{"202602":834}},{"id":"MA010120220806211910","name":"슈페리어대전롯데","industry":"기타 의류 소매업","coordinates":[127.389542691581,36.3406828097712],"sales":{"202602":794}},{"id":"MA010120220806211983","name":"리본","industry":"여성 의류 소매업","coordinates":[127.389542691581,36.3406828097712],"sales":{"202602":141}},{"id":"MA010120220806212198","name":"시슬리","industry":"여성 의류 소매업","coordinates":[127.389542691581,36.3406828097712],"sales":{"202602":344}},{"id":"MA010120220806212591","name":"이안인테리어","industry":"인테리어 디자인업","coordinates":[127.375289723279,36.3393856645354],"sales":{"202602":1012}},{"id":"MA010120220806212639","name":"진짜장","industry":"중국집","coordinates":[127.375638309372,36.3400694636937],"sales":{"202602":2306}},{"id":"MA010120220806212746","name":"다사랑약국","industry":"약국","coordinates":[127.390896715017,36.339696106606],"sales":{"202602":4931}},{"id":"MA010120220806213131","name":"괴정덴트","industry":"자동차 세차장","coordinates":[127.385208015364,36.3380924601765],"sales":{"202602":1293}},{"id":"MA010120220806213223","name":"마스터크린","industry":"건축물 일반 청소업","coordinates":[127.380599470255,36.3363859774845],"sales":{"202602":197}},{"id":"MA010120220806213548","name":"원조할매국밥","industry":"국/탕/찌개류","coordinates":[127.384557709635,36.3349584587824],"sales":{"202602":2678}},{"id":"MA010120220806214049","name":"땡마트","industry":"그 외 기타 종합 소매업","coordinates":[127.382823870743,36.3334410353615],"sales":{"202602":3968}},{"id":"MA010120220806214845","name":"다올스튜디오","industry":"사진촬영업","coordinates":[127.381699600723,36.3358597863067],"sales":{"202602":1040}},{"id":"MA010120220806216025","name":"한민떡방앗간","industry":"떡/한과","coordinates":[127.383039458824,36.3342514042571],"sales":{"202602":2146}},{"id":"MA010120220806216192","name":"컴돌이비디오테이프영상변환","industry":"컴퓨터/노트북/프린터 수리업","coordinates":[127.382823870743,36.3334410353615],"sales":{"202602":1080}},{"id":"MA010120220806216239","name":"아이프렌드","industry":"명함/간판/광고물 제작","coordinates":[127.385208015364,36.3380924601765],"sales":{"202602":2108}},{"id":"MA010120220806216264","name":"클릭세탁소","industry":"세탁소","coordinates":[127.385285317284,36.335695080606],"sales":{"202602":248}},{"id":"MA010120220806216293","name":"헤어갤러리","industry":"미용실","coordinates":[127.380374068449,36.3381349783334],"sales":{"202602":224}},{"id":"MA010120220806216361","name":"정희옷수선","industry":"의류/이불 수선업","coordinates":[127.382823870743,36.3334410353615],"sales":{"202602":116}},{"id":"MA010120220806216399","name":"브라이언킴스하우스그릴","industry":"미술학원","coordinates":[127.379782943753,36.3379746464248],"sales":{"202602":279}},{"id":"MA010120220806216472","name":"조은","industry":"중고 상품 소매업","coordinates":[127.386136997201,36.338999650631],"sales":{"202602":788}},{"id":"MA010120220806216473","name":"천연미용실","industry":"미용실","coordinates":[127.380534788945,36.3368277601928],"sales":{"202602":657}},{"id":"MA010120220806216474","name":"조아헤어샵","industry":"미용실","coordinates":[127.384114856684,36.3377715549904],"sales":{"202602":146}},{"id":"MA010120220806216572","name":"공감헤어디자인","industry":"미용실","coordinates":[127.385740171395,36.3375860848229],"sales":{"202602":262}},{"id":"MA010120220806216834","name":"미래유통","industry":"슈퍼마켓","coordinates":[127.380280831647,36.3395771577646],"sales":{"202602":10079}},{"id":"MA010120220806217101","name":"동키치킨","industry":"치킨","coordinates":[127.375079817831,36.3397467942022],"sales":{"202602":1730}},{"id":"MA010120220806217236","name":"에델바이스","industry":"침구류/커튼 소매업","coordinates":[127.382823870743,36.3334410353615],"sales":{"202602":379}},{"id":"MA010120220806217513","name":"제앤씨세탁하는사람인","industry":"세탁소","coordinates":[127.37583309118,36.3388792979998],"sales":{"202602":124}},{"id":"MA010120220806217783","name":"토스트굽는사람들","industry":"토스트/샌드위치/샐러드","coordinates":[127.388382780951,36.3403891967605],"sales":{"202602":1617}},{"id":"MA010120220806217821","name":"왕과비","industry":"장례식장","coordinates":[127.375808303142,36.3383566933613],"sales":{"202602":7625}},{"id":"MA010120220806218355","name":"하나에너지괴정.탄방.용문","industry":"핸드폰 소매업","coordinates":[127.390641156188,36.3398231068935],"sales":{"202602":143}},{"id":"MA010120220806218671","name":"엄마손운동화빨래방","industry":"셀프 빨래방","coordinates":[127.383666005842,36.339368079405],"sales":{"202602":299}},{"id":"MA010120220806218990","name":"제이라인","industry":"피부 관리실","coordinates":[127.390641156188,36.3398231068935],"sales":{"202602":353}},{"id":"MA010120220806219283","name":"유진&유진헤어뷰티","industry":"미용실","coordinates":[127.385478720095,36.3410384342689],"sales":{"202602":502}},{"id":"MA010120220806219646","name":"수연이불","industry":"침구류/커튼 소매업","coordinates":[127.385261310456,36.3353436989474],"sales":{"202602":594}},{"id":"MA010120220806219930","name":"부뚜막두부마을","industry":"백반/한정식","coordinates":[127.389605798913,36.3399346278201],"sales":{"202602":938}},{"id":"MA010120220806219986","name":"오렌지수선","industry":"의류/이불 수선업","coordinates":[127.390641156188,36.3398231068935],"sales":{"202602":107}},{"id":"MA010120220806220168","name":"오렌지수선","industry":"피부 관리실","coordinates":[127.390641156188,36.3398231068935],"sales":{"202602":240}},{"id":"MA010120220806220298","name":"원인테리어","industry":"인테리어 디자인업","coordinates":[127.383945215768,36.3372494175605],"sales":{"202602":479}},{"id":"MA010120220806220830","name":"미가엘헤어뷰티","industry":"미용실","coordinates":[127.389305054501,36.3399356078774],"sales":{"202602":178}},{"id":"MA010120220806221036","name":"맨잇슈트","industry":"남성 의류 소매업","coordinates":[127.389542691581,36.3406828097712],"sales":{"202602":1177}},{"id":"MA010120220806221108","name":"미가엘","industry":"화장품 소매업","coordinates":[127.389305054501,36.3399356078774],"sales":{"202602":432}},{"id":"MA010120220806221195","name":"최성우헤어","industry":"미용실","coordinates":[127.388051889283,36.3388042012747],"sales":{"202602":286}},{"id":"MA010120220806221830","name":"수정자갈치꼼장어","industry":"횟집","coordinates":[127.390259654171,36.3392656240027],"sales":{"202602":2629}},{"id":"MA010120220806221944","name":"명옥헌삼대진곰탕","industry":"국/탕/찌개류","coordinates":[127.389638092781,36.3397092284722],"sales":{"202602":3457}},{"id":"MA010120220806222078","name":"이형주성형외과의원","industry":"기타 의원","coordinates":[127.388410965078,36.341578657646],"sales":{"202602":4836}},{"id":"MA010120220806222111","name":"양성열성형외과","industry":"성형외과 의원","coordinates":[127.388654901843,36.3413525705702],"sales":{"202602":16657}},{"id":"MA010120220806222204","name":"정동물병원","industry":"동물병원","coordinates":[127.385316514521,36.337506345561],"sales":{"202602":4944}},{"id":"MA010120220806222482","name":"롯데대전트위","industry":"기타 의류 소매업","coordinates":[127.389542691581,36.3406828097712],"sales":{"202602":1650}},{"id":"MA010120220806222788","name":"버드리","industry":"애완동물/애완용품 소매업","coordinates":[127.379504867748,36.3357586342826],"sales":{"202602":1001}},{"id":"MA010120220806223309","name":"하와더카페","industry":"카페","coordinates":[127.378905854392,36.3362651940833],"sales":{"202602":588}},{"id":"MA010120220806223454","name":"하얀빨래방","industry":"셀프 빨래방","coordinates":[127.380599470255,36.3363859774845],"sales":{"202602":182}},{"id":"MA010120220806223749","name":"장충왕족발보쌈","industry":"백반/한정식","coordinates":[127.384456692466,36.341600455726],"sales":{"202602":1459}},{"id":"MA010120220806223924","name":"써니노래연습장","industry":"노래방","coordinates":[127.383158296003,36.3357740127864],"sales":{"202602":391}},{"id":"MA010120220806224197","name":"달구네연탄구이","industry":"돼지고기 구이/찜","coordinates":[127.379952427252,36.338469754969],"sales":{"202602":678}},{"id":"MA010120220806224346","name":"투다리","industry":"요리 주점","coordinates":[127.388382780951,36.3403891967605],"sales":{"202602":1005}},{"id":"MA010120220806224431","name":"풋젠렌토스수제화","industry":"신발 소매업","coordinates":[127.384750320532,36.3378866638879],"sales":{"202602":111}},{"id":"MA010120220806224590","name":"한민순대","industry":"국/탕/찌개류","coordinates":[127.385406104893,36.3353432321124],"sales":{"202602":876}},{"id":"MA010120220806225111","name":"데코하우스인테리어","industry":"인테리어 디자인업","coordinates":[127.384014453604,36.3422777596798],"sales":{"202602":1431}},{"id":"MA010120220806225266","name":"하울헤어샵","industry":"미용실","coordinates":[127.383057195793,36.3378740790853],"sales":{"202602":268}},{"id":"MA010120220806225371","name":"홈코디","industry":"문구/회화용품 소매업","coordinates":[127.382524281519,36.3405072215858],"sales":{"202602":229}},{"id":"MA010120220806225743","name":"더페이스샵","industry":"화장품 소매업","coordinates":[127.389542691581,36.3406828097712],"sales":{"202602":439}},{"id":"MA010120220806225981","name":"제현공인중개사사무소","industry":"부동산 중개/대리업","coordinates":[127.384222022503,36.3414480104794],"sales":{"202602":1724}},{"id":"MA010120220806226266","name":"롯데대전골드워치","industry":"가방 소매업","coordinates":[127.389542691581,36.3406828097712],"sales":{"202602":600}},{"id":"MA010120220806226584","name":"이삭토스트","industry":"토스트/샌드위치/샐러드","coordinates":[127.388138578081,36.3405612136039],"sales":{"202602":1749}},{"id":"MA010120220806226650","name":"엽기떡볶이","industry":"김밥/만두/분식","coordinates":[127.380534788945,36.3368277601928],"sales":{"202602":1109}},{"id":"MA010120220806226695","name":"디자인핏","industry":"시각 디자인업","coordinates":[127.390641156188,36.3398231068935],"sales":{"202602":109}},{"id":"MA010120220806226979","name":"창성공인중개사사무소","industry":"부동산 중개/대리업","coordinates":[127.380697654142,36.3405400895755],"sales":{"202602":3188}},{"id":"MA010120220806227525","name":"선우유통","industry":"가전제품 소매업","coordinates":[127.380849950233,36.3375026390006],"sales":{"202602":527}},{"id":"MA010120220806227602","name":"국수랑김밥","industry":"김밥/만두/분식","coordinates":[127.386380187297,36.3363674287256],"sales":{"202602":867}},{"id":"MA010120220806227670","name":"씨유","industry":"편의점","coordinates":[127.385378199305,36.3387227351492],"sales":{"202602":4601}},{"id":"MA010120220806227684","name":"대전피부관리실휴앤화이트에스테틱","industry":"마사지/안마","coordinates":[127.3807248409,36.3369713432296],"sales":{"202602":535}},{"id":"MA010120220806227858","name":"그린생활","industry":"가전제품 소매업","coordinates":[127.38116125315,36.3373844935774],"sales":{"202602":1464}},{"id":"MA010120220806228077","name":"사과머리","industry":"미용실","coordinates":[127.377863049185,36.3394406383949],"sales":{"202602":345}},{"id":"MA010120220806228371","name":"동서만물사","industry":"그 외 기타 개인/가정용품 수리업","coordinates":[127.386742666981,36.3398447980211],"sales":{"202602":1534}},{"id":"MA010120220806228852","name":"롯데대전폴로여성","industry":"여성 의류 소매업","coordinates":[127.389542691581,36.3406828097712],"sales":{"202602":561}},{"id":"MA010120220806229104","name":"롯데대전타임","industry":"여성 의류 소매업","coordinates":[127.389542691581,36.3406828097712],"sales":{"202602":477}},{"id":"MA010120220806229434","name":"고은손뜨개방","industry":"실/섬유제품 소매업","coordinates":[127.382823870743,36.3334410353615],"sales":{"202602":547}},{"id":"MA010120220806229513","name":"하나통신","industry":"핸드폰 소매업","coordinates":[127.388138578081,36.3405612136039],"sales":{"202602":389}},{"id":"MA010120220806229699","name":"센스헤어","industry":"미용실","coordinates":[127.381829102832,36.3395722211544],"sales":{"202602":150}},{"id":"MA010120220806229830","name":"필노래연습장","industry":"노래방","coordinates":[127.383712637406,36.3352495516028],"sales":{"202602":467}},{"id":"MA010120220806230322","name":"펌앤컷미용실","industry":"미용실","coordinates":[127.385991351164,36.3388288975832],"sales":{"202602":403}},{"id":"MA010120220806231336","name":"쵸파통신","industry":"핸드폰 소매업","coordinates":[127.38197898427,36.3337681624712],"sales":{"202602":234}},{"id":"MA010120220806231523","name":"대전새마을식당","industry":"돼지고기 구이/찜","coordinates":[127.389314130099,36.3395210372232],"sales":{"202602":2177}},{"id":"MA010120220806231811","name":"고은테라피","industry":"피부 관리실","coordinates":[127.386918439129,36.34160152269],"sales":{"202602":519}},{"id":"MA010120220806232280","name":"GS25괴정","industry":"편의점","coordinates":[127.387832841032,36.3373089591956],"sales":{"202602":2077}},{"id":"MA010120220806232474","name":"폰케이스","industry":"액세서리/잡화 소매업","coordinates":[127.385260733575,36.3352265477865],"sales":{"202602":249}},{"id":"MA010120220806232481","name":"샤론잡화","industry":"액세서리/잡화 소매업","coordinates":[127.383999129903,36.3346178074379],"sales":{"202602":389}},{"id":"MA010120220806232662","name":"강가네닭도리탕","industry":"백반/한정식","coordinates":[127.386933718289,36.3401866266132],"sales":{"202602":1215}},{"id":"MA010120220806232979","name":"좋은약국","industry":"약국","coordinates":[127.382311973811,36.3335327916442],"sales":{"202602":5271}},{"id":"MA010120220806233833","name":"광고&웹디자인와우커뮤니케이션","industry":"광고 대행업","coordinates":[127.387640657034,36.3389857711255],"sales":{"202602":960}},{"id":"MA010120220806234199","name":"이은영헤어갤러리","industry":"미용실","coordinates":[127.384082128509,36.3424487656493],"sales":{"202602":143}},{"id":"MA010120220806234397","name":"항아리보쌈","industry":"족발/보쌈","coordinates":[127.383381985312,36.3359625426247],"sales":{"202602":1542}},{"id":"MA010120220806234511","name":"이모네닭도리탕","industry":"백반/한정식","coordinates":[127.387223458858,36.3402127234633],"sales":{"202602":540}},{"id":"MA010120220806234844","name":"에스티피부과의원","industry":"피부/비뇨기과 의원","coordinates":[127.388410965078,36.341578657646],"sales":{"202602":15871}},{"id":"MA010120220806234932","name":"즐거운치과","industry":"치과의원","coordinates":[127.381434812941,36.3340943242688],"sales":{"202602":4226}},{"id":"MA010120220806235182","name":"오징어와친구들","industry":"횟집","coordinates":[127.388169311276,36.3400204080446],"sales":{"202602":1652}},{"id":"MA010120220806235302","name":"말자싸롱","industry":"요리 주점","coordinates":[127.383368992535,36.3355840899342],"sales":{"202602":1526}},{"id":"MA010120220806235338","name":"렛미인","industry":"피부 관리실","coordinates":[127.384942511237,36.3384627980681],"sales":{"202602":432}},{"id":"MA010120220806235456","name":"롯데대전SJSJ","industry":"여성 의류 소매업","coordinates":[127.389542691581,36.3406828097712],"sales":{"202602":793}},{"id":"MA010120220806235672","name":"퀸","industry":"노래방","coordinates":[127.388101093087,36.3397412649461],"sales":{"202602":542}},{"id":"MA010120220806235887","name":"네스대전센터안상복","industry":"가전제품 수리업","coordinates":[127.38260898391,36.3396057739942],"sales":{"202602":412}},{"id":"MA010120220806236131","name":"봉봉에카페","industry":"카페","coordinates":[127.385908935929,36.3379279871405],"sales":{"202602":634}},{"id":"MA010120220806236193","name":"온리원시공","industry":"그 외 기타 개인/가정용품 수리업","coordinates":[127.379029854042,36.3388692022329],"sales":{"202602":2664}},{"id":"MA010120220806236491","name":"롯데시스템","industry":"여성 의류 소매업","coordinates":[127.389542691581,36.3406828097712],"sales":{"202602":721}},{"id":"MA010120220806236767","name":"더시암","industry":"마사지/안마","coordinates":[127.387914238489,36.3402465303186],"sales":{"202602":333}},{"id":"MA010120220806236990","name":"화이트365","industry":"세탁소","coordinates":[127.38470904636,36.3385536674818],"sales":{"202602":207}},{"id":"MA010120220806237382","name":"착한정육점","industry":"정육점","coordinates":[127.383044557175,36.3375677194868],"sales":{"202602":1322}},{"id":"MA010120220806237564","name":"똥강아지","industry":"애완동물/애완용품 소매업","coordinates":[127.385208015364,36.3380924601765],"sales":{"202602":438}},{"id":"MA010120220806237945","name":"토니모리롯데대전점","industry":"화장품 소매업","coordinates":[127.389542691581,36.3406828097712],"sales":{"202602":1346}},{"id":"MA010120220806237990","name":"골드공인중개사사무소","industry":"부동산 중개/대리업","coordinates":[127.386946550963,36.3405290320446],"sales":{"202602":2682}},{"id":"MA010120220806238083","name":"세븐카","industry":"자동차 정비소","coordinates":[127.386247730415,36.3366111746283],"sales":{"202602":2575}},{"id":"MA010120220806238217","name":"르제이","industry":"네일숍","coordinates":[127.386259966249,36.3390893709066],"sales":{"202602":121}},{"id":"MA010120220806238267","name":"바다통골뱅이","industry":"백반/한정식","coordinates":[127.382781011571,36.3360635984006],"sales":{"202602":251}},{"id":"MA010120220806238296","name":"중도에어컨","industry":"가전제품 수리업","coordinates":[127.380423976103,36.3369452659807],"sales":{"202602":389}},{"id":"MA010120220806238362","name":"이쁜걸악세사리","industry":"액세서리/잡화 소매업","coordinates":[127.38279940769,36.3352705036313],"sales":{"202602":714}},{"id":"MA010120220806238368","name":"압구정삼겹살","industry":"돼지고기 구이/찜","coordinates":[127.378831978705,36.3394105356519],"sales":{"202602":1106}},{"id":"MA010120220806238424","name":"리라산부인과.여성의원","industry":"산부인과 의원","coordinates":[127.390641156188,36.3398231068935],"sales":{"202602":6620}},{"id":"MA010120220806238572","name":"PC월드","industry":"컴퓨터/노트북/프린터 수리업","coordinates":[127.381194595531,36.3396553525753],"sales":{"202602":396}},{"id":"MA010120220806238673","name":"이엠","industry":"의료기기 소매업","coordinates":[127.38116125315,36.3373844935774],"sales":{"202602":2594}},{"id":"MA010120220806238812","name":"네일메이트","industry":"네일숍","coordinates":[127.385741459999,36.3378474219066],"sales":{"202602":419}},{"id":"MA010120220806245043","name":"한밭정보시스템","industry":"컴퓨터/소프트웨어 소매업","coordinates":[127.384750320532,36.3378866638879],"sales":{"202602":638}},{"id":"MA010120220806245059","name":"신우자동차공업사명륜진사갈비주","industry":"돼지고기 구이/찜","coordinates":[127.373198800461,36.3400500712543],"sales":{"202602":3343}},{"id":"MA010120220806245327","name":"대아개발","industry":"산업설비, 운송장비 및 공공장소 청소업","coordinates":[127.379952427252,36.338469754969],"sales":{"202602":322}},{"id":"MA010120220806246952","name":"대한그린","industry":"건축물 일반 청소업","coordinates":[127.376374462056,36.340274418206],"sales":{"202602":513}},{"id":"MA010120220806247519","name":"원광기업주","industry":"건축물 일반 청소업","coordinates":[127.375555882079,36.33914151071],"sales":{"202602":514}},{"id":"MA010120220806248145","name":"스카이뱅크상조","industry":"장례식장","coordinates":[127.375808303142,36.3383566933613],"sales":{"202602":12151}},{"id":"MA010120220806248643","name":"스마일라텍스","industry":"가구 소매업","coordinates":[127.386815916033,36.341142254756],"sales":{"202602":730}},{"id":"MA010120220806248893","name":"선진건축사사무소","industry":"건축 설계 및 관련 서비스업","coordinates":[127.382490027975,36.3403361077042],"sales":{"202602":1260}},{"id":"MA010120220806249784","name":"정다운의료재단","industry":"요양병원","coordinates":[127.3713351529,36.3416689826675],"sales":{"202602":21350}},{"id":"MA010120220806250400","name":"마음의정원심리센터","industry":"유사 의료업","coordinates":[127.385208015364,36.3380924601765],"sales":{"202602":582}},{"id":"MA010120220806250974","name":"금강롯데","industry":"신발 소매업","coordinates":[127.389542691581,36.3406828097712],"sales":{"202602":209}},{"id":"MA010120220806251520","name":"코오롱인더스트리FNC부문롯데대전점주","industry":"기타 의류 소매업","coordinates":[127.389542691581,36.3406828097712],"sales":{"202602":841}},{"id":"MA010120220806251761","name":"피시원주","industry":"수산물 소매업","coordinates":[127.389542691581,36.3406828097712],"sales":{"202602":2270}},{"id":"MA010120220806251875","name":"삼성물산주","industry":"기타 의류 소매업","coordinates":[127.389542691581,36.3406828097712],"sales":{"202602":572}},{"id":"MA010120220806252469","name":"조은환경시스템","industry":"건축물 일반 청소업","coordinates":[127.380697654142,36.3405400895755],"sales":{"202602":115}},{"id":"MA010120220806253011","name":"명인주","industry":"건축물 일반 청소업","coordinates":[127.375134301154,36.3394942937064],"sales":{"202602":285}},{"id":"MA010120220806253128","name":"에이엘씨경제정책분석연구소주","industry":"시장 조사 및 여론 조사업","coordinates":[127.386263957254,36.3421533572434],"sales":{"202602":18177}},{"id":"MA010120220806254462","name":"뉴스일대전충남주","industry":"광고 대행업","coordinates":[127.387176061749,36.3418890646684],"sales":{"202602":633}},{"id":"MA010120220806254708","name":"더줌","industry":"환경 관련 엔지니어링 서비스업","coordinates":[127.374980995318,36.3400444926273],"sales":{}},{"id":"MA010120220806254987","name":"태우","industry":"경영 컨설팅업","coordinates":[127.382574752326,36.3348837167774],"sales":{"202602":1019}},{"id":"MA010120220806255845","name":"이지스","industry":"광고 대행업","coordinates":[127.386605840752,36.3392054054779],"sales":{"202602":1566}},{"id":"MA010120220806255847","name":"닥터사이언스아카데미","industry":"입시·교과학원","coordinates":[127.386263957254,36.3421533572434],"sales":{"202602":446}},{"id":"MA010120220806256572","name":"김앤주","industry":"장례식장","coordinates":[127.3713351529,36.3416689826675],"sales":{"202602":20274}},{"id":"MA010120220806256695","name":"대원렌트카","industry":"자동차 대여업","coordinates":[127.373356419994,36.3404010378617],"sales":{"202602":1710}},{"id":"MA010120220806256717","name":"서베이","industry":"시장 조사 및 여론 조사업","coordinates":[127.390641156188,36.3398231068935],"sales":{"202602":5206}},{"id":"MA010120220806314296","name":"원조강경토굴젓갈","industry":"건어물/젓갈 소매업","coordinates":[127.383999129903,36.3346178074379],"sales":{"202602":1328}},{"id":"MA010120220806377894","name":"설렘그리고","industry":"사진촬영업","coordinates":[127.371969944585,36.3416399732584],"sales":{"202602":1060}},{"id":"MA010120220806379746","name":"와구아구","industry":"백반/한정식","coordinates":[127.384014453604,36.3422777596798],"sales":{"202602":1322}},{"id":"MA010120220806381236","name":"대세인테리어필름","industry":"인테리어 디자인업","coordinates":[127.37946625982,36.3369843577266],"sales":{"202602":1219}},{"id":"MA010120220806441292","name":"굽네치킨","industry":"치킨","coordinates":[127.379752196982,36.3385244619801],"sales":{"202602":322}},{"id":"MA010120220806441689","name":"어뉴골프","industry":"기타 의류 소매업","coordinates":[127.389542691581,36.3406828097712],"sales":{"202602":1030}},{"id":"MA010120220806448808","name":"신호등","industry":"백반/한정식","coordinates":[127.384203551191,36.3354191981391],"sales":{"202602":723}},{"id":"MA010120220806452680","name":"활인방","industry":"건강보조식품 소매업","coordinates":[127.387223458858,36.3402127234633],"sales":{"202602":1116}},{"id":"MA010120220806460526","name":"바로e부동산공인중개사사무소","industry":"부동산 중개/대리업","coordinates":[127.381426485973,36.3392400714791],"sales":{"202602":2491}},{"id":"MA010120220806466569","name":"이모네이십사시식당","industry":"백반/한정식","coordinates":[127.382302739276,36.3407602598748],"sales":{"202602":776}},{"id":"MA010120220806468746","name":"동창회","industry":"요리 주점","coordinates":[127.384557709635,36.3349584587824],"sales":{"202602":1219}},{"id":"MA010120220806476406","name":"컴퓨터수리점","industry":"컴퓨터/노트북/프린터 수리업","coordinates":[127.382691303869,36.3382176984316],"sales":{"202602":1044}},{"id":"MA010120220806489348","name":"카페시옹","industry":"카페","coordinates":[127.377050643563,36.3372803797569],"sales":{"202602":574}},{"id":"MA010120220806495727","name":"한마음정육식당한민","industry":"돼지고기 구이/찜","coordinates":[127.383712637406,36.3352495516028],"sales":{"202602":1340}},{"id":"MA010120220806512224","name":"카페양촌리","industry":"카페","coordinates":[127.376831107266,36.3402639674435],"sales":{"202602":725}},{"id":"MA010120220806519521","name":"비상기획","industry":"사진촬영업","coordinates":[127.390641156188,36.3398231068935],"sales":{"202602":346}},{"id":"MA010120220806522732","name":"24시괴정동열쇠출장","industry":"철물/공구 소매업","coordinates":[127.380849950233,36.3375026390006],"sales":{"202602":251}},{"id":"MA010120220806535781","name":"스노우피크롯데대전점","industry":"기타 의류 소매업","coordinates":[127.389542691581,36.3406828097712],"sales":{"202602":237}},{"id":"MA010120220806541112","name":"더모아공인중개사사무소","industry":"부동산 중개/대리업","coordinates":[127.383248667642,36.3383060300605],"sales":{"202602":3541}},{"id":"MA010120220806560711","name":"한민본가누룽지삼계탕","industry":"국/탕/찌개류","coordinates":[127.383626493783,36.3358536167925],"sales":{"202602":1109}},{"id":"MA010120220806568268","name":"엠케어대전충남본부","industry":"가전제품 수리업","coordinates":[127.382019388535,36.337480883117],"sales":{"202602":359}},{"id":"MA010120220806575565","name":"스타라이프","industry":"광고 대행업","coordinates":[127.380305485463,36.33777472586],"sales":{"202602":406}},{"id":"MA010120220806579148","name":"지이크파렌하이트롯데대전","industry":"기타 의류 소매업","coordinates":[127.389542691581,36.3406828097712],"sales":{"202602":2060}},{"id":"MA010120220806579423","name":"캐리스노트","industry":"여성 의류 소매업","coordinates":[127.389542691581,36.3406828097712],"sales":{"202602":392}},{"id":"MA010120220806583589","name":"미쥬","industry":"여성 의류 소매업","coordinates":[127.389542691581,36.3406828097712],"sales":{"202602":217}},{"id":"MA010120220806600880","name":"롯데대전먼싱웨어","industry":"기타 의류 소매업","coordinates":[127.389542691581,36.3406828097712],"sales":{"202602":789}},{"id":"MA010120220806622558","name":"닥스롯데대전점길양섭","industry":"신발 소매업","coordinates":[127.389542691581,36.3406828097712],"sales":{"202602":293}},{"id":"MA010120220806634862","name":"고려내추럴","industry":"건강보조식품 소매업","coordinates":[127.390641156188,36.3398231068935],"sales":{"202602":903}},{"id":"MA010120220806645465","name":"세일야채","industry":"채소/과일 소매업","coordinates":[127.383483074798,36.3338624754459],"sales":{"202602":3118}},{"id":"MA010120220806649241","name":"플레이키즈프로","industry":"기타 의류 소매업","coordinates":[127.389542691581,36.3406828097712],"sales":{"202602":557}},{"id":"MA010120220806650597","name":"뉴에라키즈","industry":"유아용 의류 소매업","coordinates":[127.389542691581,36.3406828097712],"sales":{"202602":656}},{"id":"MA010120220806653622","name":"프로스펙스","industry":"기타 의류 소매업","coordinates":[127.389542691581,36.3406828097712],"sales":{"202602":411}},{"id":"MA010120220806659121","name":"이마트24","industry":"편의점","coordinates":[127.389744450638,36.3386995641578],"sales":{"202602":2175}},{"id":"MA010120220806668616","name":"멕시카나치킨롯데","industry":"치킨","coordinates":[127.389002293456,36.3395310644107],"sales":{"202602":300}},{"id":"MA010120220806672291","name":"오슈공인중개사사무소","industry":"부동산 중개/대리업","coordinates":[127.384551069737,36.3381396346497],"sales":{"202602":2849}},{"id":"MA010120220806683882","name":"유명장식","industry":"벽지/장판/마루 소매업","coordinates":[127.383030418536,36.3369549645402],"sales":{"202602":92}},{"id":"MA010120220806688325","name":"캘빈클라인여성롯데대전","industry":"여성 의류 소매업","coordinates":[127.389542691581,36.3406828097712],"sales":{"202602":284}},{"id":"MA010120220806692005","name":"이현커피","industry":"카페","coordinates":[127.379898616635,36.3388574320306],"sales":{"202602":1745}},{"id":"MA010120220806725699","name":"미가기업교육센터","industry":"그 외 기타 교육기관","coordinates":[127.390641156188,36.3398231068935],"sales":{"202602":298}},{"id":"MA010120220806746807","name":"리치메이커","industry":"백반/한정식","coordinates":[127.381272883046,36.3351492183998],"sales":{"202602":834}},{"id":"MA010120220806757295","name":"해뜰날","industry":"화장품 소매업","coordinates":[127.380849950233,36.3375026390006],"sales":{"202602":350}},{"id":"MA010120220806771510","name":"다랑","industry":"횟집","coordinates":[127.38979362973,36.3396276154102],"sales":{"202602":402}},{"id":"MA010120220806776485","name":"서울방치과의원","industry":"치과의원","coordinates":[127.390641156188,36.3398231068935],"sales":{"202602":3371}},{"id":"MA010120220806777812","name":"김가네순대편육","industry":"국/탕/찌개류","coordinates":[127.383999129903,36.3346178074379],"sales":{"202602":2097}},{"id":"MA010120220806790352","name":"동네크리닝","industry":"세탁소","coordinates":[127.386946550963,36.3405290320446],"sales":{"202602":156}},{"id":"MA010120220806790364","name":"쥬시쥬디","industry":"여성 의류 소매업","coordinates":[127.389542691581,36.3406828097712],"sales":{"202602":1279}},{"id":"MA010120220806820195","name":"좋은하루홈클린","industry":"건축물 일반 청소업","coordinates":[127.377932529853,36.3376831238983],"sales":{"202602":229}},{"id":"MA010120220806821555","name":"소소에스테틱","industry":"피부 관리실","coordinates":[127.388297026002,36.3410653575409],"sales":{"202602":185}},{"id":"MA010120220806839410","name":"에몬스가구","industry":"그 외 기타 개인/가정용품 수리업","coordinates":[127.379066941178,36.3373280721874],"sales":{"202602":1571}},{"id":"MA010120220806843701","name":"마루가닳도록","industry":"건축물 일반 청소업","coordinates":[127.382130375791,36.3373994223817],"sales":{"202602":138}},{"id":"MA010120220806851035","name":"더샤인인테리어디자인","industry":"인테리어 디자인업","coordinates":[127.379641599245,36.338687025173],"sales":{"202602":869}},{"id":"MA010120220806870934","name":"지에스25괴정고","industry":"편의점","coordinates":[127.37852088221,36.3395737331779],"sales":{"202602":3770}},{"id":"MA010120220806890008","name":"그리피스모텔","industry":"여관/모텔","coordinates":[127.388897386557,36.3385941823811],"sales":{"202602":800}},{"id":"MA010120220806895040","name":"듀엘","industry":"여성 의류 소매업","coordinates":[127.389542691581,36.3406828097712],"sales":{"202602":372}},{"id":"MA010120220806906501","name":"새봄요양보호사교육원","industry":"기타 기술/직업 훈련학원","coordinates":[127.384947982306,36.3350473201109],"sales":{"202602":1131}},{"id":"MA010120220806921036","name":"바나나브로우","industry":"피부 관리실","coordinates":[127.381266927089,36.3362126264339],"sales":{"202602":249}},{"id":"MA010120220806923220","name":"송죽헤어","industry":"미용실","coordinates":[127.386136997201,36.338999650631],"sales":{"202602":319}},{"id":"MA010120220806926970","name":"데이즈포토그라피","industry":"사진촬영업","coordinates":[127.38116125315,36.3373844935774],"sales":{"202602":180}},{"id":"MA010120220806930420","name":"와우인테리어필름","industry":"인테리어 디자인업","coordinates":[127.384116570537,36.3358520427122],"sales":{"202602":597}},{"id":"MA010120220806950791","name":"롯데대전리바이스","industry":"남성 의류 소매업","coordinates":[127.389542691581,36.3406828097712],"sales":{"202602":1008}},{"id":"MA010120220806974641","name":"이마트24","industry":"편의점","coordinates":[127.37552666261,36.3400157439647],"sales":{"202602":5411}},{"id":"MA010120220806986705","name":"프로포즈","industry":"채소/과일 소매업","coordinates":[127.384713153922,36.3348588290343],"sales":{"202602":5919}},{"id":"MA010120220807005139","name":"구설희개성칼국수","industry":"국수/칼국수","coordinates":[127.385870453499,36.3369007699105],"sales":{"202602":872}},{"id":"MA010120220807008898","name":"달노래연습장","industry":"노래방","coordinates":[127.384089914465,36.3349599630521],"sales":{"202602":735}},{"id":"MA010120220807011299","name":"미리내공인중개사사무소","industry":"부동산 중개/대리업","coordinates":[127.380573552002,36.3379270725992],"sales":{"202602":4071}},{"id":"MA010120220807016056","name":"본우리집밥롯데대전점","industry":"백반/한정식","coordinates":[127.389542691581,36.3406828097712],"sales":{"202602":519}},{"id":"MA010120220807035656","name":"블룽다방","industry":"카페","coordinates":[127.382329540794,36.3348484543637],"sales":{"202602":682}},{"id":"MA010120220807043315","name":"여진에이스침대","industry":"가구 소매업","coordinates":[127.389542691581,36.3406828097712],"sales":{"202602":2998}},{"id":"MA010120220807046236","name":"인생폰대전지사","industry":"중고 상품 소매업","coordinates":[127.387287049804,36.3418075991989],"sales":{"202602":196}},{"id":"MA010120220807060383","name":"김복남맥주","industry":"생맥주 전문","coordinates":[127.384557709635,36.3349584587824],"sales":{"202602":1218}},{"id":"MA010120220807061299","name":"포레스트기구필라테스","industry":"요가/필라테스 학원","coordinates":[127.382311973811,36.3335327916442],"sales":{"202602":390}},{"id":"MA010120220807063412","name":"지짐이와막걸리","industry":"요리 주점","coordinates":[127.382939150995,36.3365136803105],"sales":{"202602":252}},{"id":"MA010120220807067526","name":"쮜니언니헤어#","industry":"미용실","coordinates":[127.381155778765,36.3385470291178],"sales":{"202602":199}},{"id":"MA010120220807070294","name":"카페동인","industry":"카페","coordinates":[127.388031258374,36.3413816323903],"sales":{"202602":586}},{"id":"MA010120220807070715","name":"무지개주택관리","industry":"건축물 일반 청소업","coordinates":[127.38542079447,36.3360641263516],"sales":{"202602":287}},{"id":"MA010120220807071111","name":"제이포크축산정육식당","industry":"돼지고기 구이/찜","coordinates":[127.386889787399,36.3403129335187],"sales":{"202602":2674}},{"id":"MA010120220807074789","name":"국수머꼬전머꼬","industry":"국수/칼국수","coordinates":[127.384557709635,36.3349584587824],"sales":{"202602":2300}},{"id":"MA010120220807074881","name":"세븐당구장","industry":"당구장","coordinates":[127.388382780951,36.3403891967605],"sales":{"202602":67}},{"id":"MA010120220807090532","name":"동동국수","industry":"국수/칼국수","coordinates":[127.389542691581,36.3406828097712],"sales":{"202602":1449}},{"id":"MA010120220807099599","name":"파이널나인대전","industry":"생맥주 전문","coordinates":[127.388596252653,36.3407579850602],"sales":{"202602":898}},{"id":"MA010120220807118974","name":"디저트39대전","industry":"카페","coordinates":[127.384439065217,36.3425467473212],"sales":{"202602":214}},{"id":"MA010120220807128723","name":"뷰티스킨","industry":"피부 관리실","coordinates":[127.381671725791,36.3369953583766],"sales":{"202602":349}},{"id":"MA010120220807132464","name":"든해헤어","industry":"미용실","coordinates":[127.390896715017,36.339696106606],"sales":{"202602":232}},{"id":"MA010120220807162360","name":"막창품은뒷고기","industry":"돼지고기 구이/찜","coordinates":[127.389599111496,36.3385918968694],"sales":{"202602":1221}},{"id":"MA010120220807170955","name":"돈콩","industry":"백반/한정식","coordinates":[127.380347639478,36.3349899545642],"sales":{"202602":1307}},{"id":"MA010120220807208365","name":"카페그린","industry":"카페","coordinates":[127.390896715017,36.339696106606],"sales":{"202602":266}},{"id":"MA010120220807214584","name":"탑브릭스","industry":"채소/과일 소매업","coordinates":[127.385899150854,36.3404603246232],"sales":{"202602":9690}},{"id":"MA010120220807235380","name":"보보스모텔","industry":"여관/모텔","coordinates":[127.389478876312,36.3390518887377],"sales":{"202602":1625}},{"id":"MA010120220807260880","name":"에이치에스스포츠","industry":"기타 의류 소매업","coordinates":[127.389542691581,36.3406828097712],"sales":{"202602":271}},{"id":"MA010120220807272481","name":"노점의류","industry":"여성 의류 소매업","coordinates":[127.384353652442,36.3410330461542],"sales":{"202602":811}},{"id":"MA010120220807297093","name":"중부축산물도매센타","industry":"정육점","coordinates":[127.383304560558,36.3337999656757],"sales":{"202602":6018}},{"id":"MA010120220807307043","name":"크린밸리","industry":"세탁소","coordinates":[127.385154674741,36.3385702557019],"sales":{"202602":202}},{"id":"MA010120220807329696","name":"소담헤어","industry":"미용실","coordinates":[127.386031991959,36.3380357309242],"sales":{"202602":468}},{"id":"MA010120220807330154","name":"롯데대전비비안","industry":"기타 의류 소매업","coordinates":[127.389542691581,36.3406828097712],"sales":{"202602":629}},{"id":"MA010120220807385197","name":"유앤시스템","industry":"핸드폰/통신장비 수리업","coordinates":[127.384959540739,36.3419232604064],"sales":{"202602":218}},{"id":"MA010120220807394782","name":"스토어ISLAY","industry":"그 외 기타 종합 소매업","coordinates":[127.384761610336,36.3424465799337],"sales":{"202602":1048}},{"id":"MA010120220807414621","name":"그랜드마트","industry":"슈퍼마켓","coordinates":[127.388850458507,36.3381167115312],"sales":{"202602":6223}},{"id":"MA010120220807415022","name":"롯데대전캘빈클라인여성신선경","industry":"여성 의류 소매업","coordinates":[127.389542691581,36.3406828097712],"sales":{"202602":308}},{"id":"MA010120220807485472","name":"붕붕카워시","industry":"자동차 세차장","coordinates":[127.376321496632,36.3385263021195],"sales":{"202602":280}},{"id":"MA010120220807487113","name":"가온통신","industry":"핸드폰 소매업","coordinates":[127.382208477052,36.3397061849512],"sales":{"202602":340}},{"id":"MA010120220807489460","name":"마징","industry":"기타 의류 소매업","coordinates":[127.38116125315,36.3373844935774],"sales":{"202602":311}},{"id":"MA010120220807567533","name":"드래곤당구장","industry":"당구장","coordinates":[127.385208015364,36.3380924601765],"sales":{"202602":169}},{"id":"MA010120220807775572","name":"맛있는아구찜마을","industry":"해산물 구이/찜","coordinates":[127.388201925655,36.3376141609725],"sales":{"202602":214}},{"id":"MA010120220807790431","name":"롯데대전점앤드지","industry":"남성 의류 소매업","coordinates":[127.389542691581,36.3406828097712],"sales":{"202602":790}},{"id":"MA010120220807798094","name":"롯데탑공인중개사사무소","industry":"부동산 중개/대리업","coordinates":[127.384959540739,36.3419232604064],"sales":{"202602":4713}},{"id":"MA010120220807799822","name":"롯데대전점언더아머","industry":"기타 의류 소매업","coordinates":[127.389542691581,36.3406828097712],"sales":{"202602":759}},{"id":"MA010120220807886274","name":"틸다샵","industry":"미용실","coordinates":[127.386946550963,36.3405290320446],"sales":{"202602":293}},{"id":"MA010120220807935216","name":"아리따움","industry":"화장품 소매업","coordinates":[127.390641156188,36.3398231068935],"sales":{"202602":365}},{"id":"MA010120220807992630","name":"중고천사","industry":"중고 상품 소매업","coordinates":[127.385497392376,36.3380464682832],"sales":{"202602":848}},{"id":"MA010120220807995476","name":"혜순이네간장게장","industry":"해산물 구이/찜","coordinates":[127.382765155941,36.3350993896686],"sales":{"202602":2413}},{"id":"MA010120220807999435","name":"웰마트","industry":"슈퍼마켓","coordinates":[127.381752979444,36.3399509584776],"sales":{"202602":7213}},{"id":"MA010120220808004287","name":"곰수산","industry":"횟집","coordinates":[127.387950917313,36.3409042698829],"sales":{"202602":2360}},{"id":"MA010120220808015022","name":"수제어묵과배기","industry":"백반/한정식","coordinates":[127.383051832049,36.3345036942421],"sales":{"202602":602}},{"id":"MA010120220808036432","name":"꽃비","industry":"기념품점","coordinates":[127.382823870743,36.3334410353615],"sales":{"202602":376}},{"id":"MA010120220808038189","name":"오렌지화장품","industry":"화장품 소매업","coordinates":[127.383304560558,36.3337999656757],"sales":{"202602":2338}},{"id":"MA010120220808042680","name":"선희네야채","industry":"채소/과일 소매업","coordinates":[127.383999129903,36.3346178074379],"sales":{"202602":3558}},{"id":"MA010120220808060442","name":"괴정주유소","industry":"주유소","coordinates":[127.38560726629,36.3377397137547],"sales":{"202602":33318}},{"id":"MA010120220808067051","name":"세탁풍경","industry":"셀프 빨래방","coordinates":[127.3807248409,36.3369713432296],"sales":{"202602":223}},{"id":"MA010120220808069474","name":"왕홍힐링센타","industry":"건강보조식품 소매업","coordinates":[127.384750320532,36.3378866638879],"sales":{"202602":1891}},{"id":"MA010120220808071734","name":"무인양품롯데대전점","industry":"그 외 기타 종합 소매업","coordinates":[127.389542691581,36.3406828097712],"sales":{"202602":841}},{"id":"MA010120220808084155","name":"베네통키즈","industry":"유아용 의류 소매업","coordinates":[127.389542691581,36.3406828097712],"sales":{"202602":543}},{"id":"MA010120220808085196","name":"누아즈","industry":"미용실","coordinates":[127.374690611711,36.3398831915911],"sales":{"202602":362}},{"id":"MA010120220808085598","name":"세븐일레븐대전롯데","industry":"편의점","coordinates":[127.388552279377,36.3408752809347],"sales":{"202602":3384}},{"id":"MA010120220808089016","name":"도호혜공","industry":"여성 의류 소매업","coordinates":[127.389542691581,36.3406828097712],"sales":{"202602":238}},{"id":"MA010120220808101588","name":"통국어연구소","industry":"경영 컨설팅업","coordinates":[127.377780987915,36.3385937916749],"sales":{"202602":1111}},{"id":"MA010120220808105816","name":"네파롯데대전2","industry":"유아용 의류 소매업","coordinates":[127.389542691581,36.3406828097712],"sales":{"202602":170}},{"id":"MA010120220808114802","name":"테라인테리어","industry":"인테리어 디자인업","coordinates":[127.380849950233,36.3375026390006],"sales":{"202602":1017}},{"id":"MA010120220808143637","name":"대전와인","industry":"슈퍼마켓","coordinates":[127.382668823495,36.3336217673712],"sales":{"202602":12505}},{"id":"MA010120220808166988","name":"오마카세키친","industry":"일식 회/초밥","coordinates":[127.388402686943,36.3399115086565],"sales":{"202602":3599}},{"id":"MA010120220808172392","name":"디큐브미디어","industry":"광고 대행업","coordinates":[127.38116125315,36.3373844935774],"sales":{"202602":993}},{"id":"MA010120220808182018","name":"인컴웹","industry":"광고 대행업","coordinates":[127.386605840752,36.3392054054779],"sales":{"202602":727}},{"id":"MA010120220808202174","name":"리조트랩","industry":"헬스장","coordinates":[127.389542691581,36.3406828097712],"sales":{"202602":550}},{"id":"MA010120220808206131","name":"원피자,피자2001괴정","industry":"피자","coordinates":[127.389353391919,36.3384575211752],"sales":{"202602":164}},{"id":"MA010120220808236724","name":"롯데대전어스앤뎀","industry":"기타 의류 소매업","coordinates":[127.389542691581,36.3406828097712],"sales":{"202602":903}},