[{"id":"MA010120220800062359","name":"수통55","industry":"피자","coordinates":[127.290448038622,36.3460834210527],"sales":{"202602":5509}},{"id":"MA010120220800605119","name":"백억공인중개사사무소","industry":"부동산 중개/대리업","coordinates":[127.304924050487,36.341766764914],"sales":{"202602":2364}},{"id":"MA010120220800627288","name":"레아하우징","industry":"부동산 중개/대리업","coordinates":[127.309510731641,36.3410971138476],"sales":{"202602":2721}},{"id":"MA010120220800638612","name":"그린브라우니","industry":"카페","coordinates":[127.298587805537,36.3481090338598],"sales":{"202602":408}},{"id":"MA010120220800645745","name":"디케","industry":"운동용품 소매업","coordinates":[127.308987267763,36.3354751125971],"sales":{"202602":907}},{"id":"MA010120220800688726","name":"에이치카케어","industry":"자동차 세차장","coordinates":[127.310806570583,36.3448336397511],"sales":{"202602":674}},{"id":"MA010120220800692389","name":"대전에어컨청소세탁기청소클린에코홈케어","industry":"산업설비, 운송장비 및 공공장소 청소업","coordinates":[127.304814023403,36.3449752398216],"sales":{"202602":387}},{"id":"MA010120220800812034","name":"프렌즈스크린","industry":"골프 연습장","coordinates":[127.311439973455,36.338848167368],"sales":{"202602":1411}},{"id":"MA010120220800835000","name":"가위입니다","industry":"미용실","coordinates":[127.313995350009,36.3427706183238],"sales":{"202602":815}},{"id":"MA010120220800845702","name":"여기는미용실","industry":"미용실","coordinates":[127.302312429058,36.3404576792112],"sales":{"202602":392}},{"id":"MA010120220800851530","name":"대유대전지사","industry":"공인노무사","coordinates":[127.308623537477,36.3392700158253],"sales":{}},{"id":"MA010120220800918275","name":"비비안홍","industry":"미용실","coordinates":[127.302650674286,36.3415112020308],"sales":{"202602":224}},{"id":"MA010120220801005844","name":"씨엔씨티마음에너지재단","industry":"기타 교육지원 서비스업","coordinates":[127.308458451597,36.3454254892349],"sales":{"202602":173}},{"id":"MA010120220801052944","name":"유성학하충전소","industry":"가스 충전소","coordinates":[127.307907295634,36.3327563377871],"sales":{"202602":20948}},{"id":"MA010120220801065008","name":"휴비젼","industry":"사업시설 유지·관리 서비스업","coordinates":[127.290309346796,36.3537347552326],"sales":{"202602":484}},{"id":"MA010120220801143497","name":"수노래연습장","industry":"노래방","coordinates":[127.297826459244,36.3500304417708],"sales":{"202602":796}},{"id":"MA010120220801322536","name":"에이치에스렌트카","industry":"자동차 대여업","coordinates":[127.307410022944,36.3394263437937],"sales":{"202602":21191}},{"id":"MA010120220801324877","name":"다온","industry":"제품 디자인업","coordinates":[127.300331093998,36.3379213502892],"sales":{}},{"id":"MA010120220801372623","name":"금광공인중개사사무소","industry":"부동산 중개/대리업","coordinates":[127.297130149424,36.3485542441492],"sales":{"202602":2188}},{"id":"MA010120220801613636","name":"수통골돌짜장","industry":"중국집","coordinates":[127.292763099757,36.3455460768718],"sales":{"202602":1290}},{"id":"MA010120220801852852","name":"고려메디투어주","industry":"여행사","coordinates":[127.309230441176,36.340638238436],"sales":{"202602":1714}},{"id":"MA010120220801955706","name":"어깨동무협동조합","industry":"마사지/안마","coordinates":[127.313818179063,36.3374811664148],"sales":{"202602":283}},{"id":"MA010120220802374195","name":"디자인빛나","industry":"시각 디자인업","coordinates":[127.296783611848,36.3482396931381],"sales":{"202602":360}},{"id":"MA010120220802477641","name":"오투꿈공인중개사사무소","industry":"부동산 중개/대리업","coordinates":[127.304501854395,36.3420472066955],"sales":{"202602":1026}},{"id":"MA010120220802542183","name":"제이에스지","industry":"자동차 세차장","coordinates":[127.306987814793,36.3425364947444],"sales":{"202602":230}},{"id":"MA010120220802678025","name":"스쿼시747","industry":"스쿼시/라켓볼장","coordinates":[127.303648617332,36.3374623779455],"sales":{"202602":15}},{"id":"MA010120220802865368","name":"지오샵공인중개사사무소","industry":"부동산 중개/대리업","coordinates":[127.298589904476,36.3486587469222],"sales":{"202602":775}},{"id":"MA010120220802887440","name":"플라워카페아이엠티유성덕명","industry":"카페","coordinates":[127.304865756142,36.3411000415888],"sales":{"202602":654}},{"id":"MA010120220802888413","name":"탑주짓수","industry":"태권도/무술학원","coordinates":[127.307372054398,36.3411026335669],"sales":{"202602":540}},{"id":"MA010120220802914960","name":"제아종합건축사사무소","industry":"건축 설계 및 관련 서비스업","coordinates":[127.307372054398,36.3411026335669],"sales":{}},{"id":"MA010120220802934772","name":"해이컴퍼니","industry":"카페","coordinates":[127.297994449208,36.3444156856347],"sales":{"202602":602}},{"id":"MA010120220803010021","name":"마온필라테스","industry":"요가/필라테스 학원","coordinates":[127.303584637149,36.3410672556942],"sales":{"202602":221}},{"id":"MA010120220803010182","name":"소담소우","industry":"돼지고기 구이/찜","coordinates":[127.302257466017,36.3406470657479],"sales":{"202602":1611}},{"id":"MA010120220803010564","name":"공릉동원조멸치국수","industry":"국수/칼국수","coordinates":[127.295904474627,36.3484851912391],"sales":{"202602":1468}},{"id":"MA010120220803011296","name":"뉴오투탑공인중개사사무소","industry":"부동산 중개/대리업","coordinates":[127.303407160138,36.3441317126366],"sales":{"202602":2732}},{"id":"MA010120220803012590","name":"에스제이이앤씨","industry":"건물 및 토목 엔지니어링 서비스업","coordinates":[127.310509516046,36.3401572974117],"sales":{}},{"id":"MA010120220803014685","name":"슈아브에스테틱","industry":"피부 관리실","coordinates":[127.30427959858,36.3421829495421],"sales":{"202602":319}},{"id":"MA010120220803034092","name":"탐스올드카","industry":"자동차 부품 소매업","coordinates":[127.310745251916,36.3434189499275],"sales":{"202602":643}},{"id":"MA010120220803049892","name":"화심순두부","industry":"백반/한정식","coordinates":[127.298183853821,36.3444242249716],"sales":{"202602":1184}},{"id":"MA010120220803053005","name":"제주돈방","industry":"돼지고기 구이/찜","coordinates":[127.300944654668,36.3468504847937],"sales":{"202602":1289}},{"id":"MA010120220803053518","name":"수통골오리불고기","industry":"돼지고기 구이/찜","coordinates":[127.296205130955,36.3455105595716],"sales":{"202602":1458}},{"id":"MA010120220803115894","name":"아이엠일리터","industry":"카페","coordinates":[127.299881283989,36.3484302188362],"sales":{"202602":890}},{"id":"MA010120220803118837","name":"아브힐","industry":"피부 관리실","coordinates":[127.302284549693,36.3418906236223],"sales":{"202602":449}},{"id":"MA010120220803121529","name":"아르떼헤어","industry":"피부 관리실","coordinates":[127.303706850633,36.3409858391093],"sales":{"202602":476}},{"id":"MA010120220803127026","name":"제이에이치엔지니어링","industry":"도시 계획 및 조경 설계 서비스업","coordinates":[127.308623537477,36.3392700158253],"sales":{}},{"id":"MA010120220803167336","name":"헐커스","industry":"반찬/식료품 소매업","coordinates":[127.305081646289,36.3393331805627],"sales":{"202602":1136}},{"id":"MA010120220803174494","name":"업소명없음","industry":"자동차 부품 소매업","coordinates":[127.316228978021,36.3441976015329],"sales":{"202602":2410}},{"id":"MA010120220803175592","name":"판파니","industry":"자동차 부품 소매업","coordinates":[127.310834981903,36.3351639204595],"sales":{"202602":2894}},{"id":"MA010120220803179095","name":"수미현꼬마김밥","industry":"김밥/만두/분식","coordinates":[127.300389846835,36.3474196226428],"sales":{"202602":691}},{"id":"MA010120220803206204","name":"가문공인중개사사무소","industry":"부동산 중개/대리업","coordinates":[127.314409999026,36.3433913409322],"sales":{"202602":1100}},{"id":"MA010120220803212184","name":"피자런","industry":"피자","coordinates":[127.302105732985,36.3417378754511],"sales":{"202602":4719}},{"id":"MA010120220803234432","name":"서래갈매기","industry":"돼지고기 구이/찜","coordinates":[127.300747292485,36.3476710533318],"sales":{"202602":2297}},{"id":"MA010120220803234661","name":"에이프로짐","industry":"헬스장","coordinates":[127.309510731641,36.3410971138476],"sales":{"202602":1063}},{"id":"MA010120220803257153","name":"819커스텀","industry":"자동차 부품 소매업","coordinates":[127.316543704456,36.3421420827299],"sales":{"202602":2206}},{"id":"MA010120220803276388","name":"성원글로벌","industry":"상용 인력 공급 및 인사관리 서비스업","coordinates":[127.30311022203,36.3594885209347],"sales":{}},{"id":"MA010120220803287899","name":"혼밥실록","industry":"백반/한정식","coordinates":[127.29975843313,36.3483494210869],"sales":{"202602":6932}},{"id":"MA010120220803293737","name":"헤어스토리","industry":"미용실","coordinates":[127.305618985441,36.3571210495649],"sales":{"202602":178}},{"id":"MA010120220803310799","name":"홈앤창","industry":"침구류/커튼 소매업","coordinates":[127.302484251288,36.3416828472854],"sales":{"202602":781}},{"id":"MA010120220803382893","name":"이와이디자인","industry":"건축 설계 및 관련 서비스업","coordinates":[127.315953369394,36.3421526566912],"sales":{}},{"id":"MA010120220803390311","name":"아트젠","industry":"전시/컨벤션/행사 대행 서비스업","coordinates":[127.311327399547,36.3441473889022],"sales":{"202602":1132}},{"id":"MA010120220803398117","name":"홀스피아","industry":"운동용품 소매업","coordinates":[127.306812865284,36.35756857798],"sales":{"202602":5808}},{"id":"MA010120220803412997","name":"학하멀티샵","industry":"자동차 정비소","coordinates":[127.313835532638,36.3418067775729],"sales":{"202602":1243}},{"id":"MA010120220803419963","name":"롯데쇼핑롯데슈퍼대전","industry":"슈퍼마켓","coordinates":[127.298390518673,36.3489566335285],"sales":{"202602":8529}},{"id":"MA010120220803433139","name":"토끼주방","industry":"김밥/만두/분식","coordinates":[127.308629510667,36.3407839803819],"sales":{"202602":404}},{"id":"MA010120220803503721","name":"엘엔제이모터스대전","industry":"자동차 정비소","coordinates":[127.309965535631,36.3406183105548],"sales":{"202602":1415}},{"id":"MA010120220803508856","name":"정림스토아","industry":"슈퍼마켓","coordinates":[127.305218721313,36.3402069738921],"sales":{"202602":13631}},{"id":"MA010120220803575598","name":"다이소대전","industry":"그 외 기타 종합 소매업","coordinates":[127.298059133067,36.3496964260299],"sales":{"202602":3135}},{"id":"MA010120220803578201","name":"실로그리다","industry":"카페","coordinates":[127.302879526215,36.3430786726066],"sales":{"202602":181}},{"id":"MA010120220803699598","name":"동큐칼국수","industry":"국수/칼국수","coordinates":[127.298536818985,36.3493437744238],"sales":{"202602":905}},{"id":"MA010120220803702884","name":"어썸마켓","industry":"슈퍼마켓","coordinates":[127.313712244209,36.3416178538551],"sales":{"202602":18143}},{"id":"MA010120220803705975","name":"41번지헤드스파","industry":"미용실","coordinates":[127.311329356078,36.3418403680112],"sales":{"202602":361}},{"id":"MA010120220803722917","name":"김연스킨케어","industry":"피부 관리실","coordinates":[127.307304853374,36.3580179016322],"sales":{"202602":194}},{"id":"MA010120220803869620","name":"월드그래픽","industry":"시각 디자인업","coordinates":[127.314462704919,36.3398766073987],"sales":{"202602":327}},{"id":"MA010120220803869705","name":"녹원","industry":"사업/무형 재산권 중개업","coordinates":[127.305249624559,36.3452715166584],"sales":{}},{"id":"MA010120220804002658","name":"한중경제통상진흥원","industry":"경영 컨설팅업","coordinates":[127.311403708392,36.346526299183],"sales":{"202602":1317}},{"id":"MA010120220804071192","name":"씨아워알앤씨","industry":"시장 조사 및 여론 조사업","coordinates":[127.308049547674,36.3434259290189],"sales":{}},{"id":"MA010120220804182773","name":"학하별밭공인중개사사무소","industry":"부동산 중개/대리업","coordinates":[127.308855991042,36.3388999320508],"sales":{"202602":1386}},{"id":"MA010120220804199636","name":"뜨레돌체","industry":"카페","coordinates":[127.289054613587,36.345825457944],"sales":{"202602":1210}},{"id":"MA010120220804321510","name":"배스킨라빈스대전학하","industry":"아이스크림/빙수","coordinates":[127.301133371468,36.3466787856243],"sales":{"202602":2058}},{"id":"MA010120220804331843","name":"머니빌","industry":"기숙사/고시원","coordinates":[127.29746692094,36.3492292894355],"sales":{"202602":237}},{"id":"MA010120220804545239","name":"향기곳간","industry":"반찬/식료품 소매업","coordinates":[127.303476459378,36.3591181092321],"sales":{"202602":2215}},{"id":"MA010120220804580128","name":"조아플러스공인중개사사무소","industry":"부동산 중개/대리업","coordinates":[127.301599120837,36.3461278926296],"sales":{"202602":1614}},{"id":"MA010120220804789126","name":"글로벌적합성평가원","industry":"경영 컨설팅업","coordinates":[127.297530675733,36.3484180709534],"sales":{"202602":1193}},{"id":"MA010120220804799410","name":"타일아트","industry":"건설/건축자재 소매업","coordinates":[127.297530675733,36.3484180709534],"sales":{"202602":158}},{"id":"MA010120220804841797","name":"스포츠&닥터","industry":"그 외 기타 개인/가정용품 수리업","coordinates":[127.313692712879,36.3423028005096],"sales":{"202602":3918}},{"id":"MA010120220804868244","name":"카페그림자기","industry":"카페","coordinates":[127.294680535684,36.3459198588787],"sales":{"202602":997}},{"id":"MA010120220804881496","name":"새차처럼","industry":"자동차 정비소","coordinates":[127.311946134593,36.3400814619027],"sales":{"202602":1561}},{"id":"MA010120220804883178","name":"큐박스빌리어드","industry":"그 외 기타 개인/가정용품 수리업","coordinates":[127.306527846168,36.344547302545],"sales":{"202602":2455}},{"id":"MA010120220804893315","name":"JSG프로광택","industry":"자동차 세차장","coordinates":[127.306987814793,36.3425364947444],"sales":{"202602":538}},{"id":"MA010120220804901128","name":"바꿔봐미용실","industry":"미용실","coordinates":[127.304702171989,36.3448583719338],"sales":{"202602":420}},{"id":"MA010120220804912682","name":"오케이명품세탁","industry":"세탁소","coordinates":[127.303183425567,36.3410142034907],"sales":{"202602":205}},{"id":"MA010120220804913306","name":"몽이통신","industry":"핸드폰 소매업","coordinates":[127.298390518673,36.3489566335285],"sales":{"202602":535}},{"id":"MA010120220804948242","name":"워시프렌즈셀프빨래방유성","industry":"셀프 빨래방","coordinates":[127.310129939108,36.3399420001745],"sales":{"202602":138}},{"id":"MA010120220804958539","name":"채움교육","industry":"문구/회화용품 소매업","coordinates":[127.297797829763,36.3483633348399],"sales":{"202602":499}},{"id":"MA010120220804970895","name":"전광수커피하우스","industry":"카페","coordinates":[127.298322654505,36.3399269978718],"sales":{"202602":305}},{"id":"MA010120220804981613","name":"아이케어","industry":"소독, 구충 및 방제 서비스업","coordinates":[127.31521931552,36.3424339603175],"sales":{"202602":417}},{"id":"MA010120220805004570","name":"헤어풍경","industry":"미용실","coordinates":[127.302025073148,36.3468117119527],"sales":{"202602":81}},{"id":"MA010120220805007203","name":"나빌레라","industry":"기타 교육지원 서비스업","coordinates":[127.309547548894,36.3391414610952],"sales":{"202602":245}},{"id":"MA010120220805010733","name":"마인드블로잉","industry":"시각 디자인업","coordinates":[127.315407844875,36.342226191944],"sales":{"202602":741}},{"id":"MA010120220805026218","name":"대전건재","industry":"철물/공구 소매업","coordinates":[127.310828889023,36.3392372650704],"sales":{"202602":3629}},{"id":"MA010120220805036158","name":"뷰티샵","industry":"피부 관리실","coordinates":[127.315857015153,36.3403595667964],"sales":{"202602":226}},{"id":"MA010120220805057808","name":"마이클래식음악학원","industry":"음악학원","coordinates":[127.306563820674,36.3423573474902],"sales":{"202602":522}},{"id":"MA010120220805071696","name":"브이제이컴퍼니","industry":"전시/컨벤션/행사 대행 서비스업","coordinates":[127.312517395449,36.3380883647188],"sales":{"202602":6099}},{"id":"MA010120220805083232","name":"제이에스F&C","industry":"반찬/식료품 소매업","coordinates":[127.300790812189,36.3474005905101],"sales":{"202602":1097}},{"id":"MA010120220805088210","name":"옛날정육점","industry":"정육점","coordinates":[127.302257466017,36.3406470657479],"sales":{"202602":5995}},{"id":"MA010120220805088873","name":"제이스킨앤바디","industry":"피부 관리실","coordinates":[127.301599120837,36.3461278926296],"sales":{"202602":288}},{"id":"MA010120220805127513","name":"학하학하셀프주유소","industry":"주유소","coordinates":[127.314159515103,36.3448158606015],"sales":{"202602":46279}},{"id":"MA010120220805171647","name":"춘하에스프레소","industry":"카페","coordinates":[127.292384454649,36.3455740392317],"sales":{"202602":564}},{"id":"MA010120220805217386","name":"다원공인중개사사무소","industry":"부동산 중개/대리업","coordinates":[127.3023590745,36.3409982683755],"sales":{"202602":1183}},{"id":"MA010120220805234408","name":"다온이루다","industry":"부동산 중개/대리업","coordinates":[127.310961191883,36.3388944730146],"sales":{"202602":1851}},{"id":"MA010120220805241871","name":"옥션JB","industry":"예술품 소매업","coordinates":[127.302574729042,36.3593096430123],"sales":{"202602":297}},{"id":"MA010120220805247813","name":"스포츠매니아","industry":"운동용품 소매업","coordinates":[127.31078665793,36.3426258055669],"sales":{"202602":1564}},{"id":"MA010120220805259619","name":"바닐라헤어","industry":"미용실","coordinates":[127.304845234279,36.3415506831683],"sales":{"202602":868}},{"id":"MA010120220805260172","name":"하나유통","industry":"애완동물/애완용품 소매업","coordinates":[127.316790187722,36.3424928890297],"sales":{"202602":212}},{"id":"MA010120220805284723","name":"케이엠앤티","industry":"핸드폰 소매업","coordinates":[127.304042009012,36.3269085616669],"sales":{"202602":328}},{"id":"MA010120220805338406","name":"지와이캐슬","industry":"그 외 기타 숙박업","coordinates":[127.29759566383,36.3479312732197],"sales":{"202602":19}},{"id":"MA010120220805356955","name":"희카페","industry":"카페","coordinates":[127.309414826641,36.356273186839],"sales":{"202602":764}},{"id":"MA010120220805358558","name":"이화수육개장대전","industry":"국/탕/찌개류","coordinates":[127.29759929906,36.3488865123941],"sales":{"202602":935}},{"id":"MA010120220805366039","name":"그린벨리","industry":"전문자격/고시학원","coordinates":[127.304845234279,36.3415506831683],"sales":{"202602":1061}},{"id":"MA010120220805370304","name":"수통골장인곰탕","industry":"국/탕/찌개류","coordinates":[127.292802422889,36.3471230420347],"sales":{"202602":2411}},{"id":"MA010120220805372219","name":"소유아이티시스템","industry":"컴퓨터/사무기기 대여업","coordinates":[127.30301062027,36.3366619477585],"sales":{"202602":1544}},{"id":"MA010120220805387914","name":"제이에이치디테일링","industry":"자동차 세차장","coordinates":[127.308239495954,36.3379192387686],"sales":{"202602":218}},{"id":"MA010120220805423765","name":"드림공인중개사사무소","industry":"부동산 중개/대리업","coordinates":[127.309898059754,36.3404562734228],"sales":{"202602":1536}},{"id":"MA010120220805425493","name":"수디자인건축","industry":"인테리어 디자인업","coordinates":[127.313511627362,36.3360310728885],"sales":{"202602":1181}},{"id":"MA010120220805472785","name":"신한밭공인중개사사무소","industry":"부동산 중개/대리업","coordinates":[127.297781452205,36.349913400881],"sales":{"202602":2136}},{"id":"MA010120220805480386","name":"종로맥가","industry":"생맥주 전문","coordinates":[127.302313996327,36.3408632056275],"sales":{"202602":968}},{"id":"MA010120220805484867","name":"차차워커스","industry":"기타 개인/가정용품 대여업","coordinates":[127.302795081515,36.3586692499553],"sales":{"202602":542}},{"id":"MA010120220805492359","name":"소소림","industry":"카페","coordinates":[127.294341650933,36.347632932056],"sales":{"202602":737}},{"id":"MA010120220805521361","name":"크린토피아코인워시365,씨스페이스대전","industry":"셀프 빨래방","coordinates":[127.297295913546,36.3482023726112],"sales":{"202602":306}},{"id":"MA010120220805527021","name":"브랜비","industry":"자동차 정비소","coordinates":[127.308208504998,36.341361821059],"sales":{"202602":3305}},{"id":"MA010120220805532487","name":"은광스틸","industry":"중고 상품 소매업","coordinates":[127.315010062807,36.3374960544077],"sales":{"202602":619}},{"id":"MA010120220805541366","name":"파리바게뜨학하","industry":"빵/도넛","coordinates":[127.304046272931,36.3423367437045],"sales":{"202602":1394}},{"id":"MA010120220805634378","name":"가온누리건축사사무소","industry":"건축 설계 및 관련 서비스업","coordinates":[127.308710050839,36.3386119319166],"sales":{}},{"id":"MA010120220805646649","name":"세븐일레븐대전","industry":"편의점","coordinates":[127.307394515757,36.3581528473799],"sales":{"202602":3011}},{"id":"MA010120220805696365","name":"아이올라","industry":"기타 의류 소매업","coordinates":[127.30381652488,36.3405439828459],"sales":{"202602":497}},{"id":"MA010120220805736263","name":"소닉","industry":"기타 운송장비 대여업","coordinates":[127.309335840501,36.3560210620335],"sales":{}},{"id":"MA010120220805740777","name":"태령자동차","industry":"자동차 정비소","coordinates":[127.314511122093,36.3436073575362],"sales":{"202602":4431}},{"id":"MA010120220805741098","name":"홍균스튜디오","industry":"사진촬영업","coordinates":[127.301886911526,36.3600773822],"sales":{"202602":852}},{"id":"MA010120220805746350","name":"제이케이종합상사","industry":"철물/공구 소매업","coordinates":[127.311425500982,36.3436064265487],"sales":{"202602":960}},{"id":"MA010120220805750508","name":"디자인코디","industry":"광고물 설계/제작업","coordinates":[127.308340395086,36.3578620339776],"sales":{"202602":1885}},{"id":"MA010120220805764178","name":"왕가네부부닭갈비","industry":"닭/오리고기 구이/찜","coordinates":[127.29934853043,36.3489452257473],"sales":{"202602":1943}},{"id":"MA010120220805764766","name":"산호산업","industry":"사업시설 유지·관리 서비스업","coordinates":[127.318935520528,36.3413787339694],"sales":{"202602":1920}},{"id":"MA010120220805769010","name":"한밭모터스","industry":"자동차 정비소","coordinates":[127.307248544471,36.3578648465354],"sales":{"202602":2854}},{"id":"MA010120220805771454","name":"대전현대렌탈","industry":"가구 소매업","coordinates":[127.299252555426,36.3384197042303],"sales":{"202602":3669}},{"id":"MA010120220805772652","name":"가나렌탈","industry":"기타 개인/가정용품 대여업","coordinates":[127.312517395449,36.3380883647188],"sales":{"202602":714}},{"id":"MA010120220805773225","name":"현솔자연쌈","industry":"백반/한정식","coordinates":[127.300886764215,36.3607557867207],"sales":{"202602":1527}},{"id":"MA010120220805774789","name":"더카페지오","industry":"카페","coordinates":[127.299304659989,36.3491255711232],"sales":{"202602":923}},{"id":"MA010120220805777796","name":"카페","industry":"카페","coordinates":[127.298011034968,36.3487683332274],"sales":{"202602":2559}},{"id":"MA010120220805778047","name":"카맥스","industry":"자동차 정비소","coordinates":[127.313687833945,36.3410862227738],"sales":{"202602":1128}},{"id":"MA010120220805779079","name":"이경헤어","industry":"미용실","coordinates":[127.308803347338,36.3565991920726],"sales":{"202602":569}},{"id":"MA010120220805781108","name":"박종배공인중개사사무소","industry":"부동산 중개/대리업","coordinates":[127.298945420847,36.3484055283685],"sales":{"202602":2063}},{"id":"MA010120220805785039","name":"대전파워공인중개사사무소","industry":"부동산 중개/대리업","coordinates":[127.305586196757,36.3401789994687],"sales":{"202602":2216}},{"id":"MA010120220805785677","name":"씨케이아이엔씨","industry":"핸드폰 소매업","coordinates":[127.314618165132,36.3425256622378],"sales":{"202602":165}},{"id":"MA010120220805785731","name":"대건상사","industry":"자전거 소매업","coordinates":[127.304768560352,36.3418843147347],"sales":{"202602":1435}},{"id":"MA010120220805788816","name":"한빛하이테크시스템","industry":"가전제품 소매업","coordinates":[127.311327399547,36.3441473889022],"sales":{"202602":5665}},{"id":"MA010120220805798102","name":"보경엔지니어링","industry":"건축 설계 및 관련 서비스업","coordinates":[127.295003867667,36.3489470184946],"sales":{}},{"id":"MA010120220805802552","name":"유성틴팅","industry":"자동차 부품 소매업","coordinates":[127.316014560664,36.3407556687579],"sales":{"202602":710}},{"id":"MA010120220805816505","name":"코스타이엔지","industry":"기타 엔지니어링 서비스업","coordinates":[127.314554279186,36.3404891677102],"sales":{"202602":37893}},{"id":"MA010120220805817211","name":"거산이엔씨","industry":"건물 및 토목 엔지니어링 서비스업","coordinates":[127.30954275767,36.3407455713236],"sales":{}},{"id":"MA010120220805819097","name":"메이크유","industry":"사진촬영업","coordinates":[127.306183052802,36.3446833631276],"sales":{"202602":645}},{"id":"MA010120220805827743","name":"금싸라기공인중개사사무소","industry":"부동산 중개/대리업","coordinates":[127.313939075404,36.3426265776843],"sales":{"202602":2115}},{"id":"MA010120220805829883","name":"코코헤어샵","industry":"미용실","coordinates":[127.302357218683,36.357805229822],"sales":{"202602":178}},{"id":"MA010120220805836031","name":"유미카인테리어","industry":"자동차 세차장","coordinates":[127.314265815641,36.3380026738566],"sales":{"202602":323}},{"id":"MA010120220805840559","name":"이마트24대전복용","industry":"편의점","coordinates":[127.310926847765,36.344265584847],"sales":{"202602":3426}},{"id":"MA010120220805848986","name":"J모터스","industry":"자동차 정비소","coordinates":[127.31370692417,36.343068764531],"sales":{"202602":727}},{"id":"MA010120220805850522","name":"명란밥상","industry":"백반/한정식","coordinates":[127.292384454649,36.3455740392317],"sales":{"202602":2105}},{"id":"MA010120220805852017","name":"한서공인중개사","industry":"부동산 중개/대리업","coordinates":[127.31421668544,36.3424095653643],"sales":{"202602":1158}},{"id":"MA010120220805852220","name":"헤어팜증모","industry":"미용실","coordinates":[127.301133371468,36.3466787856243],"sales":{"202602":398}},{"id":"MA010120220805857244","name":"부부반점","industry":"중국집","coordinates":[127.296344774775,36.3500251136434],"sales":{"202602":1650}},{"id":"MA010120220805857270","name":"삼성사진관","industry":"사진촬영업","coordinates":[127.301050355764,36.35115784652],"sales":{"202602":1357}},{"id":"MA010120220805867253","name":"원광고기획","industry":"광고물 설계/제작업","coordinates":[127.299636514821,36.3485119388033],"sales":{"202602":625}},{"id":"MA010120220805869882","name":"유성민속원","industry":"예술품 소매업","coordinates":[127.301474844081,36.3601234813937],"sales":{"202602":409}},{"id":"MA010120220805871928","name":"키다리엔터테인먼트","industry":"전시/컨벤션/행사 대행 서비스업","coordinates":[127.309053424605,36.3381244079088],"sales":{"202602":3209}},{"id":"MA010120220805876566","name":"갤럭시공인중개사사무소","industry":"부동산 중개/대리업","coordinates":[127.298031220027,36.3482185645822],"sales":{"202602":625}},{"id":"MA010120220805896302","name":"대일종합가스설비","industry":"가정용 연료 소매업","coordinates":[127.302737247988,36.3322198253507],"sales":{"202602":1343}},{"id":"MA010120220805904565","name":"해맑은에너지경영컨설팅","industry":"경영 컨설팅업","coordinates":[127.302922239552,36.3397261803356],"sales":{"202602":1378}},{"id":"MA010120220805918265","name":"윤헤어","industry":"미용실","coordinates":[127.301687716729,36.3459924923258],"sales":{"202602":213}},{"id":"MA010120220805938249","name":"엠에스건축사사무소","industry":"건축 설계 및 관련 서비스업","coordinates":[127.306197914453,36.3399431273087],"sales":{}},{"id":"MA010120220805942239","name":"디모스주","industry":"가구 소매업","coordinates":[127.300593994338,36.3599544772497],"sales":{"202602":1727}},{"id":"MA010120220805949621","name":"대전출장세차","industry":"컴퓨터/소프트웨어 소매업","coordinates":[127.313887829905,36.3381839029357],"sales":{"202602":1470}},{"id":"MA010120220805954534","name":"카페블레싱","industry":"카페","coordinates":[127.31055708884,36.3381114982732],"sales":{"202602":501}},{"id":"MA010120220806046095","name":"디씨엠에스","industry":"기타 개인/가정용품 대여업","coordinates":[127.315827669325,36.3441265685643],"sales":{"202602":953}},{"id":"MA010120220806117535","name":"비엠에스그룹","industry":"전시/컨벤션/행사 대행 서비스업","coordinates":[127.296604107627,36.3479067030804],"sales":{"202602":1261}},{"id":"MA010120220806118155","name":"학하다방","industry":"카페","coordinates":[127.298348538926,36.3437929892003],"sales":{"202602":884}},{"id":"MA010120220806118946","name":"고카페","industry":"카페","coordinates":[127.301069336205,36.3589800105772],"sales":{"202602":947}},{"id":"MA010120220806155002","name":"엠케이구조기술사사무소","industry":"건물 및 토목 엔지니어링 서비스업","coordinates":[127.308060547819,36.3575293207149],"sales":{}},{"id":"MA010120220806156952","name":"드림교육","industry":"문구/회화용품 소매업","coordinates":[127.297797829763,36.3483633348399],"sales":{"202602":100}},{"id":"MA010120220806170253","name":"오스카","industry":"장난감 소매업","coordinates":[127.310834981903,36.3351639204595],"sales":{"202602":1399}},{"id":"MA010120220806170916","name":"순이네순대국밥","industry":"백반/한정식","coordinates":[127.314155859143,36.3439056806692],"sales":{"202602":854}},{"id":"MA010120220806174831","name":"덕명공인중개사사무소","industry":"부동산 중개/대리업","coordinates":[127.305618985441,36.3571210495649],"sales":{"202602":1594}},{"id":"MA010120220806175419","name":"쿠파건축사사무소","industry":"건축 설계 및 관련 서비스업","coordinates":[127.302484251288,36.3416828472854],"sales":{}},{"id":"MA010120220806175472","name":"정인건축사사무소","industry":"건축 설계 및 관련 서비스업","coordinates":[127.308769229614,36.339494934168],"sales":{}},{"id":"MA010120220806175984","name":"오이씨","industry":"카페","coordinates":[127.302920745506,36.3594709779322],"sales":{"202602":796}},{"id":"MA010120220806176014","name":"둔산중고피아노","industry":"중고 상품 소매업","coordinates":[127.30646368339,36.3537574984998],"sales":{"202602":696}},{"id":"MA010120220806176101","name":"스마트","industry":"가구 소매업","coordinates":[127.310713236184,36.34096782852],"sales":{"202602":3279}},{"id":"MA010120220806176272","name":"제이투광고기획","industry":"명함/간판/광고물 제작","coordinates":[127.315416166892,36.3442898673688],"sales":{"202602":392}},{"id":"MA010120220806176560","name":"다인건축사사무소","industry":"건축 설계 및 관련 서비스업","coordinates":[127.304408660541,36.33813632874],"sales":{}},{"id":"MA010120220806177650","name":"서원녹색도시환경Design","industry":"도시 계획 및 조경 설계 서비스업","coordinates":[127.299436702637,36.3370584624992],"sales":{}},{"id":"MA010120220806177809","name":"삼거리식당","industry":"백반/한정식","coordinates":[127.294918417654,36.3499205010946],"sales":{"202602":3864}},{"id":"MA010120220806178172","name":"보광카서비스","industry":"자동차 정비소","coordinates":[127.316702278773,36.3427905107531],"sales":{"202602":2896}},{"id":"MA010120220806178547","name":"가학산흑염소","industry":"기타 한식 음식점","coordinates":[127.308956701401,36.3390168249742],"sales":{"202602":975}},{"id":"MA010120220806180448","name":"문화일보대전충청광고지사","industry":"광고 매체 판매업","coordinates":[127.310570566128,36.3443115701792],"sales":{}},{"id":"MA010120220806183666","name":"황금산공인중개사사무소","industry":"부동산 중개/대리업","coordinates":[127.310606473313,36.3393279611909],"sales":{"202602":733}},{"id":"MA010120220806184570","name":"플러스커뮤니케이션","industry":"스포츠/레크리에이션 용품 대여업","coordinates":[127.302131157125,36.3598514709162],"sales":{"202602":899}},{"id":"MA010120220806186028","name":"반석세탁소","industry":"세탁소","coordinates":[127.311775492639,36.341983393464],"sales":{"202602":186}},{"id":"MA010120220806186329","name":"에이스렌탈","industry":"스포츠/레크리에이션 용품 대여업","coordinates":[127.318422614187,36.3412539367381],"sales":{"202602":747}},{"id":"MA010120220806186486","name":"한국기술혁신마케팅개발원","industry":"광고물 설계/제작업","coordinates":[127.297830082809,36.3480568540767],"sales":{"202602":425}},{"id":"MA010120220806187253","name":"마임차임헤어","industry":"미용실","coordinates":[127.300636377362,36.3593866298628],"sales":{"202602":316}},{"id":"MA010120220806187822","name":"땡큐팜","industry":"건강보조식품 소매업","coordinates":[127.305081646289,36.3393331805627],"sales":{"202602":3621}},{"id":"MA010120220806189669","name":"GS25한밭대","industry":"편의점","coordinates":[127.299636514821,36.3485119388033],"sales":{"202602":2553}},{"id":"MA010120220806190199","name":"정다운카크리닉","industry":"자동차 정비소","coordinates":[127.312343781747,36.3448206201094],"sales":{"202602":267}},{"id":"MA010120220806190727","name":"세움건축건축사사무소","industry":"건축 설계 및 관련 서비스업","coordinates":[127.308769229614,36.339494934168],"sales":{}},{"id":"MA010120220806191279","name":"현대공구철물","industry":"철물/공구 소매업","coordinates":[127.309499749743,36.3383215122428],"sales":{"202602":640}},{"id":"MA010120220806191841","name":"천우가든","industry":"돼지고기 구이/찜","coordinates":[127.295392656007,36.3457018180261],"sales":{"202602":2005}},{"id":"MA010120220806191864","name":"PAsign","industry":"명함/간판/광고물 제작","coordinates":[127.315416166892,36.3442898673688],"sales":{"202602":444}},{"id":"MA010120220806192162","name":"덕명","industry":"골프 연습장","coordinates":[127.29491841027,36.3469646384753],"sales":{"202602":681}},{"id":"MA010120220806194674","name":"씨에스아이","industry":"자동차 부품 소매업","coordinates":[127.303275737273,36.3590735600766],"sales":{"202602":1525}},{"id":"MA010120220806195248","name":"엑스포다이빙센타","industry":"수상/해양 레저업","coordinates":[127.31558577955,36.3421536279568],"sales":{"202602":251}},{"id":"MA010120220806195484","name":"카페달","industry":"카페","coordinates":[127.315057310514,36.3436960366338],"sales":{"202602":505}},{"id":"MA010120220806196193","name":"금수봉가든","industry":"돼지고기 구이/찜","coordinates":[127.288876212966,36.3457808304181],"sales":{"202602":1814}},{"id":"MA010120220806196233","name":"한밭대구내안경원","industry":"안경렌즈 소매업","coordinates":[127.297794411343,36.3503909925588],"sales":{"202602":1348}},{"id":"MA010120220806196638","name":"고향촌","industry":"백반/한정식","coordinates":[127.291341528745,36.346703058951],"sales":{"202602":1031}},{"id":"MA010120220806197151","name":"정우공인중개사사무소","industry":"부동산 중개/대리업","coordinates":[127.310897189512,36.3396065706365],"sales":{"202602":887}},{"id":"MA010120220806198200","name":"종합건축사사무소미담","industry":"건축 설계 및 관련 서비스업","coordinates":[127.30954275767,36.3407455713236],"sales":{}},{"id":"MA010120220806200307","name":"현무복사","industry":"복사업","coordinates":[127.299636514821,36.3485119388033],"sales":{"202602":1172}},{"id":"MA010120220806200816","name":"수통골본가","industry":"돼지고기 구이/찜","coordinates":[127.288988574955,36.3460419004173],"sales":{"202602":1967}},{"id":"MA010120220806201215","name":"태광미디어","industry":"전기용품/조명장치 소매업","coordinates":[127.31498974671,36.3407493624594],"sales":{"202602":353}},{"id":"MA010120220806201269","name":"별밭공인중개사사무소","industry":"부동산 중개/대리업","coordinates":[127.308710050839,36.3386119319166],"sales":{"202602":2199}},{"id":"MA010120220806203371","name":"루미노스","industry":"자동차 정비소","coordinates":[127.300614822029,36.3595759310202],"sales":{"202602":516}},{"id":"MA010120220806203607","name":"별밭식당","industry":"돼지고기 구이/찜","coordinates":[127.308855991042,36.3388999320508],"sales":{"202602":2964}},{"id":"MA010120220806206352","name":"이강산가든","industry":"백반/한정식","coordinates":[127.297595410649,36.3390817028257],"sales":{"202602":2118}},{"id":"MA010120220806206549","name":"로얄카서비스","industry":"자동차 정비소","coordinates":[127.308984099,36.3572295480125],"sales":{"202602":719}},{"id":"MA010120220806207092","name":"무대의상예인","industry":"기타 의류 소매업","coordinates":[127.303880021081,36.3454191956628],"sales":{"202602":1233}},{"id":"MA010120220806208102","name":"보존환경테크","industry":"소독, 구충 및 방제 서비스업","coordinates":[127.302815514253,36.3581915749295],"sales":{"202602":486}},{"id":"MA010120220806209042","name":"바로그집","industry":"김밥/만두/분식","coordinates":[127.299201502795,36.3483688403677],"sales":{"202602":1229}},{"id":"MA010120220806209258","name":"제주고기국수하르방","industry":"국수/칼국수","coordinates":[127.29726365835,36.3485088532327],"sales":{"202602":2400}},{"id":"MA010120220806209414","name":"도안동감나무집유성","industry":"백반/한정식","coordinates":[127.318042277681,36.3435980121971],"sales":{"202602":1086}},{"id":"MA010120220806209706","name":"디텍","industry":"자동차 세차장","coordinates":[127.316026828208,36.3410350015727],"sales":{"202602":1543}},{"id":"MA010120220806210422","name":"클럽온레이싱","industry":"자동차 부품 소매업","coordinates":[127.293566222689,36.3487973587262],"sales":{"202602":1914}},{"id":"MA010120220806210542","name":"크루모터스","industry":"자동차 정비소","coordinates":[127.317310682032,36.3389949366413],"sales":{"202602":1124}},{"id":"MA010120220806211360","name":"복건천상회","industry":"슈퍼마켓","coordinates":[127.316653976766,36.3391138316333],"sales":{"202602":5418}},{"id":"MA010120220806213670","name":"유니크","industry":"자동차 부품 소매업","coordinates":[127.316976157828,36.3389057065039],"sales":{"202602":1206}},{"id":"MA010120220806214048","name":"커피다오","industry":"카페","coordinates":[127.296205130955,36.3455105595716],"sales":{"202602":749}},{"id":"MA010120220806214953","name":"에코카클리닉","industry":"자동차 정비소","coordinates":[127.318935520528,36.3413787339694],"sales":{"202602":16551}},{"id":"MA010120220806215096","name":"명원기업","industry":"자동차 정비소","coordinates":[127.309901844228,36.3414115127043],"sales":{"202602":837}},{"id":"MA010120220806215762","name":"수통골휴게소","industry":"백반/한정식","coordinates":[127.288708552967,36.3456280352933],"sales":{"202602":1155}},{"id":"MA010120220806217133","name":"대영공인중개사무소","industry":"부동산 중개/대리업","coordinates":[127.313488267647,36.3357607804456],"sales":{"202602":1867}},{"id":"MA010120220806218807","name":"동죽손칼국수","industry":"국수/칼국수","coordinates":[127.292324758132,36.3474846826012],"sales":{"202602":907}},{"id":"MA010120220806220414","name":"유토피아","industry":"자동차 부품 소매업","coordinates":[127.308389980391,36.3393607365968],"sales":{"202602":1272}},{"id":"MA010120220806220565","name":"업소명없음","industry":"미용실","coordinates":[127.308803347338,36.3565991920726],"sales":{"202602":186}},{"id":"MA010120220806220855","name":"새날공인중개사사무소","industry":"부동산 중개/대리업","coordinates":[127.308860367461,36.3400083704692],"sales":{"202602":1629}},{"id":"MA010120220806221341","name":"수통골,조개손칼국수","industry":"국수/칼국수","coordinates":[127.293554033933,36.3485180236024],"sales":{"202602":1883}},{"id":"MA010120220806222228","name":"수통골초가","industry":"백반/한정식","coordinates":[127.291083838436,36.3463071685848],"sales":{"202602":2858}},{"id":"MA010120220806222281","name":"한국공예인협회","industry":"레크리에이션 교육기관","coordinates":[127.299569896702,36.3427535787693],"sales":{"202602":656}},{"id":"MA010120220806223074","name":"힐링스킨케어","industry":"피부 관리실","coordinates":[127.300549244929,36.3425168134344],"sales":{"202602":150}},{"id":"MA010120220806223335","name":"학하월드공인중개사사무소","industry":"부동산 중개/대리업","coordinates":[127.305218721313,36.3402069738921],"sales":{"202602":1174}},{"id":"MA010120220806224361","name":"오투그린세탁소","industry":"세탁소","coordinates":[127.302402978175,36.3437107041749],"sales":{"202602":322}},{"id":"MA010120220806227034","name":"풀밭나라","industry":"백반/한정식","coordinates":[127.301906967262,36.3595005790453],"sales":{"202602":5166}},{"id":"MA010120220806227348","name":"카페인누와","industry":"카페","coordinates":[127.298727543786,36.3496947569715],"sales":{"202602":921}},{"id":"MA010120220806227935","name":"한밭복사","industry":"복사업","coordinates":[127.299380674119,36.3486117095569],"sales":{"202602":761}},{"id":"MA010120220806228387","name":"푸른카크리닉","industry":"자동차 정비소","coordinates":[127.310609156999,36.3400038381394],"sales":{"202602":347}},{"id":"MA010120220806228558","name":"테마공인중개사사무소","industry":"부동산 중개/대리업","coordinates":[127.313765523017,36.3382382948215],"sales":{"202602":1729}},{"id":"MA010120220806228654","name":"비비마트","industry":"슈퍼마켓","coordinates":[127.305157407863,36.3416219807337],"sales":{"202602":18543}},{"id":"MA010120220806230087","name":"씨유","industry":"편의점","coordinates":[127.30050318455,36.3479239971549],"sales":{"202602":4559}},{"id":"MA010120220806230097","name":"육앤샤","industry":"돼지고기 구이/찜","coordinates":[127.299380674119,36.3486117095569],"sales":{"202602":8042}},{"id":"MA010120220806230329","name":"지오공인중개사사무소","industry":"부동산 중개/대리업","coordinates":[127.298589904476,36.3486587469222],"sales":{"202602":2311}},{"id":"MA010120220806230440","name":"명가부대찌개","industry":"백반/한정식","coordinates":[127.296713325541,36.3502675169783],"sales":{"202602":1050}},{"id":"MA010120220806230775","name":"투썸플레이스","industry":"카페","coordinates":[127.297794411343,36.3503909925588],"sales":{"202602":662}},{"id":"MA010120220806231931","name":"찬애찬","industry":"백반/한정식","coordinates":[127.301082942109,36.3596198111438],"sales":{"202602":11057}},{"id":"MA010120220806232444","name":"락노래연습장","industry":"노래방","coordinates":[127.298726614277,36.3494514414052],"sales":{"202602":623}},{"id":"MA010120220806232672","name":"뚜레쥬르대전","industry":"빵/도넛","coordinates":[127.298289261139,36.3486955448538],"sales":{"202602":1483}},{"id":"MA010120220806234563","name":"덕명식당","industry":"백반/한정식","coordinates":[127.301417676292,36.3597451318102],"sales":{"202602":1431}},{"id":"MA010120220806234713","name":"롯데리아대전","industry":"버거","coordinates":[127.297130149424,36.3485542441492],"sales":{"202602":5943}},{"id":"MA010120220806234735","name":"이끌림공인중개사사무소","industry":"부동산 중개/대리업","coordinates":[127.297669261093,36.3497064096091],"sales":{"202602":416}},{"id":"MA010120220806236054","name":"브이앤앤컨설팅공인중개사사무소","industry":"부동산 중개/대리업","coordinates":[127.293566222689,36.3487973587262],"sales":{"202602":1120}},{"id":"MA010120220806236130","name":"네네치킨앤봉구스밥버거","industry":"김밥/만두/분식","coordinates":[127.303756830667,36.342382538658],"sales":{"202602":1280}},{"id":"MA010120220806240312","name":"카페데에트와","industry":"카페","coordinates":[127.300145911455,36.3477176241947],"sales":{"202602":380}},{"id":"MA010120220806241692","name":"밥피시비오비","industry":"PC방","coordinates":[127.298059133067,36.3496964260299],"sales":{"202602":1574}},{"id":"MA010120220806242750","name":"이마트24","industry":"편의점","coordinates":[127.29780146752,36.3493185739275],"sales":{"202602":2107}},{"id":"MA010120220806244831","name":"성진기업","industry":"사업시설 유지·관리 서비스업","coordinates":[127.301547217543,36.3413337556903],"sales":{"202602":1931}},{"id":"MA010120220806245282","name":"한빛엑티브","industry":"상용 인력 공급 및 인사관리 서비스업","coordinates":[127.301547217543,36.3413337556903],"sales":{}},{"id":"MA010120220806246922","name":"장은엔지니어링","industry":"건축 설계 및 관련 서비스업","coordinates":[127.296390775454,36.3474656553091],"sales":{}},{"id":"MA010120220806247051","name":"도안골프","industry":"골프 연습장","coordinates":[127.29491841027,36.3469646384753],"sales":{"202602":1151}},{"id":"MA010120220806248271","name":"유성컨트리클럽주","industry":"백반/한정식","coordinates":[127.290309346796,36.3537347552326],"sales":{"202602":1226}},{"id":"MA010120220806248948","name":"이앤애드","industry":"전시/컨벤션/행사 대행 서비스업","coordinates":[127.290069456884,36.3461293994899],"sales":{"202602":3562}},{"id":"MA010120220806249436","name":"신용협동조합중앙회연수원","industry":"사회교육시설","coordinates":[127.303029713699,36.3559651268476],"sales":{"202602":1506}},{"id":"MA010120220806249562","name":"성전의료재단","industry":"요양병원","coordinates":[127.306456351767,36.3319850523037],"sales":{"202602":15776}},{"id":"MA010120220806250929","name":"지에스칼텍스덕명주유소주","industry":"주유소","coordinates":[127.302312803809,36.3607251518601],"sales":{"202602":48266}},{"id":"MA010120220806251221","name":"마스타자동차관리대전지사주","industry":"자동차 대여업","coordinates":[127.307410022944,36.3394263437937],"sales":{"202602":16234}},{"id":"MA010120220806251751","name":"세무법인케이파트너즈","industry":"세무사","coordinates":[127.298587805537,36.3481090338598],"sales":{"202602":502}},{"id":"MA010120220806251886","name":"삼성웰스토리유성연수원주","industry":"구내식당","coordinates":[127.29820312087,36.3553194109079],"sales":{"202602":9072}},{"id":"MA010120220806253731","name":"대전렌탈주","industry":"컴퓨터/사무기기 대여업","coordinates":[127.312130909024,36.3445147758549],"sales":{"202602":400}},{"id":"MA010120220806253748","name":"한국건설이앤지","industry":"건물 및 토목 엔지니어링 서비스업","coordinates":[127.308769229614,36.339494934168],"sales":{}},{"id":"MA010120220806253815","name":"대성환경연구소","industry":"환경 관련 엔지니어링 서비스업","coordinates":[127.312900249976,36.3391237184346],"sales":{}},{"id":"MA010120220806254510","name":"별봉","industry":"부동산 중개/대리업","coordinates":[127.304924050487,36.341766764914],"sales":{"202602":664}},{"id":"MA010120220806254840","name":"법인옥미랄유","industry":"카페","coordinates":[127.304668988062,36.3391990564436],"sales":{"202602":923}},{"id":"MA010120220806255345","name":"오케이캐쉬대부","industry":"예식장업","coordinates":[127.291344147376,36.3474059713515],"sales":{"202602":20900}},{"id":"MA010120220806255350","name":"동성가설산업주","industry":"건설기계/장비 대여업","coordinates":[127.318237614964,36.3423268313873],"sales":{"202602":603}},{"id":"MA010120220806255917","name":"짱모터스","industry":"자동차 정비소","coordinates":[127.307410022944,36.3394263437937],"sales":{"202602":1160}},{"id":"MA010120220806257398","name":"비에이치","industry":"카페","coordinates":[127.293486936563,36.3454812189355],"sales":{"202602":291}},{"id":"MA010120220806281389","name":"02모바일","industry":"핸드폰 소매업","coordinates":[127.301399613996,36.3463897375386],"sales":{"202602":316}},{"id":"MA010120220806284176","name":"이디야커피대전","industry":"카페","coordinates":[127.308623537477,36.3392700158253],"sales":{"202602":554}},{"id":"MA010120220806334918","name":"엠타이어","industry":"자동차 정비소","coordinates":[127.311251369878,36.3390379062251],"sales":{"202602":487}},{"id":"MA010120220806350245","name":"수통골능이버섯백숙","industry":"닭/오리고기 구이/찜","coordinates":[127.292763099757,36.3455460768718],"sales":{"202602":826}},{"id":"MA010120220806350259","name":"봉스키친","industry":"김밥/만두/분식","coordinates":[127.297781452205,36.349913400881],"sales":{"202602":493}},{"id":"MA010120220806350421","name":"엠제이솔루션","industry":"자동차 부품 소매업","coordinates":[127.308860367461,36.3400083704692],"sales":{"202602":1868}},{"id":"MA010120220806350486","name":"지에스25","industry":"편의점","coordinates":[127.303802954289,36.345653697849],"sales":{"202602":2458}},{"id":"MA010120220806350992","name":"수통골휴게소","industry":"슈퍼마켓","coordinates":[127.288708552967,36.3456280352933],"sales":{"202602":12899}},{"id":"MA010120220806351176","name":"복용공인중개사사무소","industry":"부동산 중개/대리업","coordinates":[127.315057310514,36.3436960366338],"sales":{"202602":3023}},{"id":"MA010120220806351516","name":"윤가족족발보쌈","industry":"백반/한정식","coordinates":[127.299545979466,36.3481426829894],"sales":{"202602":2083}},{"id":"MA010120220806351544","name":"정수기마을","industry":"기타 개인/가정용품 대여업","coordinates":[127.310129939108,36.3399420001745],"sales":{"202602":574}},{"id":"MA010120220806351569","name":"소문난순대","industry":"국/탕/찌개류","coordinates":[127.297534447388,36.349409356811],"sales":{"202602":862}},{"id":"MA010120220806351697","name":"덕명1번지공인중개사사무소","industry":"부동산 중개/대리업","coordinates":[127.303880021081,36.3454191956628],"sales":{"202602":2024}},{"id":"MA010120220806352022","name":"설이","industry":"카페","coordinates":[127.30293890763,36.3584075443788],"sales":{"202602":646}},{"id":"MA010120220806352083","name":"유성골프피팅랩","industry":"운동용품 소매업","coordinates":[127.303004185923,36.3608766004029],"sales":{"202602":897}},{"id":"MA010120220806352091","name":"오토오아시스","industry":"자동차 정비소","coordinates":[127.30963393778,36.3412680185871],"sales":{"202602":711}},{"id":"MA010120220806352410","name":"막창시대1973","industry":"요리 주점","coordinates":[127.300747292485,36.3476710533318],"sales":{"202602":1037}},{"id":"MA010120220806352418","name":"학하철물건재","industry":"철물/공구 소매업","coordinates":[127.311305198301,36.3385691531126],"sales":{"202602":1903}},{"id":"MA010120220806352435","name":"치킨캐슬","industry":"치킨","coordinates":[127.302527512263,36.3586248689171],"sales":{"202602":1437}},{"id":"MA010120220806352488","name":"만나식당","industry":"백반/한정식","coordinates":[127.295003867667,36.3489470184946],"sales":{"202602":2817}},{"id":"MA010120220806361667","name":"렛츠","industry":"교육컨설팅업","coordinates":[127.297397167119,36.3484634621674],"sales":{"202602":721}},{"id":"MA010120220806361838","name":"다올기업","industry":"자동차 정비소","coordinates":[127.300677377872,36.3352800243112],"sales":{"202602":2323}},{"id":"MA010120220806361881","name":"그린드림","industry":"소독, 구충 및 방제 서비스업","coordinates":[127.297406490682,36.3479858148327],"sales":{"202602":330}},{"id":"MA010120220806362174","name":"비즈위드경영연구원","industry":"경영 컨설팅업","coordinates":[127.298587805537,36.3481090338598],"sales":{"202602":902}},{"id":"MA010120220806386359","name":"하루","industry":"요리 주점","coordinates":[127.298536818985,36.3493437744238],"sales":{"202602":725}},{"id":"MA010120220806391254","name":"굽네치킨","industry":"치킨","coordinates":[127.299869521977,36.3482680363974],"sales":{"202602":1484}},{"id":"MA010120220806410095","name":"코닐리우탁구센터","industry":"탁구장","coordinates":[127.307937444389,36.3404162824359],"sales":{"202602":112}},{"id":"MA010120220806444502","name":"피제리아육일사","industry":"경양식","coordinates":[127.289144763524,36.3461046050803],"sales":{"202602":4705}},{"id":"MA010120220806449384","name":"대전쿠폰","industry":"광고 대행업","coordinates":[127.307394515757,36.3581528473799],"sales":{"202602":2102}},{"id":"MA010120220806457945","name":"솜씨디자인","industry":"명함/간판/광고물 제작","coordinates":[127.313053744063,36.3412951564556],"sales":{"202602":271}},{"id":"MA010120220806471176","name":"만년닭강정","industry":"치킨","coordinates":[127.30427959858,36.3421829495421],"sales":{"202602":1501}},{"id":"MA010120220806479696","name":"와타빈","industry":"카페","coordinates":[127.303416116471,36.3607944492592],"sales":{"202602":305}},{"id":"MA010120220806499754","name":"명품김밥","industry":"김밥/만두/분식","coordinates":[127.296612174418,36.3500334619878],"sales":{"202602":721}},{"id":"MA010120220806553533","name":"하나로유통","industry":"신발 소매업","coordinates":[127.317008076302,36.3412847326457],"sales":{"202602":359}},{"id":"MA010120220806561499","name":"무인카페수","industry":"카페","coordinates":[127.300059433279,36.3425991503146],"sales":{"202602":1300}},{"id":"MA010120220806563947","name":"루아컴퍼니","industry":"부동산 중개/대리업","coordinates":[127.296245069659,36.3472317103861],"sales":{"202602":782}},{"id":"MA010120220806582836","name":"삼순이뼈해장국","industry":"국/탕/찌개류","coordinates":[127.304327615647,36.3402092463757],"sales":{"202602":3104}},{"id":"MA010120220806584520","name":"원메디","industry":"기타 산업용 기계/장비 대여업","coordinates":[127.312596362147,36.3411251298207],"sales":{"202602":1108}},{"id":"MA010120220806588441","name":"아파치","industry":"건축물 일반 청소업","coordinates":[127.296604107627,36.3479067030804],"sales":{"202602":1261}},{"id":"MA010120220806635306","name":"에셀플라워","industry":"꽃집","coordinates":[127.312223573311,36.3426130483475],"sales":{"202602":340}},{"id":"MA010120220806654938","name":"더샵","industry":"가구 소매업","coordinates":[127.308232937881,36.3390817763354],"sales":{"202602":4439}},{"id":"MA010120220806666931","name":"고까스밥엔술집","industry":"백반/한정식","coordinates":[127.299823787352,36.3479617507824],"sales":{"202602":2900}},{"id":"MA010120220806670855","name":"엄가네한우사골수제만두전골보쌈","industry":"백반/한정식","coordinates":[127.306183052802,36.3446833631276],"sales":{"202602":6048}},{"id":"MA010120220806672099","name":"조아공인중개사사무소","industry":"부동산 중개/대리업","coordinates":[127.301599120837,36.3461278926296],"sales":{"202602":680}},{"id":"MA010120220806673930","name":"용성이엔씨","industry":"도시 계획 및 조경 설계 서비스업","coordinates":[127.297994867665,36.3503724692958],"sales":{}},{"id":"MA010120220806706282","name":"에스쇼핑","industry":"주방/가정용품 소매업","coordinates":[127.309483976596,36.3371500205399],"sales":{"202602":494}},{"id":"MA010120220806742262","name":"베니스타","industry":"카페","coordinates":[127.307689155818,36.3424265497098],"sales":{"202602":622}},{"id":"MA010120220806765347","name":"그린라이트","industry":"부동산 중개/대리업","coordinates":[127.297721702527,36.3488501603992],"sales":{"202602":1141}},{"id":"MA010120220806770504","name":"85도씨","industry":"카페","coordinates":[127.291742829018,36.3467741741591],"sales":{"202602":1100}},{"id":"MA010120220806816878","name":"학하우리공인중개사무소","industry":"부동산 중개/대리업","coordinates":[127.30151052464,36.3462632928661],"sales":{"202602":1124}},{"id":"MA010120220806817075","name":"더베스트솔루션","industry":"기타 개인/가정용품 대여업","coordinates":[127.313887829905,36.3381839029357],"sales":{"202602":302}},{"id":"MA010120220806831257","name":"세븐일레븐유성","industry":"편의점","coordinates":[127.30182480085,36.3468753003861],"sales":{"202602":4184}},{"id":"MA010120220806863246","name":"휠체어타는사람들","industry":"기타 개인/가정용품 대여업","coordinates":[127.315242683379,36.342704252081],"sales":{"202602":599}},{"id":"MA010120220806870258","name":"엠초이","industry":"광고 대행업","coordinates":[127.314578392803,36.3437153218198],"sales":{"202602":612}},{"id":"MA010120220806890439","name":"신생병원매점","industry":"슈퍼마켓","coordinates":[127.306456351767,36.3319850523037],"sales":{"202602":8653}},{"id":"MA010120220806892290","name":"오늘도","industry":"카페","coordinates":[127.309292820468,36.3395116038432],"sales":{"202602":1415}},{"id":"MA010120220806901124","name":"오투탑공인중개사사무소","industry":"부동산 중개/대리업","coordinates":[127.303407160138,36.3441317126366],"sales":{"202602":335}},{"id":"MA010120220806908413","name":"한끼밥상","industry":"백반/한정식","coordinates":[127.30454402483,36.3414342979234],"sales":{"202602":1071}},{"id":"MA010120220806923622","name":"명인카크리닉","industry":"자동차 정비소","coordinates":[127.315453109937,36.3396396908976],"sales":{"202602":586}},{"id":"MA010120220806954629","name":"인생애짬뽕","industry":"중국집","coordinates":[127.303908821947,36.3413638206453],"sales":{"202602":1104}},{"id":"MA010120220806960867","name":"워시엔조이셀프빨래방유성덕명","industry":"셀프 빨래방","coordinates":[127.304865756142,36.3411000415888],"sales":{"202602":318}},{"id":"MA010120220806966940","name":"이진희골프아카데미","industry":"요가/필라테스 학원","coordinates":[127.304252833576,36.3410295092911],"sales":{"202602":473}},{"id":"MA010120220806996157","name":"우리","industry":"기타 산업용 기계/장비 대여업","coordinates":[127.299252555426,36.3384197042303],"sales":{"202602":800}},{"id":"MA010120220807006653","name":"복드리오리","industry":"돼지고기 구이/찜","coordinates":[127.29387956486,36.3462102082613],"sales":{"202602":1459}},{"id":"MA010120220807007060","name":"스테어웨이","industry":"서점","coordinates":[127.306563820674,36.3423573474902],"sales":{"202602":762}},{"id":"MA010120220807024048","name":"테크존","industry":"테니스장","coordinates":[127.304781632614,36.3309439658797],"sales":{"202602":294}},{"id":"MA010120220807025141","name":"묘하고신나개","industry":"애완동물/애완용품 소매업","coordinates":[127.309744256896,36.3409973792021],"sales":{"202602":390}},{"id":"MA010120220807049895","name":"녹색기업","industry":"소독, 구충 및 방제 서비스업","coordinates":[127.310647790267,36.3441221221091],"sales":{"202602":137}},{"id":"MA010120220807063539","name":"만점24스터디카페","industry":"독서실/스터디 카페","coordinates":[127.303219567181,36.3417170310239],"sales":{"202602":493}},{"id":"MA010120220807091143","name":"후퍼옵틱대전","industry":"자동차 정비소","coordinates":[127.314511122093,36.3436073575362],"sales":{"202602":2363}},{"id":"MA010120220807106086","name":"대풍이엔씨","industry":"부동산 중개/대리업","coordinates":[127.30993997184,36.3369776148574],"sales":{"202602":635}},{"id":"MA010120220807110845","name":"학하원주민공인중개사무소","industry":"부동산 중개/대리업","coordinates":[127.313053744063,36.3412951564556],"sales":{"202602":1273}},{"id":"MA010120220807146185","name":"금목조경","industry":"조경 유지·관리 서비스업","coordinates":[127.311215551891,36.338434209781],"sales":{"202602":103}},{"id":"MA010120220807147714","name":"더지오","industry":"액세서리/잡화 소매업","coordinates":[127.299304659989,36.3491255711232],"sales":{"202602":351}},{"id":"MA010120220807222051","name":"플러스컴","industry":"기타 산업용 기계/장비 대여업","coordinates":[127.300635718849,36.359215408107],"sales":{"202602":657}},{"id":"MA010120220807321513","name":"오행복한공인중개사사무소","industry":"부동산 중개/대리업","coordinates":[127.303589009169,36.3421937176458],"sales":{"202602":1509}},{"id":"MA010120220807395178","name":"수빈기구필라테스","industry":"요가/필라테스 학원","coordinates":[127.297476929759,36.3489318759536],"sales":{"202602":301}},{"id":"MA010120220807410244","name":"엘케이몰","industry":"자동차 부품 소매업","coordinates":[127.303988931216,36.3419133357472],"sales":{"202602":1296}},{"id":"MA010120220807413696","name":"몬스터버거","industry":"버거","coordinates":[127.297653181404,36.3484087541],"sales":{"202602":2804}},{"id":"MA010120220807494790","name":"조박사정비소","industry":"자동차 정비소","coordinates":[127.311415617513,36.3439218645782],"sales":{"202602":1953}},{"id":"MA010120220807494995","name":"더쿡","industry":"요리 주점","coordinates":[127.298849638019,36.3495772986351],"sales":{"202602":994}},{"id":"MA010120220807510903","name":"한준컴퍼니","industry":"반찬/식료품 소매업","coordinates":[127.312022349526,36.3424333382747],"sales":{"202602":1710}},{"id":"MA010120220807560912","name":"늘봄약국","industry":"약국","coordinates":[127.301687716729,36.3459924923258],"sales":{"202602":2095}},{"id":"MA010120220807609333","name":"캐리어에어컨","industry":"가전제품 수리업","coordinates":[127.305858888536,36.3387003687886],"sales":{"202602":434}},{"id":"MA010120220807737940","name":"더함","industry":"카페","coordinates":[127.295950727879,36.3459888142198],"sales":{"202602":863}},{"id":"MA010120220807748840","name":"스시하린","industry":"일식 회/초밥","coordinates":[127.303161316553,36.3582988391789],"sales":{"202602":2829}},{"id":"MA010120220807761734","name":"카페오쉐르","industry":"카페","coordinates":[127.300295983482,36.3374798607461],"sales":{"202602":342}},{"id":"MA010120220807884616","name":"카앤톡","industry":"자동차 정비소","coordinates":[127.315846781991,36.343342493352],"sales":{"202602":779}},{"id":"MA010120220807886017","name":"유림","industry":"경영 컨설팅업","coordinates":[127.297830082809,36.3480568540767],"sales":{"202602":1639}},{"id":"MA010120220807891845","name":"비앤에스짐","industry":"헬스장","coordinates":[127.304768560352,36.3418843147347],"sales":{"202602":2461}},{"id":"MA010120220807977169","name":"이송봉공인중개사사무소","industry":"부동산 중개/대리업","coordinates":[127.298945420847,36.3484055283685],"sales":{"202602":974}},{"id":"MA010120220807983135","name":"앤시오커피","industry":"카페","coordinates":[127.301572963456,36.3595645048202],"sales":{"202602":706}},{"id":"MA010120220808012959","name":"기린약국","industry":"약국","coordinates":[127.303219567181,36.3417170310239],"sales":{"202602":15188}},{"id":"MA010120220808017619","name":"내차처럼","industry":"자동차 정비소","coordinates":[127.316474463503,36.3415474885748],"sales":{"202602":3605}},{"id":"MA010120220808020891","name":"저스트기획","industry":"기념품점","coordinates":[127.299545979466,36.3481426829894],"sales":{"202602":745}},{"id":"MA010120220808026565","name":"몸사랑마음사랑한의원","industry":"한의원","coordinates":[127.2943212183,36.3451637547822],"sales":{"202602":1344}},{"id":"MA010120220808034248","name":"샤브쌈주머니","industry":"국수/칼국수","coordinates":[127.306238739662,36.3418354975353],"sales":{"202602":1371}},{"id":"MA010120220808045367","name":"토타카페","industry":"카페","coordinates":[127.30381788994,36.3408954390209],"sales":{"202602":658}},{"id":"MA010120220808064492","name":"학의뜰공인중개사사무소","industry":"부동산 중개/대리업","coordinates":[127.30135573177,36.3378917356588],"sales":{"202602":1659}},{"id":"MA010120220808082011","name":"약선의가이정","industry":"국수/칼국수","coordinates":[127.2943212183,36.3451637547822],"sales":{"202602":1566}},{"id":"MA010120220808091724","name":"한밭스포츠클럽","industry":"종합 스포츠시설","coordinates":[127.305249624559,36.3452715166584],"sales":{"202602":3842}},{"id":"MA010120220808094189","name":"코코힐테라피","industry":"그 외 기타 교육기관","coordinates":[127.313339835365,36.3431958924986],"sales":{"202602":1021}},{"id":"MA010120220808127078","name":"스마트","industry":"사업/무형 재산권 중개업","coordinates":[127.310882791734,36.3387865355385],"sales":{}},{"id":"MA010120220808135719","name":"니치스트릿","industry":"카페","coordinates":[127.302025073148,36.3468117119527],"sales":{"202602":463}},{"id":"MA010120220808138384","name":"엄마의앙꼬","industry":"빵/도넛","coordinates":[127.302105732985,36.3417378754511],"sales":{"202602":1144}},{"id":"MA010120220808145253","name":"카페니치","industry":"카페","coordinates":[127.297332314426,36.3489863065163],"sales":{"202602":1286}},{"id":"MA010120220808164108","name":"영심이떡볶이","industry":"김밥/만두/분식","coordinates":[127.297332314426,36.3489863065163],"sales":{"202602":892}},{"id":"MA010120220808166851","name":"봄길사진관","industry":"사진촬영업","coordinates":[127.297669261093,36.3497064096091],"sales":{"202602":293}},{"id":"MA010120220808177615","name":"차이510","industry":"중국집","coordinates":[127.309737905266,36.3393932979217],"sales":{"202602":645}},{"id":"MA010120220808212447","name":"부림테크","industry":"기타 엔지니어링 서비스업","coordinates":[127.294826268313,36.3461628174894],"sales":{"202602":14260}},{"id":"MA010120220808240404","name":"클래버건축사사무소","industry":"건축 설계 및 관련 서비스업","coordinates":[127.307372054398,36.3411026335669],"sales":{}},{"id":"MA010120220808246379","name":"브랜유캐슬","industry":"시각 디자인업","coordinates":[127.300218839808,36.3464017215413],"sales":{"202602":1296}},{"id":"MA010120220808264405","name":"플러스바이크","industry":"자전거 소매업","coordinates":[127.302749041881,36.3410243164765],"sales":{"202602":859}},{"id":"MA010120220808316764","name":"제이스킨","industry":"미용실","coordinates":[127.303706850633,36.3409858391093],"sales":{"202602":794}},{"id":"MA010120220808329733","name":"비주얼카","industry":"자동차 정비소","coordinates":[127.313092247027,36.3425657167954],"sales":{"202602":1404}},{"id":"MA010120220808356878","name":"아비스타일헤어살롱","industry":"미용실","coordinates":[127.306238739662,36.3418354975353],"sales":{"202602":522}},{"id":"MA010120220808379792","name":"별봉쎄시봉","industry":"생맥주 전문","coordinates":[127.302905929248,36.3412672371404],"sales":{"202602":1734}},{"id":"MA010120220808399074","name":"케이엘에스","industry":"조경 유지·관리 서비스업","coordinates":[127.310064470219,36.3430962940952],"sales":{"202602":85}},{"id":"MA010120220808452450","name":"부동산중개법인신제일조은","industry":"부동산 중개/대리업","coordinates":[127.297721702527,36.3488501603992],"sales":{"202602":799}},{"id":"MA010120220808472103","name":"에스제이","industry":"건축물 일반 청소업","coordinates":[127.301547217543,36.3413337556903],"sales":{"202602":314}},{"id":"MA010120220808497124","name":"지오플러스공인중개사사무소","industry":"부동산 중개/대리업","coordinates":[127.298589904476,36.3486587469222],"sales":{"202602":1753}},{"id":"MA010120220808505413","name":"아이스맨아이스크림할인점","industry":"슈퍼마켓","coordinates":[127.30151052464,36.3462632928661],"sales":{"202602":6922}},{"id":"MA010120220808563480","name":"점프노리유성","industry":"기타 오락장","coordinates":[127.301122209113,36.3350986684908],"sales":{"202602":806}},{"id":"MA010120220808588920","name":"신일룡의호두파이","industry":"빵/도넛","coordinates":[127.289500899572,36.3460136250429],"sales":{"202602":1725}},{"id":"MA010120220808594445","name":"원조설악추어탕","industry":"국/탕/찌개류","coordinates":[127.292133528843,36.3469895024003],"sales":{"202602":662}},{"id":"MA010120220808598001","name":"카페보스턴","industry":"카페","coordinates":[127.307093981853,36.3582257142291],"sales":{"202602":996}},{"id":"MA010120220808614321","name":"오로지네일","industry":"네일숍","coordinates":[127.304501854395,36.3420472066955],"sales":{"202602":412}},{"id":"MA010120220808620245","name":"순천팥칼국수","industry":"국수/칼국수","coordinates":[127.310897189512,36.3396065706365],"sales":{"202602":2420}},{"id":"MA010120220808623916","name":"도담","industry":"유사 의료업","coordinates":[127.302250509224,36.3590220873294],"sales":{"202602":548}},{"id":"MA010120220808633949","name":"웨딩비르우엘","industry":"꽃집","coordinates":[127.311273675261,36.3446431766584],"sales":{"202602":552}},{"id":"MA010120220808714155","name":"참편한안경원","industry":"안경렌즈 소매업","coordinates":[127.301044565706,36.3467601153701],"sales":{"202602":2327}},{"id":"MA010120220808727925","name":"지코바치킨","industry":"치킨","coordinates":[127.297530675733,36.3484180709534],"sales":{"202602":574}},{"id":"MA010120220808755829","name":"롯데프레시","industry":"슈퍼마켓","coordinates":[127.298390518673,36.3489566335285],"sales":{"202602":19692}},{"id":"MA010120220808757471","name":"푸른건축인테리어","industry":"인테리어 디자인업","coordinates":[127.314453522359,36.3403632678943],"sales":{"202602":993}},{"id":"MA010120220808779822","name":"화담","industry":"돼지고기 구이/찜","coordinates":[127.297124123252,36.346968186412],"sales":{"202602":2330}},{"id":"MA010120220808787438","name":"꽃피는봄날","industry":"카페","coordinates":[127.289500899572,36.3460136250429],"sales":{"202602":694}},{"id":"MA010120220808910026","name":"엘씨메디케어","industry":"의료기기 소매업","coordinates":[127.311309379825,36.3368208552642],"sales":{"202602":3569}},{"id":"MA010120220809141793","name":"황서옥","industry":"백반/한정식","coordinates":[127.29654772454,36.3477266074743],"sales":{"202602":1963}},{"id":"MA010120220809271756","name":"엠제이헤어","industry":"미용실","coordinates":[127.300389846835,36.3474196226428],"sales":{"202602":421}},{"id":"MA010120220809294042","name":"에스아이파트너스","industry":"경영 컨설팅업","coordinates":[127.309414826641,36.356273186839],"sales":{"202602":2261}},{"id":"MA010120220809327179","name":"AG모터스","industry":"자동차 정비소","coordinates":[127.311079824323,36.3435172090662],"sales":{"202602":2562}},{"id":"MA010120220809328839","name":"다향","industry":"화장품 소매업","coordinates":[127.305249624559,36.3452715166584],"sales":{"202602":720}},{"id":"MA010120220809397853","name":"지즈","industry":"카페","coordinates":[127.302260500831,36.3587246740138],"sales":{"202602":657}},{"id":"MA010120220809601737","name":"송림가든","industry":"백반/한정식","coordinates":[127.30454402483,36.3414342979234],"sales":{"202602":2435}},{"id":"MA010120220809621816","name":"달빛","industry":"카페","coordinates":[127.308051075563,36.3579528978113],"sales":{"202602":509}},{"id":"MA010120220809645377","name":"화신플랜트엔지니어링","industry":"기타 엔지니어링 서비스업","coordinates":[127.305160320251,36.3395132154504],"sales":{"202602":27898}},{"id":"MA010120220809646373","name":"퍼펙트멀티","industry":"자동차 부품 소매업","coordinates":[127.315617512339,36.3444966066529],"sales":{"202602":8648}},{"id":"MA010120220809657704","name":"더존건설","industry":"건축 설계 및 관련 서비스업","coordinates":[127.297217283017,36.3480313444558],"sales":{}},{"id":"MA010120220809660158","name":"쇼콜라","industry":"카페","coordinates":[127.303787966542,36.3590001647886],"sales":{"202602":475}},{"id":"MA010120220809662028","name":"나래공인중개사사무소","industry":"부동산 중개/대리업","coordinates":[127.304116468533,36.3403359488753],"sales":{"202602":633}},{"id":"MA010120220809689638","name":"수통골장수오리","industry":"백반/한정식","coordinates":[127.294180065211,36.3461373746567],"sales":{"202602":3850}},{"id":"MA010120220809702908","name":"용삼카센터","industry":"자동차 정비소","coordinates":[127.305770272831,36.3388267605787],"sales":{"202602":936}},{"id":"MA010120220809734463","name":"1도씨맥주","industry":"생맥주 전문","coordinates":[127.302316504022,36.3415120478362],"sales":{"202602":820}},{"id":"MA010120220809738368","name":"내맘처럼","industry":"산업설비, 운송장비 및 공공장소 청소업","coordinates":[127.315278353012,36.3432628883095],"sales":{"202602":324}},{"id":"MA010120220809749342","name":"향기스토리카페","industry":"카페","coordinates":[127.31068067844,36.3411841959668],"sales":{"202602":945}},{"id":"MA010120220809759959","name":"제이네일","industry":"네일숍","coordinates":[127.303297924815,36.3418159618148],"sales":{"202602":170}},{"id":"MA010120220809766458","name":"이가네생면국수","industry":"국수/칼국수","coordinates":[127.307222232488,36.3426620572962],"sales":{"202602":618}},{"id":"MA010120220809778088","name":"유탑오토","industry":"자동차 대여업","coordinates":[127.309739204014,36.3565967698141],"sales":{"202602":15732}},{"id":"MA010120220809783501","name":"기통찬장어","industry":"해산물 구이/찜","coordinates":[127.29342273626,36.346184295476],"sales":{"202602":690}},{"id":"MA010120220809790384","name":"용카크리닉","industry":"자동차 정비소","coordinates":[127.318540939896,36.3429568478123],"sales":{"202602":953}},{"id":"MA010120220809801499","name":"니팅도로시","industry":"기타 기술/직업 훈련학원","coordinates":[127.303613506838,36.3398956501497],"sales":{"202602":439}},{"id":"MA010120220809805920","name":"현대","industry":"꽃집","coordinates":[127.297332314426,36.3489863065163],"sales":{"202602":720}},{"id":"MA010120220809807898","name":"다음피앤엠","industry":"상용 인력 공급 및 인사관리 서비스업","coordinates":[127.313053744063,36.3412951564556],"sales":{}},{"id":"MA010120220809827389","name":"계룡관","industry":"중국집","coordinates":[127.304252833576,36.3410295092911],"sales":{"202602":558}},{"id":"MA010120220809855140","name":"새집클로버","industry":"건축물 일반 청소업","coordinates":[127.313818179063,36.3374811664148],"sales":{"202602":729}},{"id":"MA010120220809871387","name":"신한주택관리","industry":"건축물 일반 청소업","coordinates":[127.304924050487,36.341766764914],"sales":{"202602":430}},{"id":"MA010120220809887567","name":"도안캐슬1차","industry":"부동산 중개/대리업","coordinates":[127.302526396247,36.3583364954442],"sales":{"202602":1109}},{"id":"MA010120220809891310","name":"제로점핑","industry":"테니스장","coordinates":[127.300895796222,36.3457331473399],"sales":{"202602":148}},{"id":"MA010120220809919568","name":"퍼스트카","industry":"자동차 부품 소매업","coordinates":[127.315468737896,36.3435147156951],"sales":{"202602":1160}},{"id":"MA010120220809966116","name":"미모아스킨아트","industry":"피부 관리실","coordinates":[127.315857015153,36.3403595667964],"sales":{"202602":234}},{"id":"MA010120220809980356","name":"네일오나","industry":"네일숍","coordinates":[127.300944654668,36.3468504847937],"sales":{"202602":205}},{"id":"MA010120220809985013","name":"정림스토아정육","industry":"정육점","coordinates":[127.305218721313,36.3402069738921],"sales":{"202602":6718}},{"id":"MA010120220809985067","name":"원모터스","industry":"자동차 정비소","coordinates":[127.302865333725,36.3365361509296],"sales":{"202602":734}},{"id":"MA010120220809986713","name":"리피스튜디오","industry":"꽃집","coordinates":[127.305417003422,36.3396387247781],"sales":{"202602":737}},{"id":"MA010120220810008031","name":"종로맥가","industry":"경영 컨설팅업","coordinates":[127.303570368563,36.3373904824],"sales":{"202602":2080}},{"id":"MA010120220810023633","name":"폴굿바이제아","industry":"미용실","coordinates":[127.306475889694,36.3398162497762],"sales":{"202602":161}},{"id":"MA010120220810029941","name":"밸런스하우스","industry":"부동산 중개/대리업","coordinates":[127.299636514821,36.3485119388033],"sales":{"202602":2138}},{"id":"MA010120220810083098","name":"마법의떡볶이","industry":"김밥/만두/분식","coordinates":[127.299380674119,36.3486117095569],"sales":{"202602":1392}},{"id":"MA010120220810096234","name":"더롬","industry":"여성 의류 소매업","coordinates":[127.308527485926,36.3572757866911],"sales":{"202602":320}},{"id":"MA010120220810096468","name":"서울전기","industry":"전기용품/조명장치 소매업","coordinates":[127.30536973168,36.3446493970564],"sales":{"202602":671}},{"id":"MA010120220810097692","name":"마이스피플","industry":"전시/컨벤션/행사 대행 서비스업","coordinates":[127.309214251114,36.3562646942943],"sales":{"202602":2849}},{"id":"MA010120220810098872","name":"유성할인마트","industry":"슈퍼마켓","coordinates":[127.30300463835,36.3581190014063],"sales":{"202602":21533}},{"id":"MA010120220810103758","name":"카페인","industry":"카페","coordinates":[127.296713325541,36.3502675169783],"sales":{"202602":1175}},{"id":"MA010120220810113793","name":"이마트24R대전","industry":"편의점","coordinates":[127.303085095609,36.3415101010868],"sales":{"202602":1142}},{"id":"MA010120220810123905","name":"국민돼지국밥","industry":"백반/한정식","coordinates":[127.297613080016,36.3495803847086],"sales":{"202602":5519}},{"id":"MA010120220810141188","name":"나이스","industry":"부동산 중개/대리업","coordinates":[127.302865333725,36.3365361509296],"sales":{"202602":900}},{"id":"MA010120220810172359","name":"더나무요가","industry":"요가/필라테스 학원","coordinates":[127.301399613996,36.3463897375386],"sales":{"202602":243}},{"id":"MA010120220810208301","name":"백두한의원","industry":"한의원","coordinates":[127.303376247695,36.3419058808565],"sales":{"202602":4162}},{"id":"MA010120220810239525","name":"교촌치킨","industry":"치킨","coordinates":[127.297797829763,36.3483633348399],"sales":{"202602":2392}},{"id":"MA010120220810239830","name":"카페레오","industry":"카페","coordinates":[127.292456987428,36.3470968525845],"sales":{"202602":502}},{"id":"MA010120220810277615","name":"강민엔지니어링","industry":"건물 및 토목 엔지니어링 서비스업","coordinates":[127.310509516046,36.3401572974117],"sales":{}},{"id":"MA010120220810285445","name":"아트젠-입주마켓","industry":"건축물 일반 청소업","coordinates":[127.311327399547,36.3441473889022],"sales":{"202602":652}},{"id":"MA010120220810297500","name":"케이애드에스엔씨","industry":"광고물 설계/제작업","coordinates":[127.308104982254,36.3377033026827],"sales":{"202602":675}},{"id":"MA010120220810351436","name":"탑커스텀","industry":"자동차 세차장","coordinates":[127.313093352018,36.3372757963278],"sales":{"202602":163}},{"id":"MA010120220810420243","name":"애드스타","industry":"명함/간판/광고물 제작","coordinates":[127.311123110291,36.337596354183],"sales":{"202602":387}},{"id":"MA010120220810548131","name":"본죽앤비빔밥대전","industry":"백반/한정식","coordinates":[127.301399613996,36.3463897375386],"sales":{"202602":3264}},{"id":"MA010120220810592070","name":"치킨","industry":"치킨","coordinates":[127.313586897094,36.3409152637962],"sales":{"202602":2059}},{"id":"MA010120220811049064","name":"황가네","industry":"치킨","coordinates":[127.302692420738,36.3379063812691],"sales":{"202602":726}},{"id":"MA010120220811083796","name":"피에스타PC방대전","industry":"PC방","coordinates":[127.297882743982,36.3501835016207],"sales":{"202602":1875}},{"id":"MA010120220811132463","name":"다빈치팩토리","industry":"전시/컨벤션/행사 대행 서비스업","coordinates":[127.303152348769,36.3416180719236],"sales":{"202602":3347}},{"id":"MA010120220811286854","name":"씨유한밭대원룸","industry":"편의점","coordinates":[127.297994867665,36.3503724692958],"sales":{"202602":1768}},{"id":"MA010120220811476634","name":"세븐일레븐","industry":"편의점","coordinates":[127.308803347338,36.3565991920726],"sales":{"202602":2125}},{"id":"MA010120220811478973","name":"넥스트레벨","industry":"자동차 정비소","coordinates":[127.313087587394,36.3386185677813],"sales":{"202602":1650}},{"id":"MA010120220811485048","name":"라노보계산동","industry":"카페","coordinates":[127.311377871144,36.3260425666056],"sales":{"202602":705}},{"id":"MA010120220811547243","name":"애기강아지반려견전문샵","industry":"애완동물/애완용품 소매업","coordinates":[127.302990852245,36.3401856075484],"sales":{"202602":530}},{"id":"MA010120220811549772","name":"플라워스튜디오호화好花","industry":"꽃집","coordinates":[127.302402978175,36.3437107041749],"sales":{"202602":363}},{"id":"MA010120220811677446","name":"에이치앤비","industry":"건축물 일반 청소업","coordinates":[127.301547217543,36.3413337556903],"sales":{"202602":672}},{"id":"MA010120220811678946","name":"다미온","industry":"반찬/식료품 소매업","coordinates":[127.298536818985,36.3493437744238],"sales":{"202602":1837}},{"id":"MA010120220811729051","name":"일공공일안경콘택트","industry":"안경렌즈 소매업","coordinates":[127.304168452861,36.3422463149635],"sales":{"202602":1890}},{"id":"MA010120220811744549","name":"방일해장국","industry":"국/탕/찌개류","coordinates":[127.303416116471,36.3607944492592],"sales":{"202602":1855}},{"id":"MA010120220811750570","name":"로또한밭점","industry":"복권 발행/판매업","coordinates":[127.305157407863,36.3416219807337],"sales":{"202602":763}},{"id":"MA010120220811786480","name":"빅필드컴퍼니","industry":"그 외 기타 상품 전문 소매업","coordinates":[127.303463961718,36.3415451867846],"sales":{"202602":3601}},{"id":"MA010120220811839861","name":"월드모터스","industry":"자동차 정비소","coordinates":[127.314462704919,36.3398766073987],"sales":{"202602":1357}},{"id":"MA010120220811867769","name":"더페이지","industry":"음악학원","coordinates":[127.30887108436,36.3568243110063],"sales":{"202602":176}},{"id":"MA010120220811874648","name":"심지예공인중개사사무소","industry":"부동산 중개/대리업","coordinates":[127.304624138633,36.3419838125717],"sales":{"202602":825}},{"id":"MA010120220811878311","name":"지오","industry":"카페","coordinates":[127.298589904476,36.3486587469222],"sales":{"202602":244}},{"id":"MA010120220811909167","name":"알짱","industry":"요리 주점","coordinates":[127.297300230378,36.3493378455542],"sales":{"202602":574}},{"id":"MA010120220811915071","name":"제이커뮤","industry":"광고물 설계/제작업","coordinates":[127.304814023403,36.3449752398216],"sales":{"202602":582}},{"id":"MA010120220811951643","name":"90모터스","industry":"자동차 세차장","coordinates":[127.30954275767,36.3407455713236],"sales":{"202602":1142}},{"id":"MA010120220811952967","name":"마시코","industry":"백반/한정식","coordinates":[127.2943212183,36.3451637547822],"sales":{"202602":1906}},{"id":"MA010120220811993952","name":"삼팔푸드","industry":"횟집","coordinates":[127.297745080639,36.3491384789463],"sales":{"202602":2182}},{"id":"MA010120220812011086","name":"아리엘플레르","industry":"꽃집","coordinates":[127.308766018838,36.3443252580085],"sales":{"202602":311}},{"id":"MA010120220812012199","name":"달빛소나타","industry":"돼지고기 구이/찜","coordinates":[127.306183052802,36.3446833631276],"sales":{"202602":870}},{"id":"MA010120220812031444","name":"오투그린1공인중개사사무소","industry":"부동산 중개/대리업","coordinates":[127.300895796222,36.3457331473399],"sales":{"202602":1197}},{"id":"MA010120220812031684","name":"초원","industry":"백반/한정식","coordinates":[127.292384454649,36.3455740392317],"sales":{"202602":1415}},{"id":"MA010120220812037291","name":"경성국어학원","industry":"입시·교과학원","coordinates":[127.304311858899,36.3418854785383],"sales":{"202602":525}},{"id":"MA010120220812057779","name":"마하","industry":"빵/도넛","coordinates":[127.290069456884,36.3461293994899],"sales":{"202602":4588}},{"id":"MA010120220812112368","name":"이마트24","industry":"편의점","coordinates":[127.313913976071,36.3419237247092],"sales":{"202602":1256}},{"id":"MA010120220812120684","name":"심준언헤어","industry":"미용실","coordinates":[127.310327204787,36.3363187493188],"sales":{"202602":526}},{"id":"MA010120220812129859","name":"밥집","industry":"백반/한정식","coordinates":[127.314578392803,36.3437153218198],"sales":{"202602":4649}},{"id":"MA010120220812149161","name":"퍼팩트","industry":"PC방","coordinates":[127.298536818985,36.3493437744238],"sales":{"202602":1972}},{"id":"MA010120220812169317","name":"캠퍼스당구장","industry":"당구장","coordinates":[127.300145911455,36.3477176241947],"sales":{"202602":288}},{"id":"MA010120220812169969","name":"복권판매점","industry":"복권 발행/판매업","coordinates":[127.3136304155,36.3378781779612],"sales":{"202602":341}},{"id":"MA010120220812173011","name":"덕명운암공인중개사사무소","industry":"부동산 중개/대리업","coordinates":[127.302526396247,36.3583364954442],"sales":{"202602":1296}},{"id":"MA010120220812184007","name":"아이언사인","industry":"그 외 기타 개인/가정용품 수리업","coordinates":[127.29889188695,36.343142783119],"sales":{"202602":7079}},{"id":"MA010120220812210316","name":"스플라인","industry":"도시 계획 및 조경 설계 서비스업","coordinates":[127.296860394331,36.3479240902466],"sales":{}},{"id":"MA010120220812210654","name":"용성물산","industry":"건축 설계 및 관련 서비스업","coordinates":[127.297994867665,36.3503724692958],"sales":{}},{"id":"MA010120220812250735","name":"리퍼월드","industry":"중고 상품 소매업","coordinates":[127.313712244209,36.3416178538551],"sales":{"202602":882}},{"id":"MA010120220812307340","name":"그릿","industry":"중고 상품 소매업","coordinates":[127.309789428081,36.3355271068213],"sales":{"202602":927}},{"id":"MA010120220812309290","name":"왕제엔터프라이즈","industry":"전시/컨벤션/행사 대행 서비스업","coordinates":[127.304138284057,36.3258899825108],"sales":{"202602":5025}},{"id":"MA010120220812324865","name":"도레미","industry":"경영 컨설팅업","coordinates":[127.308281102435,36.3371711529299],"sales":{"202602":1987}},{"id":"MA010120220812373213","name":"희헤어비스","industry":"미용실","coordinates":[127.298144612456,36.3487409647078],"sales":{"202602":517}},{"id":"MA010120220812375451","name":"파라다이스","industry":"장례식장","coordinates":[127.305417003422,36.3396387247781],"sales":{"202602":6682}},{"id":"MA010120220812448710","name":"청년피자","industry":"피자","coordinates":[127.298144612456,36.3487409647078],"sales":{"202602":4557}},{"id":"MA010120220812524455","name":"더시티호텔보령","industry":"부동산 중개/대리업","coordinates":[127.30908777944,36.3440000021861],"sales":{"202602":3941}},{"id":"MA010120220812550586","name":"카페에이치","industry":"카페","coordinates":[127.297072587089,36.3509965779609],"sales":{"202602":1957}},{"id":"MA010120220812563893","name":"대전도시공사학하수소충전소","industry":"가스 충전소","coordinates":[127.316295671025,36.3358975723396],"sales":{"202602":13836}},{"id":"MA010120220812591645","name":"도덕봉가든","industry":"돼지고기 구이/찜","coordinates":[127.29568191116,36.3456019731003],"sales":{"202602":1549}},{"id":"MA010120220812624081","name":"아웃러너","industry":"화장품 소매업","coordinates":[127.311635460062,36.3431823255738],"sales":{"202602":881}},{"id":"MA010120220812663736","name":"그린밸리영어교습소","industry":"입시·교과학원","coordinates":[127.306563820674,36.3423573474902],"sales":{"202602":711}},{"id":"MA010120220812671952","name":"씨유","industry":"편의점","coordinates":[127.302104798988,36.3587971618577],"sales":{"202602":1680}},{"id":"MA010120220812672901","name":"이강크레인","industry":"건설기계/장비 대여업","coordinates":[127.315857015153,36.3403595667964],"sales":{"202602":207}},{"id":"MA010120220812675168","name":"땡스러브커피","industry":"카페","coordinates":[127.303521789877,36.3420947587653],"sales":{"202602":218}},{"id":"MA010120220812679984","name":"런앤점프","industry":"요가/필라테스 학원","coordinates":[127.313053744063,36.3412951564556],"sales":{"202602":911}},{"id":"MA010120220812718489","name":"09당구클럽","industry":"당구장","coordinates":[127.297994867665,36.3503724692958],"sales":{"202602":216}},{"id":"MA010120220812722737","name":"한빛주택관리","industry":"건축물 일반 청소업","coordinates":[127.314197283561,36.3375793000311],"sales":{"202602":1525}},{"id":"MA010120220812734269","name":"시크릿가든","industry":"카페","coordinates":[127.291165439892,36.3472802420028],"sales":{"202602":710}},{"id":"MA010120220812744081","name":"양지공인중개사사무소학하","industry":"부동산 중개/대리업","coordinates":[127.304162390489,36.3406872916634],"sales":{"202602":1339}},{"id":"MA010120220812745284","name":"우림건축사사무소","industry":"건축 설계 및 관련 서비스업","coordinates":[127.305302837521,36.338927085263],"sales":{}},{"id":"MA010120220812748740","name":"학하현대부동산중개사무소","industry":"부동산 중개/대리업","coordinates":[127.310129939108,36.3399420001745],"sales":{"202602":666}},{"id":"MA010120220812786424","name":"다복","industry":"중국집","coordinates":[127.31433065513,36.3375068550241],"sales":{"202602":1915}},{"id":"MA010120220812794637","name":"소담제빵소","industry":"빵/도넛","coordinates":[127.303667332764,36.3422836364876],"sales":{"202602":1390}},{"id":"MA010120220812806914","name":"디렉터랩","industry":"광고물 설계/제작업","coordinates":[127.300614822029,36.3595759310202],"sales":{"202602":1262}},{"id":"MA010120220812810987","name":"동네방네덴트","industry":"자동차 정비소","coordinates":[127.313986159628,36.337706019912],"sales":{"202602":650}},{"id":"MA010120220812848360","name":"코코파스텔","industry":"사진촬영업","coordinates":[127.310352376978,36.3370486389618],"sales":{"202602":920}},{"id":"MA010120220812855130","name":"지에스25유성","industry":"편의점","coordinates":[127.303777393984,36.3419409089925],"sales":{"202602":1447}},{"id":"MA010120220812876984","name":"로또마트","industry":"슈퍼마켓","coordinates":[127.309004780125,36.3399088675232],"sales":{"202602":8947}},{"id":"MA010120220812894640","name":"달미장","industry":"미용실","coordinates":[127.302402978175,36.3437107041749],"sales":{"202602":609}},{"id":"MA010120220812906372","name":"한밭대앞Self주유소","industry":"주유소","coordinates":[127.299498693107,36.3474308711911],"sales":{"202602":45528}},{"id":"MA010120220812926636","name":"구암약선오리","industry":"백반/한정식","coordinates":[127.322225078362,36.3476421053976],"sales":{"202602":1916}},{"id":"MA010120220812953781","name":"강상구당구클럽","industry":"당구장","coordinates":[127.308731219039,36.3411532008305],"sales":{"202602":355}},{"id":"MA010120220812957814","name":"에스엘케어","industry":"산업설비, 운송장비 및 공공장소 청소업","coordinates":[127.308527485926,36.3572757866911],"sales":{"202602":796}},{"id":"MA010120220812968516","name":"팀던트레이닝센터","industry":"헬스장","coordinates":[127.300760784896,36.3424892458932],"sales":{"202602":1271}},{"id":"MA010120220812978514","name":"오피스케이","industry":"문구/회화용품 소매업","coordinates":[127.298727543786,36.3496947569715],"sales":{"202602":196}},{"id":"MA010120220812980431","name":"예광건축사사무소","industry":"건축 설계 및 관련 서비스업","coordinates":[127.307372054398,36.3411026335669],"sales":{}},{"id":"MA010120220812990017","name":"채움애돈까스","industry":"카페","coordinates":[127.298945420847,36.3484055283685],"sales":{"202602":343}},{"id":"MA010120220813027855","name":"탬파카커피컴패니","industry":"카페","coordinates":[127.298259312564,36.3496058088259],"sales":{"202602":500}},{"id":"MA010120220813031073","name":"화수분평생교육원","industry":"기타 기술/직업 훈련학원","coordinates":[127.299569896702,36.3427535787693],"sales":{"202602":362}},{"id":"MA010120220813032793","name":"체인지","industry":"카페","coordinates":[127.294390870998,36.345911561027],"sales":{"202602":1078}},{"id":"MA010120220813036231","name":"시호루","industry":"카페","coordinates":[127.298945420847,36.3484055283685],"sales":{"202602":2237}},{"id":"MA010120220813060568","name":"나무투어","industry":"여행사","coordinates":[127.312730750045,36.3413050138859],"sales":{"202602":3378}},{"id":"MA010120220813062776","name":"청춘정육점","industry":"정육점","coordinates":[127.303297924815,36.3418159618148],"sales":{"202602":2116}},{"id":"MA010120220813068152","name":"도영살롱","industry":"미용실","coordinates":[127.30427959858,36.3421829495421],"sales":{"202602":193}},{"id":"MA010120220813071224","name":"황금코다리","industry":"해산물 구이/찜","coordinates":[127.296695546165,36.3455814372489],"sales":{"202602":6887}},{"id":"MA010120220813098209","name":"타이어성원","industry":"타이어 소매업","coordinates":[127.318816077208,36.3421360422213],"sales":{"202602":1802}},{"id":"MA010120220813104359","name":"지에스25","industry":"편의점","coordinates":[127.300462090932,36.337227113094],"sales":{"202602":2213}},{"id":"MA010120220813161254","name":"수통골감나무집","industry":"백반/한정식","coordinates":[127.291742829018,36.3467741741591],"sales":{"202602":1953}},{"id":"MA010120220813163114","name":"몬스터스팀&트레일러","industry":"자동차 세차장","coordinates":[127.317320906796,36.3387696148664],"sales":{"202602":87}},{"id":"MA010120220813173857","name":"리퍼샵","industry":"중고 상품 소매업","coordinates":[127.31409614542,36.3429055301484],"sales":{"202602":2200}},{"id":"MA010120220813180859","name":"황언니뷰티샵","industry":"마사지/안마","coordinates":[127.308887911644,36.3441627309854],"sales":{"202602":393}},{"id":"MA010120220813183762","name":"레몬트리","industry":"카페","coordinates":[127.298059133067,36.3496964260299],"sales":{"202602":849}},{"id":"MA010120220813211808","name":"호유즈","industry":"카페","coordinates":[127.300914952493,36.3362346765519],"sales":{"202602":1871}},{"id":"MA010120220813242369","name":"딱이야오피스","industry":"문구/회화용품 소매업","coordinates":[127.297994867665,36.3503724692958],"sales":{"202602":829}},{"id":"MA010120220813243557","name":"아람답다","industry":"카페","coordinates":[127.298360743947,36.3440723239806],"sales":{"202602":1266}},{"id":"MA010120220813268116","name":"에이치이엠","industry":"골프 연습장","coordinates":[127.290309346796,36.3537347552326],"sales":{"202602":725}},{"id":"MA010120220813270863","name":"매드락코인노래연습장","industry":"노래방","coordinates":[127.297300230378,36.3493378455542],"sales":{"202602":360}},{"id":"MA010120220813303227","name":"크로사이언스","industry":"사진기/기타 광학기기 소매업","coordinates":[127.309524853433,36.3446657425796],"sales":{"202602":3487}},{"id":"MA010120220813307753","name":"디에프에스","industry":"구내식당","coordinates":[127.309663118114,36.3373838630426],"sales":{"202602":3842}},{"id":"MA010120220813346457","name":"모터쉴드","industry":"자동차 부품 소매업","coordinates":[127.304502994558,36.3452013272203],"sales":{"202602":576}},{"id":"MA010120220813349060","name":"오션모터스","industry":"자동차 정비소","coordinates":[127.317054822146,36.3390767217549],"sales":{"202602":679}},{"id":"MA010120220813411479","name":"가경공인중개사사무소","industry":"부동산 중개/대리업","coordinates":[127.310740879493,36.3451221874658],"sales":{"202602":1043}},{"id":"MA010120220813418055","name":"더함뜰","industry":"백반/한정식","coordinates":[127.295950727879,36.3459888142198],"sales":{"202602":3521}},{"id":"MA010120220813418515","name":"토크매니아","industry":"자동차 세차장","coordinates":[127.316287942806,36.3422509012644],"sales":{"202602":936}},{"id":"MA010120220813435046","name":"나가수한방카페","industry":"카페","coordinates":[127.309292820468,36.3395116038432],"sales":{"202602":1377}},{"id":"MA010120220813450164","name":"크린워시세탁소","industry":"세탁소","coordinates":[127.307093981853,36.3582257142291],"sales":{"202602":220}},{"id":"MA010120220813571556","name":"아이스맨아이스크림할인점2호","industry":"슈퍼마켓","coordinates":[127.302237207481,36.3584633919182],"sales":{"202602":10386}},{"id":"MA010120220813582721","name":"차를품다","industry":"카페","coordinates":[127.298144612456,36.3487409647078],"sales":{"202602":351}},{"id":"MA010120220813613237","name":"유탑건축","industry":"건축 설계 및 관련 서비스업","coordinates":[127.305302837521,36.338927085263],"sales":{}},{"id":"MA010120220813626720","name":"해피웍스목공교육","industry":"기타 예술/스포츠 교육기관","coordinates":[127.31476032666,36.3418674278991],"sales":{"202602":463}},{"id":"MA010120220813639906","name":"유성숲오투공인중개사사무소","industry":"부동산 중개/대리업","coordinates":[127.301687716729,36.3459924923258],"sales":{"202602":1513}},{"id":"MA010120220813664944","name":"동창금융컨설팅대부중개","industry":"부동산 중개/대리업","coordinates":[127.301069336205,36.3589800105772],"sales":{"202602":703}},{"id":"MA010120220813702684","name":"건축사사무소효담","industry":"건축 설계 및 관련 서비스업","coordinates":[127.308769229614,36.339494934168],"sales":{}},{"id":"MA010120220813702732","name":"스팅엠에스","industry":"자동차 정비소","coordinates":[127.304136924252,36.3398672839153],"sales":{"202602":3081}},{"id":"MA010120220813703350","name":"도담이엔씨","industry":"도시 계획 및 조경 설계 서비스업","coordinates":[127.304744280984,36.3413707049512],"sales":{}},{"id":"MA010120220813720789","name":"커피홀유성","industry":"카페","coordinates":[127.304175662517,36.3383712285013],"sales":{"202602":913}},{"id":"MA010120220813740947","name":"맘스터치","industry":"버거","coordinates":[127.30050318455,36.3479239971549],"sales":{"202602":1549}},{"id":"MA010120220813751877","name":"먹거리마트","industry":"슈퍼마켓","coordinates":[127.303549926387,36.3407339077974],"sales":{"202602":11135}},{"id":"MA010120220813755968","name":"찐찐포차","industry":"요리 주점","coordinates":[127.298125218288,36.3494980021542],"sales":{"202602":471}},{"id":"MA010120220813766506","name":"24시셀프빨래방","industry":"셀프 빨래방","coordinates":[127.300624407293,36.3475812447721],"sales":{"202602":458}},{"id":"MA010120220813774184","name":"운암타운공인중개사사무소","industry":"부동산 중개/대리업","coordinates":[127.302237207481,36.3584633919182],"sales":{"202602":4790}},{"id":"MA010120220813807057","name":"올래공인중개사사무소,카페올래","industry":"부동산 중개/대리업","coordinates":[127.307447280945,36.3574047356141],"sales":{"202602":586}},{"id":"MA010120220813809305","name":"해든건축사사무소","industry":"건축 설계 및 관련 서비스업","coordinates":[127.308194819878,36.3435427076106],"sales":{}},{"id":"MA010120220813827034","name":"복사꽃피는집","industry":"백반/한정식","coordinates":[127.301122209113,36.3350986684908],"sales":{"202602":1788}},{"id":"MA010120220813827702","name":"도자카페","industry":"카페","coordinates":[127.292763099757,36.3455460768718],"sales":{"202602":219}},{"id":"MA010120220813842363","name":"조이풀","industry":"자동차 세차장","coordinates":[127.309960393595,36.3393206268004],"sales":{"202602":882}},{"id":"MA010120220813855433","name":"덕명밤","industry":"요리 주점","coordinates":[127.29925882359,36.3487922502631],"sales":{"202602":417}},{"id":"MA010120220813859102","name":"시크릿가든드레스레스토랑","industry":"경양식","coordinates":[127.291344147376,36.3474059713515],"sales":{"202602":2054}},{"id":"MA010120220813860511","name":"다솜약국","industry":"약국","coordinates":[127.303667332764,36.3422836364876],"sales":{"202602":1284}},{"id":"MA010120220813900663","name":"비케이컴퍼니","industry":"광고 대행업","coordinates":[127.308281102435,36.3371711529299],"sales":{"202602":1076}},{"id":"MA010120220813920419","name":"동성부동산공인중개사사무소","industry":"부동산 중개/대리업","coordinates":[127.297653181404,36.3484087541],"sales":{"202602":1606}},{"id":"MA010120220813923140","name":"제이펍","industry":"백반/한정식","coordinates":[127.298269730886,36.34941653557],"sales":{"202602":5653}},{"id":"MA010120220813960974","name":"키담","industry":"요가/필라테스 학원","coordinates":[127.311524618914,36.3405241388382],"sales":{"202602":170}},{"id":"MA010120220813990780","name":"베스트내과의원","industry":"내과/소아과 의원","coordinates":[127.306563820674,36.3423573474902],"sales":{"202602":6212}},{"id":"MA010120220814004888","name":"해신아트인테리어","industry":"인테리어 디자인업","coordinates":[127.30381788994,36.3408954390209],"sales":{"202602":1220}},{"id":"MA010120220814036278","name":"빽다방대전","industry":"카페","coordinates":[127.298849638019,36.3495772986351],"sales":{"202602":323}},{"id":"MA010120220814037175","name":"유진이네닭발","industry":"닭/오리고기 구이/찜","coordinates":[127.303911763088,36.3421208030398],"sales":{"202602":1029}},{"id":"MA010120220814061903","name":"세실","industry":"카페","coordinates":[127.30261104926,36.3600575269049],"sales":{"202602":339}},{"id":"MA010120220814075553","name":"에이피에스","industry":"제품 디자인업","coordinates":[127.303846363803,36.3424904524528],"sales":{}},{"id":"MA010120220814082184","name":"오브제","industry":"실/섬유제품 소매업","coordinates":[127.308071045334,36.3432276144256],"sales":{"202602":196}},{"id":"MA010120220814094634","name":"온이포터리","industry":"기타 예술/스포츠 교육기관","coordinates":[127.304500766857,36.3417678441682],"sales":{"202602":123}},{"id":"MA010120220814101620","name":"리솜인테리어","industry":"인테리어 디자인업","coordinates":[127.300295983482,36.3374798607461],"sales":{"202602":2274}},{"id":"MA010120220814105921","name":"봄길국수와커피","industry":"국수/칼국수","coordinates":[127.302284549693,36.3418906236223],"sales":{"202602":1291}},{"id":"MA010120220814126309","name":"갈색다실","industry":"카페","coordinates":[127.303859785133,36.3402104367698],"sales":{"202602":490}},{"id":"MA010120220814138326","name":"킹세종","industry":"부동산 중개/대리업","coordinates":[127.292384454649,36.3455740392317],"sales":{"202602":1434}},{"id":"MA010120220814183360","name":"카페니치","industry":"카페","coordinates":[127.293566222689,36.3487973587262],"sales":{"202602":1100}},{"id":"MA010120220814190979","name":"헬로베트남쌀국수","industry":"베트남식 전문","coordinates":[127.299559673952,36.3488095200221],"sales":{"202602":1758}},{"id":"MA010120220814224199","name":"키키러브","industry":"기타 의류 소매업","coordinates":[127.298348538926,36.3437929892003],"sales":{"202602":835}},{"id":"MA010120220814245908","name":"대경한우정육식당","industry":"돼지고기 구이/찜","coordinates":[127.30308359414,36.341122598137],"sales":{"202602":2416}},{"id":"MA010120220814258802","name":"소꿉놀이","industry":"기타 의류 소매업","coordinates":[127.309233873749,36.3443240482915],"sales":{"202602":309}},{"id":"MA010120220814259869","name":"원공인중개사사무소","industry":"부동산 중개/대리업","coordinates":[127.297476929759,36.3489318759536],"sales":{"202602":744}},{"id":"MA010120220814342179","name":"청춘P.T","industry":"헬스장","coordinates":[127.297300230378,36.3493378455542],"sales":{"202602":559}},{"id":"MA010120220814357257","name":"지에스25","industry":"편의점","coordinates":[127.298849638019,36.3495772986351],"sales":{"202602":1171}},{"id":"MA010120220814377615","name":"키즈위즈뮤직","industry":"음악학원","coordinates":[127.315242683379,36.342704252081],"sales":{"202602":282}},{"id":"MA0101202209A0019203","name":"비케이컴퍼니","industry":"광고물 설계/제작업","coordinates":[127.308281102435,36.3371711529299],"sales":{"202602":195}},{"id":"MA0101202209A0050424","name":"천재원공인중개사사무소","industry":"부동산 중개/대리업","coordinates":[127.310039226912,36.3423483817491],"sales":{"202602":1145}},{"id":"MA0101202209A0088617","name":"미소부동산공인중개사사무소","industry":"부동산 중개/대리업","coordinates":[127.304733141998,36.3413707333548],"sales":{"202602":950}},{"id":"MA0101202210A0006347","name":"에이치컨설팅","industry":"편의점","coordinates":[127.310884689642,36.3420668201331],"sales":{"202602":8392}},{"id":"MA0101202210A0013092","name":"커피:이","industry":"카페","coordinates":[127.311819544005,36.3446507653638],"sales":{"202602":1159}},{"id":"MA0101202210A0026817","name":"예인디저트","industry":"카페","coordinates":[127.300122614978,36.3358401499415],"sales":{"202602":468}},{"id":"MA0101202210A0059766","name":"제이에이치무역","industry":"주방/가정용품 소매업","coordinates":[127.30793776464,36.3433270875204],"sales":{"202602":1409}},{"id":"MA0101202210A0074552","name":"블랙라벨","industry":"자동차 세차장","coordinates":[127.303463926757,36.3415361750887],"sales":{"202602":142}},{"id":"MA0101202211A0006606","name":"나림라탄공방","industry":"기타 기술/직업 훈련학원","coordinates":[127.297332314426,36.3489863065163],"sales":{"202602":142}},{"id":"MA0101202211A0029095","name":"건축사사무소SA","industry":"건축 설계 및 관련 서비스업","coordinates":[127.308194819878,36.3435427076106],"sales":{}},{"id":"MA0101202211A0034298","name":"명랑시대쌀핫도그대전","industry":"빵/도넛","coordinates":[127.302425012905,36.3436475659435],"sales":{"202602":1073}},{"id":"MA0101202211A0038700","name":"에이치디비","industry":"화장품 소매업","coordinates":[127.30789416541,36.343570517934],"sales":{"202602":556}},{"id":"MA0101202211A0066407","name":"하루폴스튜디오","industry":"레크리에이션 교육기관","coordinates":[127.307233371656,36.3426620286597],"sales":{"202602":568}},{"id":"MA0101202211A0069167","name":"바로덮밥&파스타","industry":"백반/한정식","coordinates":[127.302322627536,36.340214335171],"sales":{"202602":5313}},{"id":"MA0101202211A0094547","name":"고스트스피드","industry":"타이어 소매업","coordinates":[127.310745251916,36.3434189499275],"sales":{"202602":1542}},{"id":"MA0101202212A0007100","name":"디엘라헤어","industry":"미용실","coordinates":[127.306475889694,36.3398162497762],"sales":{"202602":817}},{"id":"MA0101202212A0009013","name":"제이필즈수학교습소","industry":"입시·교과학원","coordinates":[127.304078394063,36.3420032259884],"sales":{"202602":649}},{"id":"MA0101202212A0012749","name":"햇살나눔1호","industry":"경영 컨설팅업","coordinates":[127.306826164156,36.3581182611432],"sales":{"202602":2307}},{"id":"MA0101202212A0016785","name":"조이피아노교습소","industry":"음악학원","coordinates":[127.302425012905,36.3436475659435],"sales":{"202602":167}},{"id":"MA0101202212A0024450","name":"별하공인중개사사무소","industry":"부동산 중개/대리업","coordinates":[127.312073126361,36.3439922436172],"sales":{"202602":1492}},{"id":"MA0101202212A0037258","name":"참시골순대","industry":"국/탕/찌개류","coordinates":[127.304196718336,36.3409215107155],"sales":{"202602":534}},{"id":"MA0101202212A0039059","name":"이삭토스트","industry":"토스트/샌드위치/샐러드","coordinates":[127.298727543786,36.3496947569715],"sales":{"202602":1894}},{"id":"MA0101202212A0039949","name":"광명에너지","industry":"경영 컨설팅업","coordinates":[127.306826164156,36.3581182611432],"sales":{"202602":1881}},{"id":"MA0101202212A0047022","name":"한밭1호","industry":"경영 컨설팅업","coordinates":[127.306826164156,36.3581182611432],"sales":{"202602":357}},{"id":"MA0101202212A0049381","name":"탕화쿵푸마라탕","industry":"마라탕/훠궈","coordinates":[127.297990540583,36.3492369966216],"sales":{"202602":1483}},{"id":"MA0101202212A0052980","name":"에이치에스디테일링","industry":"자동차 세차장","coordinates":[127.310447210028,36.3441046197812],"sales":{"202602":3351}},{"id":"MA0101202212A0060044","name":"그린에너지1호","industry":"경영 컨설팅업","coordinates":[127.306826164156,36.3581182611432],"sales":{"202602":2067}},{"id":"MA0101202212A0096459","name":"세븐일레븐대전학하동로점","industry":"편의점","coordinates":[127.3136304155,36.3378781779612],"sales":{"202602":1877}},{"id":"MA0101202212A0098071","name":"홍천자운솔라","industry":"경영 컨설팅업","coordinates":[127.306826164156,36.3581182611432],"sales":{"202602":1278}},{"id":"MA0101202301A0030788","name":"만점24스터디카페","industry":"독서실/스터디 카페","coordinates":[127.303219567181,36.3417170310239],"sales":{"202602":569}},{"id":"MA0101202301A0030976","name":"밤낮포차","industry":"백반/한정식","coordinates":[127.299636514821,36.3485119388033],"sales":{"202602":2125}},{"id":"MA0101202301A0057250","name":"한창식당","industry":"백반/한정식","coordinates":[127.318625317886,36.3417941033227],"sales":{"202602":1475}},{"id":"MA0101202301A0083622","name":"태온","industry":"화장품 소매업","coordinates":[127.310901809874,36.3407690788539],"sales":{"202602":425}},{"id":"MA0101202301A0093019","name":"소올바이오","industry":"주방/가정용품 소매업","coordinates":[127.312730750045,36.3413050138859],"sales":{"202602":668}},{"id":"MA0101202301A0104248","name":"컴포즈커피대전","industry":"카페","coordinates":[127.298726614277,36.3494514414052],"sales":{"202602":930}},{"id":"MA0101202302A0011494","name":"크로스핏투헬","industry":"요가/필라테스 학원","coordinates":[127.296701945923,36.3502044628211],"sales":{"202602":598}},{"id":"MA0101202302A0011582","name":"하이퍼모터스","industry":"자동차 정비소","coordinates":[127.307410022944,36.3394263437937],"sales":{"202602":626}},{"id":"MA0101202302A0014870","name":"창원유통","industry":"그 외 기타 간이 음식점","coordinates":[127.3046198214,36.3580337887532],"sales":{"202602":1059}},{"id":"MA0101202302A0025715","name":"맘스마인드","industry":"그 외 기타 교육기관","coordinates":[127.305375614668,36.3404498913186],"sales":{"202602":1123}},{"id":"MA0101202302A0034476","name":"홍씨쿠킹","industry":"백반/한정식","coordinates":[127.312250132766,36.3436853807724],"sales":{"202602":1094}},{"id":"MA0101202302A0042587","name":"노아","industry":"카페","coordinates":[127.30336194659,36.3611911040402],"sales":{"202602":901}},{"id":"MA0101202302A0043236","name":"대전컴퓨터수리","industry":"컴퓨터/노트북/프린터 수리업","coordinates":[127.303910572613,36.3418144054155],"sales":{"202602":494}},{"id":"MA0101202302A0049852","name":"담소케이크앤디저트","industry":"빵/도넛","coordinates":[127.308071045334,36.3432276144256],"sales":{"202602":4350}},{"id":"MA0101202302A0056014","name":"1층미용실byChris","industry":"미용실","coordinates":[127.304501854395,36.3420472066955],"sales":{"202602":530}},{"id":"MA0101202302A0064955","name":"링키영어학하영어교습소","industry":"외국어학원","coordinates":[127.302312429058,36.3404576792112],"sales":{"202602":1009}},{"id":"MA0101202302A0096397","name":"골프장캐디","industry":"골프 연습장","coordinates":[127.290309346796,36.3537347552326],"sales":{"202602":1694}},{"id":"MA0101202302A0111061","name":"학마을사회적협동조합","industry":"카페","coordinates":[127.30135573177,36.3378917356588],"sales":{"202602":238}},{"id":"MA0101202303A0013441","name":"로이모터스","industry":"자동차 정비소","coordinates":[127.297830082809,36.3480568540767],"sales":{"202602":1422}},{"id":"MA0101202303A0014322","name":"에듀아크","industry":"경영 컨설팅업","coordinates":[127.304668988062,36.3391990564436],"sales":{"202602":2116}},{"id":"MA0101202303A0023762","name":"아우토브레인","industry":"자동차 정비소","coordinates":[127.309920694126,36.3349229764056],"sales":{"202602":358}},{"id":"MA0101202303A0050663","name":"위너스모터스","industry":"자동차 부품 소매업","coordinates":[127.314889132485,36.3434261265293],"sales":{"202602":889}},{"id":"MA0101202303A0065480","name":"피움","industry":"기타 기술/직업 훈련학원","coordinates":[127.308766018838,36.3443252580085],"sales":{"202602":235}},{"id":"MA0101202303A0069199","name":"청남더홈케어","industry":"산업설비, 운송장비 및 공공장소 청소업","coordinates":[127.308281102435,36.3371711529299],"sales":{"202602":269}},{"id":"MA0101202303A0083866","name":"세림소아청소년과의원","industry":"내과/소아과 의원","coordinates":[127.303667332764,36.3422836364876],"sales":{"202602":7756}},{"id":"MA0101202303A0099095","name":"쌜리Pick","industry":"기타 의류 소매업","coordinates":[127.31474352419,36.3432282509679],"sales":{"202602":1121}},{"id":"MA0101202303A0104995","name":"센스이너웨이","industry":"기타 의류 소매업","coordinates":[127.308281102435,36.3371711529299],"sales":{"202602":1350}},{"id":"MA0101202303A0112501","name":"노상치킨가맹본부","industry":"치킨","coordinates":[127.308710050839,36.3386119319166],"sales":{"202602":2472}},{"id":"MA0101202303A0113030","name":"도하디자인","industry":"명함/간판/광고물 제작","coordinates":[127.303235556931,36.3400948690375],"sales":{"202602":561}},{"id":"MA0101202305A0009460","name":"에이그레이트","industry":"카페","coordinates":[127.309878709438,36.3411952898929],"sales":{"202602":1008}},{"id":"MA0101202305A0028074","name":"황가네포차","industry":"요리 주점","coordinates":[127.30277600566,36.3393570676023],"sales":{"202602":290}},