[{"id":"MA010120220800042546","name":"아니스트제인","industry":"여성 의류 소매업","coordinates":[127.405701252467,36.399989191445],"sales":{"202602":94}},{"id":"MA010120220800045808","name":"호래양꼬치","industry":"중국집","coordinates":[127.397910210813,36.4001866244411],"sales":{"202602":2385}},{"id":"MA010120220800053125","name":"스타일style","industry":"여성 의류 소매업","coordinates":[127.405701252467,36.399989191445],"sales":{"202602":240}},{"id":"MA010120220800059304","name":"속초세꼬시","industry":"횟집","coordinates":[127.402494656222,36.3985761972017],"sales":{"202602":2470}},{"id":"MA010120220800062647","name":"바이옥","industry":"미용실","coordinates":[127.402300930291,36.3977567878701],"sales":{"202602":456}},{"id":"MA010120220800081773","name":"백양세탁소","industry":"세탁소","coordinates":[127.40384405238,36.3986887938144],"sales":{"202602":437}},{"id":"MA010120220800091526","name":"애플민트","industry":"여성 의류 소매업","coordinates":[127.405701252467,36.399989191445],"sales":{"202602":104}},{"id":"MA010120220800112920","name":"노박네황족","industry":"백반/한정식","coordinates":[127.405943150449,36.3950589857689],"sales":{"202602":3277}},{"id":"MA010120220800150516","name":"해링턴정문공인중개사사무소","industry":"부동산 중개/대리업","coordinates":[127.408316038893,36.3947985704875],"sales":{"202602":1623}},{"id":"MA010120220800151416","name":"에이치에스통신컴퍼니","industry":"핸드폰 소매업","coordinates":[127.404574852741,36.3977400951858],"sales":{"202602":391}},{"id":"MA010120220800161810","name":"치락골순대","industry":"국/탕/찌개류","coordinates":[127.406768791072,36.3952093752244],"sales":{"202602":1577}},{"id":"MA010120220800166770","name":"중원","industry":"행정사","coordinates":[127.407882385683,36.3907357858887],"sales":{"202602":371}},{"id":"MA010120220800173446","name":"라벨피아노교습소","industry":"음악학원","coordinates":[127.408828776906,36.3947968165374],"sales":{"202602":274}},{"id":"MA010120220800179429","name":"더후아","industry":"여성 의류 소매업","coordinates":[127.405701252467,36.399989191445],"sales":{"202602":512}},{"id":"MA010120220800222136","name":"램스","industry":"여성 의류 소매업","coordinates":[127.402948371225,36.4022514274877],"sales":{"202602":214}},{"id":"MA010120220800223335","name":"엑스포우산,양산,모자외스카프","industry":"액세서리/잡화 소매업","coordinates":[127.405701252467,36.399989191445],"sales":{"202602":148}},{"id":"MA010120220800377827","name":"문지한방공인중개사사무소","industry":"부동산 중개/대리업","coordinates":[127.406678184437,36.3927945547352],"sales":{"202602":1276}},{"id":"MA010120220800493034","name":"연구단지골프샵","industry":"운동용품 소매업","coordinates":[127.395086817359,36.4039808978858],"sales":{"202602":358}},{"id":"MA010120220800525351","name":"광세족발","industry":"족발/보쌈","coordinates":[127.402484066793,36.3986843729266],"sales":{"202602":1275}},{"id":"MA010120220800604679","name":"문지미소공인중개사사무소","industry":"부동산 중개/대리업","coordinates":[127.408661579733,36.3947973887195],"sales":{"202602":2140}},{"id":"MA010120220800699780","name":"티시스대덕연구소","industry":"구내식당","coordinates":[127.40269194298,36.4044060797875],"sales":{"202602":2041}},{"id":"MA010120220800831612","name":"플레모FLEMO","industry":"꽃집","coordinates":[127.407435419952,36.3947925660565],"sales":{"202602":375}},{"id":"MA010120220800856880","name":"실로암알파","industry":"가구 소매업","coordinates":[127.405701252467,36.399989191445],"sales":{"202602":305}},{"id":"MA010120220800882372","name":"모리스커피","industry":"카페","coordinates":[127.40221737632,36.3966846802972],"sales":{"202602":810}},{"id":"MA010120220800897326","name":"샛별약국","industry":"약국","coordinates":[127.397103802497,36.3994413398064],"sales":{"202602":3442}},{"id":"MA010120220800913466","name":"달토끼의떡볶이흡입구역문지","industry":"김밥/만두/분식","coordinates":[127.406678184437,36.3927945547352],"sales":{"202602":842}},{"id":"MA010120220800936973","name":"전미원","industry":"돼지고기 구이/찜","coordinates":[127.403285061353,36.4048456497711],"sales":{"202602":1649}},{"id":"MA010120220800997939","name":"프리티","industry":"여성 의류 소매업","coordinates":[127.405701252467,36.399989191445],"sales":{"202602":182}},{"id":"MA010120220801316144","name":"더캠프PC방","industry":"PC방","coordinates":[127.402771471902,36.3982147972047],"sales":{"202602":1807}},{"id":"MA010120220801477009","name":"왕구들장돌구이","industry":"돼지고기 구이/찜","coordinates":[127.404101177917,36.3966783215283],"sales":{"202602":189}},{"id":"MA010120220801525126","name":"초이쿡","industry":"백반/한정식","coordinates":[127.39386357121,36.4001639912845],"sales":{"202602":3865}},{"id":"MA010120220801615715","name":"태월","industry":"채소/과일 소매업","coordinates":[127.402060532682,36.39653200994],"sales":{"202602":590}},{"id":"MA010120220801838672","name":"미래교육컨설팅","industry":"교육컨설팅업","coordinates":[127.404242506138,36.4002915227676],"sales":{"202602":756}},{"id":"MA010120220801861781","name":"정음태권도","industry":"태권도/무술학원","coordinates":[127.406068096518,36.3933643660726],"sales":{"202602":314}},{"id":"MA010120220801870759","name":"굿모닝광고","industry":"명함/간판/광고물 제작","coordinates":[127.405212659746,36.3788764772316],"sales":{"202602":665}},{"id":"MA010120220802271970","name":"지니푸드","industry":"김밥/만두/분식","coordinates":[127.400857610669,36.3967162867397],"sales":{"202602":521}},{"id":"MA010120220802420949","name":"보라식당","industry":"요리 주점","coordinates":[127.40229517086,36.3988021610483],"sales":{"202602":619}},{"id":"MA010120220802501826","name":"야미테이블","industry":"경양식","coordinates":[127.409487742596,36.395046885995],"sales":{"202602":2012}},{"id":"MA010120220802520044","name":"비바체첼로교습소","industry":"음악학원","coordinates":[127.405701252467,36.399989191445],"sales":{"202602":144}},{"id":"MA010120220802587151","name":"공주네","industry":"액세서리/잡화 소매업","coordinates":[127.405701252467,36.399989191445],"sales":{"202602":1231}},{"id":"MA010120220802616682","name":"지오기술연구소","industry":"기타 엔지니어링 서비스업","coordinates":[127.407882385683,36.3907357858887],"sales":{"202602":1071}},{"id":"MA010120220802683303","name":"코아컴퓨터","industry":"컴퓨터/소프트웨어 소매업","coordinates":[127.405701252467,36.399989191445],"sales":{"202602":1436}},{"id":"MA010120220802741779","name":"민정도자기전통차","industry":"카페","coordinates":[127.401845391501,36.3980466948945],"sales":{"202602":328}},{"id":"MA010120220802779889","name":"파파존스","industry":"버거","coordinates":[127.404578168944,36.3983799125282],"sales":{"202602":4084}},{"id":"MA010120220802916832","name":"복인궁","industry":"액세서리/잡화 소매업","coordinates":[127.405701252467,36.399989191445],"sales":{"202602":165}},{"id":"MA010120220802923544","name":"보통날","industry":"여성 의류 소매업","coordinates":[127.405701252467,36.399989191445],"sales":{"202602":186}},{"id":"MA010120220802931661","name":"허브","industry":"여성 의류 소매업","coordinates":[127.405701252467,36.399989191445],"sales":{"202602":236}},{"id":"MA010120220802947560","name":"맥시칸치킨","industry":"치킨","coordinates":[127.402948371225,36.4022514274877],"sales":{"202602":1283}},{"id":"MA010120220802983257","name":"휴이너테라피","industry":"피부 관리실","coordinates":[127.397103802497,36.3994413398064],"sales":{"202602":335}},{"id":"MA010120220803009105","name":"제이폴댄스","industry":"레크리에이션 교육기관","coordinates":[127.406678184437,36.3927945547352],"sales":{"202602":412}},{"id":"MA010120220803035690","name":"엑스골프","industry":"기타 산업용 기계/장비 대여업","coordinates":[127.388923759249,36.3998647710564],"sales":{"202602":833}},{"id":"MA010120220803099812","name":"이마트24유성","industry":"편의점","coordinates":[127.403839110395,36.3977335734943],"sales":{"202602":4391}},{"id":"MA010120220803124444","name":"미지","industry":"여성 의류 소매업","coordinates":[127.405701252467,36.399989191445],"sales":{"202602":439}},{"id":"MA010120220803133825","name":"라온헤어","industry":"미용실","coordinates":[127.401105941853,36.3973192351028],"sales":{"202602":313}},{"id":"MA010120220803135638","name":"스마일찹쌀꽈배기","industry":"빵/도넛","coordinates":[127.402773424877,36.3985932807653],"sales":{"202602":6287}},{"id":"MA010120220803154614","name":"네일끌림","industry":"네일숍","coordinates":[127.408661579733,36.3947973887195],"sales":{"202602":244}},{"id":"MA010120220803163090","name":"숯불꼼장어닭발","industry":"횟집","coordinates":[127.40208435157,36.3989921160357],"sales":{"202602":2469}},{"id":"MA010120220803166346","name":"특파원","industry":"여성 의류 소매업","coordinates":[127.405701252467,36.399989191445],"sales":{"202602":68}},{"id":"MA010120220803190738","name":"하이","industry":"여성 의류 소매업","coordinates":[127.405701252467,36.399989191445],"sales":{"202602":468}},{"id":"MA010120220803205889","name":"사랑예감","industry":"침구류/커튼 소매업","coordinates":[127.405701252467,36.399989191445],"sales":{"202602":729}},{"id":"MA010120220803228552","name":"아로파스페이스","industry":"카페","coordinates":[127.406698411344,36.3923979720503],"sales":{"202602":285}},{"id":"MA010120220803234742","name":"스킨케어피부관리실","industry":"피부 관리실","coordinates":[127.404242506138,36.4002915227676],"sales":{"202602":268}},{"id":"MA010120220803235168","name":"설어정","industry":"파스타/스테이크","coordinates":[127.405467835584,36.3936818139723],"sales":{"202602":1841}},{"id":"MA010120220803266208","name":"엘앤제이","industry":"미용실","coordinates":[127.406761541786,36.3959573687785],"sales":{"202602":624}},{"id":"MA010120220803266434","name":"크림","industry":"여성 의류 소매업","coordinates":[127.405701252467,36.399989191445],"sales":{"202602":180}},{"id":"MA010120220803304147","name":"도자작업실,은","industry":"기타 예술/스포츠 교육기관","coordinates":[127.404310641044,36.3983808184633],"sales":{"202602":217}},{"id":"MA010120220803369599","name":"와이에스씨컴퍼니","industry":"일식 회/초밥","coordinates":[127.405675053721,36.3777844922484],"sales":{"202602":2762}},{"id":"MA010120220803380090","name":"지티아이연구소","industry":"경영 컨설팅업","coordinates":[127.397176692546,36.4006216261429],"sales":{"202602":1045}},{"id":"MA010120220803408741","name":"제이엠","industry":"여성 의류 소매업","coordinates":[127.405701252467,36.399989191445],"sales":{"202602":266}},{"id":"MA010120220803512905","name":"노크","industry":"여성 의류 소매업","coordinates":[127.405701252467,36.399989191445],"sales":{"202602":181}},{"id":"MA010120220803549648","name":"플레인동전노래연습장","industry":"노래방","coordinates":[127.401103500499,36.3990134374624],"sales":{"202602":169}},{"id":"MA010120220803580241","name":"더귀엽개","industry":"애완동물/애완용품 소매업","coordinates":[127.401395224861,36.3993819358342],"sales":{"202602":781}},{"id":"MA010120220803707346","name":"미인","industry":"노래방","coordinates":[127.40250794084,36.3989906892369],"sales":{"202602":401}},{"id":"MA010120220803707733","name":"인테리어AMY","industry":"인테리어 디자인업","coordinates":[127.396615937621,36.3999566261121],"sales":{"202602":528}},{"id":"MA010120220803863888","name":"더볼륨","industry":"미용실","coordinates":[127.405701252467,36.399989191445],"sales":{"202602":312}},{"id":"MA010120220803915941","name":"정유진미용실","industry":"미용실","coordinates":[127.404560452167,36.3992631160975],"sales":{"202602":531}},{"id":"MA010120220803924864","name":"한마음정육식당","industry":"돼지고기 구이/찜","coordinates":[127.405492936573,36.3942224293164],"sales":{"202602":1574}},{"id":"MA010120220803986732","name":"알마니","industry":"여성 의류 소매업","coordinates":[127.405701252467,36.399989191445],"sales":{"202602":345}},{"id":"MA010120220804037395","name":"미호","industry":"여성 의류 소매업","coordinates":[127.405701252467,36.399989191445],"sales":{"202602":302}},{"id":"MA010120220804051070","name":"1도씨맥주","industry":"생맥주 전문","coordinates":[127.402363028725,36.3989911775214],"sales":{"202602":931}},{"id":"MA010120220804076477","name":"그림작업실미술교습소","industry":"미술학원","coordinates":[127.40291132916,36.3993948541872],"sales":{"202602":951}},{"id":"MA010120220804155430","name":"티아라네일","industry":"네일숍","coordinates":[127.405701252467,36.399989191445],"sales":{"202602":167}},{"id":"MA010120220804156310","name":"새로본플러스안경원","industry":"안경렌즈 소매업","coordinates":[127.405427555735,36.3945110248744],"sales":{"202602":555}},{"id":"MA010120220804319878","name":"세븐일레븐대전문지","industry":"편의점","coordinates":[127.406683441926,36.3938038446072],"sales":{"202602":1782}},{"id":"MA010120220804325056","name":"레드문","industry":"경양식","coordinates":[127.403217071564,36.3981592236527],"sales":{"202602":7017}},{"id":"MA010120220804333274","name":"몽떡","industry":"김밥/만두/분식","coordinates":[127.406758818389,36.3954347010245],"sales":{"202602":808}},{"id":"MA010120220804339839","name":"케이비투어","industry":"여행사","coordinates":[127.404578168944,36.3983799125282],"sales":{"202602":2265}},{"id":"MA010120220804380824","name":"일공공일안경.콘택트","industry":"안경렌즈 소매업","coordinates":[127.405984830944,36.394500120278],"sales":{"202602":232}},{"id":"MA010120220804396117","name":"한아름축산","industry":"정육점","coordinates":[127.400490364235,36.3990064833564],"sales":{"202602":5114}},{"id":"MA010120220804428277","name":"헤어갤러리혜윰","industry":"미용실","coordinates":[127.403650638214,36.3979324673691],"sales":{"202602":931}},{"id":"MA010120220804472947","name":"케이피/케이파파야부동산공인중개사사무소","industry":"부동산 중개/대리업","coordinates":[127.406267290553,36.3952291054627],"sales":{"202602":1631}},{"id":"MA010120220804531858","name":"아이블디자인","industry":"제품 디자인업","coordinates":[127.406687197435,36.3945247658393],"sales":{}},{"id":"MA010120220804580677","name":"선비꼬마김밥","industry":"김밥/만두/분식","coordinates":[127.402300930291,36.3977567878701],"sales":{"202602":716}},{"id":"MA010120220804740795","name":"도시공간플랫폼","industry":"도시 계획 및 조경 설계 서비스업","coordinates":[127.408808654703,36.3952114223824],"sales":{}},{"id":"MA010120220804764647","name":"이지","industry":"세탁소","coordinates":[127.405766773396,36.3954380754043],"sales":{"202602":208}},{"id":"MA010120220804775697","name":"참고은마트","industry":"슈퍼마켓","coordinates":[127.406678184437,36.3927945547352],"sales":{"202602":7699}},{"id":"MA010120220804864697","name":"용이네닭강정","industry":"치킨","coordinates":[127.404104026669,36.3993818129746],"sales":{"202602":1732}},{"id":"MA010120220804909523","name":"세븐일레븐","industry":"편의점","coordinates":[127.402948371225,36.4022514274877],"sales":{"202602":2522}},{"id":"MA010120220804915616","name":"커피주네","industry":"카페","coordinates":[127.406759663574,36.3955969082634],"sales":{"202602":722}},{"id":"MA010120220804925104","name":"정우식당","industry":"구내식당","coordinates":[127.389526788921,36.4000790859485],"sales":{"202602":865}},{"id":"MA010120220804953752","name":"투다리","industry":"요리 주점","coordinates":[127.403622649303,36.3989869273248],"sales":{"202602":377}},{"id":"MA010120220804975209","name":"염색이야기","industry":"미용실","coordinates":[127.397103802497,36.3994413398064],"sales":{"202602":414}},{"id":"MA010120220805010406","name":"꼬꼬패밀리꼬꼬친구","industry":"치킨","coordinates":[127.397103802497,36.3994413398064],"sales":{"202602":690}},{"id":"MA010120220805021818","name":"디에이치컴퍼니","industry":"광고 대행업","coordinates":[127.405675053721,36.3777844922484],"sales":{"202602":1073}},{"id":"MA010120220805034021","name":"미소도예","industry":"기타 예술/스포츠 교육기관","coordinates":[127.403869890111,36.3993735932793],"sales":{"202602":196}},{"id":"MA010120220805038876","name":"제이에이치테크","industry":"기타 엔지니어링 서비스업","coordinates":[127.407605957802,36.3954318130095],"sales":{"202602":1399}},{"id":"MA010120220805076798","name":"다채로움","industry":"가구 소매업","coordinates":[127.405701252467,36.399989191445],"sales":{"202602":1824}},{"id":"MA010120220805127309","name":"아인폴","industry":"경영 컨설팅업","coordinates":[127.390761517818,36.3995523755576],"sales":{"202602":706}},{"id":"MA010120220805154919","name":"미라클스터디카페대전전민센터","industry":"독서실/스터디 카페","coordinates":[127.40373617106,36.3993830570499],"sales":{"202602":166}},{"id":"MA010120220805200831","name":"세븐일레븐","industry":"편의점","coordinates":[127.397201050904,36.401027070211],"sales":{"202602":2629}},{"id":"MA010120220805206265","name":"엄마손김밥","industry":"김밥/만두/분식","coordinates":[127.404318473938,36.3977409633654],"sales":{"202602":434}},{"id":"MA010120220805207525","name":"그레이","industry":"여성 의류 소매업","coordinates":[127.405701252467,36.399989191445],"sales":{"202602":181}},{"id":"MA010120220805210005","name":"블루문","industry":"요리 주점","coordinates":[127.402771471902,36.3982147972047],"sales":{"202602":311}},{"id":"MA010120220805229357","name":"머리카락물들이기","industry":"미용실","coordinates":[127.402948371225,36.4022514274877],"sales":{"202602":696}},{"id":"MA010120220805234002","name":"아누타","industry":"고용 알선업","coordinates":[127.407274484886,36.3917201332791],"sales":{"202602":236}},{"id":"MA010120220805251249","name":"아내의작업실","industry":"꽃집","coordinates":[127.402948371225,36.4022514274877],"sales":{"202602":668}},{"id":"MA010120220805258076","name":"문지제일공인중개사사무소","industry":"부동산 중개/대리업","coordinates":[127.406097842274,36.3947971213558],"sales":{"202602":656}},{"id":"MA010120220805271570","name":"현공인중개사사무소","industry":"부동산 중개/대리업","coordinates":[127.404309474127,36.3981555306671],"sales":{"202602":2573}},{"id":"MA010120220805272737","name":"효니헤어","industry":"미용실","coordinates":[127.405763494646,36.3948072693557],"sales":{"202602":779}},{"id":"MA010120220805303097","name":"미미네일","industry":"네일숍","coordinates":[127.407352217145,36.4002088635208],"sales":{"202602":305}},{"id":"MA010120220805344847","name":"블루이노베이션","industry":"기타 엔지니어링 서비스업","coordinates":[127.407882385683,36.3907357858887],"sales":{"202602":2127}},{"id":"MA010120220805346233","name":"스윗","industry":"여성 의류 소매업","coordinates":[127.405701252467,36.399989191445],"sales":{"202602":228}},{"id":"MA010120220805387065","name":"네일은미미","industry":"네일숍","coordinates":[127.408137648113,36.3947901685283],"sales":{"202602":117}},{"id":"MA010120220805398458","name":"홍룡수제만두","industry":"김밥/만두/분식","coordinates":[127.404308307223,36.3979302428624],"sales":{"202602":1776}},{"id":"MA010120220805417429","name":"여기가거기노래연습장","industry":"노래방","coordinates":[127.402027687851,36.3988120733922],"sales":{"202602":449}},{"id":"MA010120220805495948","name":"대전레전드에프씨","industry":"요가/필라테스 학원","coordinates":[127.402839723104,36.3768748934414],"sales":{"202602":445}},{"id":"MA010120220805509007","name":"황금떡볶이","industry":"김밥/만두/분식","coordinates":[127.402521039732,36.3993691351924],"sales":{"202602":1141}},{"id":"MA010120220805523462","name":"베스트정육점","industry":"정육점","coordinates":[127.405701252467,36.399989191445],"sales":{"202602":7078}},{"id":"MA010120220805538559","name":"미진상사","industry":"슈퍼마켓","coordinates":[127.405494909081,36.3924561339515],"sales":{"202602":1585}},{"id":"MA010120220805542514","name":"보라미강","industry":"시각 디자인업","coordinates":[127.402887872017,36.3991696415981],"sales":{"202602":643}},{"id":"MA010120220805552145","name":"소소행","industry":"예술품 소매업","coordinates":[127.405701252467,36.399989191445],"sales":{"202602":416}},{"id":"MA010120220805571687","name":"수","industry":"피자","coordinates":[127.405701252467,36.399989191445],"sales":{"202602":2044}},{"id":"MA010120220805580536","name":"엑스포동우당약국","industry":"약국","coordinates":[127.404427200316,36.399362695741],"sales":{"202602":2672}},{"id":"MA010120220805639862","name":"로얄티파니","industry":"시계/귀금속 소매업","coordinates":[127.405701252467,36.399989191445],"sales":{"202602":259}},{"id":"MA010120220805693230","name":"일루와","industry":"여성 의류 소매업","coordinates":[127.405701252467,36.399989191445],"sales":{"202602":473}},{"id":"MA010120220805727528","name":"헬스앤케어","industry":"제품 디자인업","coordinates":[127.396762867201,36.4003526515517],"sales":{}},{"id":"MA010120220805739367","name":"사꾸라","industry":"요리 주점","coordinates":[127.40275317672,36.3989898625089],"sales":{"202602":344}},{"id":"MA010120220805741112","name":"제인","industry":"여성 의류 소매업","coordinates":[127.405701252467,36.399989191445],"sales":{"202602":200}},{"id":"MA010120220805745383","name":"코코헤어샵","industry":"미용실","coordinates":[127.401858208616,36.3983710719173],"sales":{"202602":781}},{"id":"MA010120220805752495","name":"앨리스","industry":"여성 의류 소매업","coordinates":[127.405701252467,36.399989191445],"sales":{"202602":479}},{"id":"MA010120220805752542","name":"행복한밥상","industry":"반찬/식료품 소매업","coordinates":[127.405701252467,36.399989191445],"sales":{"202602":504}},{"id":"MA010120220805752826","name":"화이트클럽","industry":"피부 관리실","coordinates":[127.404578776148,36.398497062175],"sales":{"202602":516}},{"id":"MA010120220805752979","name":"굿썸","industry":"건강보조식품 소매업","coordinates":[127.405701252467,36.399989191445],"sales":{"202602":1577}},{"id":"MA010120220805757378","name":"사진이야기","industry":"사진촬영업","coordinates":[127.404570478289,36.399046802093],"sales":{"202602":1616}},{"id":"MA010120220805757840","name":"헤라","industry":"미용실","coordinates":[127.405701252467,36.399989191445],"sales":{"202602":325}},{"id":"MA010120220805758669","name":"스칼렛","industry":"여성 의류 소매업","coordinates":[127.405701252467,36.399989191445],"sales":{"202602":138}},{"id":"MA010120220805758743","name":"보세양말","industry":"기타 의류 소매업","coordinates":[127.405701252467,36.399989191445],"sales":{"202602":734}},{"id":"MA010120220805758837","name":"엄마묵집","industry":"치킨","coordinates":[127.405701252467,36.399989191445],"sales":{"202602":1563}},{"id":"MA010120220805760113","name":"통밀이야기","industry":"빵/도넛","coordinates":[127.397103802497,36.3994413398064],"sales":{"202602":1231}},{"id":"MA010120220805772158","name":"헤어마스터","industry":"미용실","coordinates":[127.402948371225,36.4022514274877],"sales":{"202602":267}},{"id":"MA010120220805778308","name":"럭셔리노래연습장","industry":"노래방","coordinates":[127.40229517086,36.3988021610483],"sales":{"202602":486}},{"id":"MA010120220805778812","name":"엔컴퓨터","industry":"컴퓨터/노트북/프린터 수리업","coordinates":[127.407882385683,36.3907357858887],"sales":{"202602":443}},{"id":"MA010120220805782311","name":"코아김밥","industry":"김밥/만두/분식","coordinates":[127.405701252467,36.399989191445],"sales":{"202602":294}},{"id":"MA010120220805784985","name":"올리브","industry":"여성 의류 소매업","coordinates":[127.405701252467,36.399989191445],"sales":{"202602":111}},{"id":"MA010120220805789399","name":"HS건축설계사무소","industry":"건축 설계 및 관련 서비스업","coordinates":[127.40610065457,36.4039079077674],"sales":{}},{"id":"MA010120220805793832","name":"전민공인중개사사무소","industry":"부동산 중개/대리업","coordinates":[127.404576487476,36.3980554981097],"sales":{"202602":775}},{"id":"MA010120220805795521","name":"미래도에너지","industry":"주유소","coordinates":[127.392027123733,36.400737768628],"sales":{"202602":3575}},{"id":"MA010120220805827404","name":"대한민국마트","industry":"슈퍼마켓","coordinates":[127.402496045233,36.3966837415233],"sales":{"202602":3156}},{"id":"MA010120220805829510","name":"크린월드","industry":"세탁소","coordinates":[127.401397381782,36.3976336645165],"sales":{"202602":183}},{"id":"MA010120220805845222","name":"세종타운공인중개사사무소","industry":"부동산 중개/대리업","coordinates":[127.404242506138,36.4002915227676],"sales":{"202602":408}},{"id":"MA010120220805855230","name":"연잎애","industry":"백반/한정식","coordinates":[127.40295859793,36.3977545708045],"sales":{"202602":2528}},{"id":"MA010120220805863665","name":"한국산업안전보건공단대전세종광역본부","industry":"직원 훈련기관","coordinates":[127.400873545893,36.3867943727058],"sales":{"202602":1748}},{"id":"MA010120220805914551","name":"더스타일","industry":"미용실","coordinates":[127.404576487476,36.3980554981097],"sales":{"202602":334}},{"id":"MA010120220805931347","name":"온유커피","industry":"카페","coordinates":[127.401839453523,36.3968932208732],"sales":{"202602":706}},{"id":"MA010120220805936944","name":"예뻐예뻐","industry":"미용실","coordinates":[127.406422544598,36.3950753788147],"sales":{"202602":425}},{"id":"MA010120220805938369","name":"명륜진사갈비대전","industry":"돼지고기 구이/찜","coordinates":[127.406068096518,36.3933643660726],"sales":{"202602":1430}},{"id":"MA010120220806029134","name":"바다속자연산","industry":"횟집","coordinates":[127.402948371225,36.4022514274877],"sales":{"202602":3885}},{"id":"MA010120220806117673","name":"991랍스터","industry":"횟집","coordinates":[127.407605957802,36.3954318130095],"sales":{"202602":3184}},{"id":"MA010120220806155739","name":"끓일래볶을래","industry":"반찬/식료품 소매업","coordinates":[127.407352217145,36.4002088635208],"sales":{"202602":3030}},{"id":"MA010120220806161257","name":"영칼로리카페","industry":"피자","coordinates":[127.40832935358,36.3952130619466],"sales":{"202602":1104}},{"id":"MA010120220806170138","name":"신는기쁨","industry":"신발 소매업","coordinates":[127.405701252467,36.399989191445],"sales":{"202602":148}},{"id":"MA010120220806170173","name":"수퍼글래스","industry":"자동차 부품 소매업","coordinates":[127.397778418479,36.4005745652168],"sales":{"202602":2393}},{"id":"MA010120220806170640","name":"엑스포피부비만관리","industry":"피부 관리실","coordinates":[127.405701252467,36.399989191445],"sales":{"202602":507}},{"id":"MA010120220806170686","name":"한우곰탕식당","industry":"국/탕/찌개류","coordinates":[127.402769053984,36.3977461984771],"sales":{"202602":696}},{"id":"MA010120220806170687","name":"블루","industry":"여성 의류 소매업","coordinates":[127.405701252467,36.399989191445],"sales":{"202602":455}},{"id":"MA010120220806170800","name":"쟈끄리헤어싸롱","industry":"미용실","coordinates":[127.405701252467,36.399989191445],"sales":{"202602":491}},{"id":"MA010120220806171415","name":"앵초","industry":"여성 의류 소매업","coordinates":[127.405701252467,36.399989191445],"sales":{"202602":108}},{"id":"MA010120220806172436","name":"코아찌개","industry":"백반/한정식","coordinates":[127.405701252467,36.399989191445],"sales":{"202602":6319}},{"id":"MA010120220806172439","name":"조은자동차병원","industry":"자동차 정비소","coordinates":[127.400929767667,36.3977433752115],"sales":{"202602":474}},{"id":"MA010120220806173404","name":"밀밭칼국수","industry":"국수/칼국수","coordinates":[127.403665653123,36.3986803852339],"sales":{"202602":2592}},{"id":"MA010120220806173460","name":"초롱안경콘텍트","industry":"안경렌즈 소매업","coordinates":[127.404569357301,36.3988305258399],"sales":{"202602":2691}},{"id":"MA010120220806173725","name":"마당발","industry":"신발 소매업","coordinates":[127.405701252467,36.399989191445],"sales":{"202602":24}},{"id":"MA010120220806174159","name":"코디라인","industry":"여성 의류 소매업","coordinates":[127.405701252467,36.399989191445],"sales":{"202602":422}},{"id":"MA010120220806174265","name":"납청유기공방","industry":"주방/가정용품 소매업","coordinates":[127.405701252467,36.399989191445],"sales":{"202602":623}},{"id":"MA010120220806174306","name":"삼오떡방앗간","industry":"떡/한과","coordinates":[127.405701252467,36.399989191445],"sales":{"202602":713}},{"id":"MA010120220806174475","name":"본젤라또","industry":"카페","coordinates":[127.405701252467,36.399989191445],"sales":{"202602":2446}},{"id":"MA010120220806174660","name":"혜민온누리약국","industry":"약국","coordinates":[127.404570478289,36.399046802093],"sales":{"202602":4296}},{"id":"MA010120220806174700","name":"그랑프리","industry":"침구류/커튼 소매업","coordinates":[127.405768740695,36.3958165590013],"sales":{"202602":742}},{"id":"MA010120220806174756","name":"마담플러스","industry":"여성 의류 소매업","coordinates":[127.405701252467,36.399989191445],"sales":{"202602":219}},{"id":"MA010120220806175097","name":"쎄송헤어","industry":"미용실","coordinates":[127.402027687851,36.3988120733922],"sales":{"202602":495}},{"id":"MA010120220806175319","name":"남영카서비스","industry":"자동차 정비소","coordinates":[127.396883471174,36.3999557373796],"sales":{"202602":1671}},{"id":"MA010120220806175914","name":"길상","industry":"경양식","coordinates":[127.404301221061,36.3987142821206],"sales":{"202602":4536}},{"id":"MA010120220806176349","name":"이태리장식","industry":"벽지/장판/마루 소매업","coordinates":[127.403244532993,36.3991594262667],"sales":{"202602":215}},{"id":"MA010120220806176437","name":"엘리헤어","industry":"미용실","coordinates":[127.407073882843,36.3960013630129],"sales":{"202602":357}},{"id":"MA010120220806176718","name":"새봄약국","industry":"약국","coordinates":[127.405701252467,36.399989191445],"sales":{"202602":2115}},{"id":"MA010120220806176908","name":"콩깍지","industry":"여성 의류 소매업","coordinates":[127.405701252467,36.399989191445],"sales":{"202602":434}},{"id":"MA010120220806177129","name":"안경나라+유통","industry":"안경렌즈 소매업","coordinates":[127.40250794084,36.3989906892369],"sales":{"202602":1608}},{"id":"MA010120220806177167","name":"푸른식당","industry":"백반/한정식","coordinates":[127.400688328811,36.3984831424912],"sales":{"202602":1506}},{"id":"MA010120220806177587","name":"대성컨설팅공인중개사무소","industry":"부동산 중개/대리업","coordinates":[127.404578168944,36.3983799125282],"sales":{"202602":2223}},{"id":"MA010120220806177595","name":"맘마미아","industry":"기타 의류 소매업","coordinates":[127.405701252467,36.399989191445],"sales":{"202602":698}},{"id":"MA010120220806177598","name":"공인중개사하나컨설팅사무소","industry":"부동산 중개/대리업","coordinates":[127.404317820466,36.3976148021871],"sales":{"202602":626}},{"id":"MA010120220806177999","name":"첨단자동차공업사","industry":"자동차 정비소","coordinates":[127.397405053376,36.4016842432984],"sales":{"202602":228}},{"id":"MA010120220806178379","name":"코아상가공인중개사","industry":"부동산 중개/대리업","coordinates":[127.405701252467,36.399989191445],"sales":{"202602":772}},{"id":"MA010120220806178590","name":"요술램프","industry":"유아용 의류 소매업","coordinates":[127.405701252467,36.399989191445],"sales":{"202602":1565}},{"id":"MA010120220806178683","name":"노은댁갈비김치찌개","industry":"백반/한정식","coordinates":[127.40185602813,36.3979475307248],"sales":{"202602":722}},{"id":"MA010120220806178791","name":"새생명약국","industry":"약국","coordinates":[127.402495817919,36.3988014850324],"sales":{"202602":8110}},{"id":"MA010120220806179895","name":"퍼플켓","industry":"여성 의류 소매업","coordinates":[127.405701252467,36.399989191445],"sales":{"202602":289}},{"id":"MA010120220806180274","name":"엑스포명품세탁","industry":"세탁소","coordinates":[127.407352217145,36.4002088635208],"sales":{"202602":244}},{"id":"MA010120220806180279","name":"안경타임","industry":"안경렌즈 소매업","coordinates":[127.405701252467,36.399989191445],"sales":{"202602":1163}},{"id":"MA010120220806180301","name":"VIP노래연습장","industry":"노래방","coordinates":[127.402495817919,36.3988014850324],"sales":{"202602":749}},{"id":"MA010120220806180443","name":"대한공인중개사사무소","industry":"부동산 중개/대리업","coordinates":[127.404118856034,36.3979398957059],"sales":{"202602":277}},{"id":"MA010120220806180623","name":"여미지","industry":"여성 의류 소매업","coordinates":[127.405701252467,36.399989191445],"sales":{"202602":287}},{"id":"MA010120220806180976","name":"신대륙공인중개사사무소","industry":"부동산 중개/대리업","coordinates":[127.400490364235,36.3990064833564],"sales":{"202602":1027}},{"id":"MA010120220806181207","name":"알뤼르","industry":"여성 의류 소매업","coordinates":[127.405701252467,36.399989191445],"sales":{"202602":182}},{"id":"MA010120220806181382","name":"안마당야채","industry":"채소/과일 소매업","coordinates":[127.405701252467,36.399989191445],"sales":{"202602":10600}},{"id":"MA010120220806181815","name":"이쁜이반찬","industry":"반찬/식료품 소매업","coordinates":[127.405701252467,36.399989191445],"sales":{"202602":976}},{"id":"MA010120220806181950","name":"새전민철물","industry":"철물/공구 소매업","coordinates":[127.403746152866,36.3991577315933],"sales":{"202602":2438}},{"id":"MA010120220806182070","name":"장미잡화","industry":"주방/가정용품 소매업","coordinates":[127.405701252467,36.399989191445],"sales":{"202602":190}},{"id":"MA010120220806182246","name":"예쁜집","industry":"그 외 기타 종합 소매업","coordinates":[127.405701252467,36.399989191445],"sales":{"202602":4696}},{"id":"MA010120220806182266","name":"타임","industry":"여성 의류 소매업","coordinates":[127.405701252467,36.399989191445],"sales":{"202602":129}},{"id":"MA010120220806182528","name":"다원장식","industry":"벽지/장판/마루 소매업","coordinates":[127.403198129123,36.3988081278344],"sales":{"202602":241}},{"id":"MA010120220806183032","name":"샤론미용실","industry":"미용실","coordinates":[127.400490364235,36.3990064833564],"sales":{"202602":784}},{"id":"MA010120220806183093","name":"루트","industry":"여성 의류 소매업","coordinates":[127.405701252467,36.399989191445],"sales":{"202602":213}},{"id":"MA010120220806183330","name":"오토오아시스","industry":"자동차 정비소","coordinates":[127.407756408823,36.3794175351856],"sales":{"202602":5290}},{"id":"MA010120220806183481","name":"우직한서가네한우","industry":"소고기 구이/찜","coordinates":[127.40532190102,36.4042169497604],"sales":{"202602":1351}},{"id":"MA010120220806183530","name":"엑스포코아공인중개사사무소","industry":"부동산 중개/대리업","coordinates":[127.405701252467,36.399989191445],"sales":{"202602":594}},{"id":"MA010120220806184150","name":"김미숙헤어아트존","industry":"미용실","coordinates":[127.402365072682,36.3993876840764],"sales":{"202602":699}},{"id":"MA010120220806184468","name":"페리카나","industry":"치킨","coordinates":[127.403854546675,36.398562594957],"sales":{"202602":674}},{"id":"MA010120220806184589","name":"대감막창","industry":"곱창 전골/구이","coordinates":[127.402964087409,36.398817929376],"sales":{"202602":1118}},{"id":"MA010120220806185075","name":"오렌지스크린골프","industry":"골프 연습장","coordinates":[127.397778418479,36.4005745652168],"sales":{"202602":2921}},{"id":"MA010120220806185305","name":"트레비","industry":"경양식","coordinates":[127.397440832705,36.3999538839288],"sales":{"202602":7222}},{"id":"MA010120220806185596","name":"수자원연수원매점","industry":"슈퍼마켓","coordinates":[127.39418790042,36.4069937634779],"sales":{"202602":3235}},{"id":"MA010120220806186176","name":"큐즈베리","industry":"여성 의류 소매업","coordinates":[127.405701252467,36.399989191445],"sales":{"202602":302}},{"id":"MA010120220806186805","name":"상경슈퍼","industry":"철물/공구 소매업","coordinates":[127.403443472865,36.3966715333139],"sales":{"202602":652}},{"id":"MA010120220806187453","name":"황실","industry":"실/섬유제품 소매업","coordinates":[127.405701252467,36.399989191445],"sales":{"202602":181}},{"id":"MA010120220806188168","name":"유림건축적산사무소","industry":"건축 설계 및 관련 서비스업","coordinates":[127.401413394556,36.3985798361608],"sales":{}},{"id":"MA010120220806188220","name":"엘레강스","industry":"여성 의류 소매업","coordinates":[127.405701252467,36.399989191445],"sales":{"202602":175}},{"id":"MA010120220806188697","name":"앤","industry":"여성 의류 소매업","coordinates":[127.405701252467,36.399989191445],"sales":{"202602":256}},{"id":"MA010120220806188975","name":"향미락전통전골","industry":"국/탕/찌개류","coordinates":[127.394565211095,36.4000355119791],"sales":{"202602":2985}},{"id":"MA010120220806189667","name":"코아우리약국","industry":"약국","coordinates":[127.405701252467,36.399989191445],"sales":{"202602":7017}},{"id":"MA010120220806190129","name":"강산노래연습장","industry":"노래방","coordinates":[127.402508870241,36.3991709194893],"sales":{"202602":710}},{"id":"MA010120220806190166","name":"하랑","industry":"여성 의류 소매업","coordinates":[127.405701252467,36.399989191445],"sales":{"202602":186}},{"id":"MA010120220806190486","name":"헤어끌리오","industry":"미용실","coordinates":[127.403839110395,36.3977335734943],"sales":{"202602":824}},{"id":"MA010120220806190810","name":"에벤에셀","industry":"의류/이불 수선업","coordinates":[127.40229517086,36.3988021610483],"sales":{"202602":193}},{"id":"MA010120220806190885","name":"카페사보르","industry":"카페","coordinates":[127.39832123388,36.3999058925956],"sales":{"202602":1433}},{"id":"MA010120220806191081","name":"프린트하우스","industry":"침구류/커튼 소매업","coordinates":[127.405701252467,36.399989191445],"sales":{"202602":389}},{"id":"MA010120220806191168","name":"화목한우리집","industry":"김밥/만두/분식","coordinates":[127.400487081463,36.3983666657597],"sales":{"202602":749}},{"id":"MA010120220806191185","name":"바라기","industry":"백반/한정식","coordinates":[127.401940274724,36.3991548110449],"sales":{"202602":2183}},{"id":"MA010120220806192522","name":"가원","industry":"백반/한정식","coordinates":[127.39717747212,36.4007748219156],"sales":{"202602":1357}},{"id":"MA010120220806192598","name":"도쿄","industry":"요리 주점","coordinates":[127.401581805402,36.3988135734449],"sales":{"202602":2244}},{"id":"MA010120220806192898","name":"쌍방울","industry":"기타 의류 소매업","coordinates":[127.405701252467,36.399989191445],"sales":{"202602":809}},{"id":"MA010120220806193350","name":"와인플러스원","industry":"반찬/식료품 소매업","coordinates":[127.39746147914,36.4018192305315],"sales":{"202602":1521}},{"id":"MA010120220806193662","name":"엔젤","industry":"액세서리/잡화 소매업","coordinates":[127.405701252467,36.399989191445],"sales":{"202602":201}},{"id":"MA010120220806194153","name":"트라이엄프","industry":"기타 의류 소매업","coordinates":[127.405701252467,36.399989191445],"sales":{"202602":795}},{"id":"MA010120220806194600","name":"국제오토서비스","industry":"자동차 정비소","coordinates":[127.404593176366,36.3969740410688],"sales":{"202602":1724}},{"id":"MA010120220806194606","name":"청개구리","industry":"여성 의류 소매업","coordinates":[127.405701252467,36.399989191445],"sales":{"202602":229}},{"id":"MA010120220806194943","name":"비피","industry":"화장품 소매업","coordinates":[127.405701252467,36.399989191445],"sales":{"202602":801}},{"id":"MA010120220806195284","name":"에이치스타일","industry":"미용실","coordinates":[127.403500869904,36.3991495488521],"sales":{"202602":705}},{"id":"MA010120220806195708","name":"담덕디자인","industry":"기타 엔지니어링 서비스업","coordinates":[127.405800773216,36.393401321308],"sales":{"202602":4355}},{"id":"MA010120220806195917","name":"에르모소","industry":"여성 의류 소매업","coordinates":[127.405701252467,36.399989191445],"sales":{"202602":103}},{"id":"MA010120220806196037","name":"스트릿","industry":"빵/도넛","coordinates":[127.400490364235,36.3990064833564],"sales":{"202602":1264}},{"id":"MA010120220806196049","name":"PLAY&SPORTS","industry":"태권도/무술학원","coordinates":[127.402775737066,36.3968810554469],"sales":{"202602":507}},{"id":"MA010120220806196162","name":"아리랑식당","industry":"요리 주점","coordinates":[127.402887872017,36.3991696415981],"sales":{"202602":772}},{"id":"MA010120220806196654","name":"윤영신헤어센스","industry":"미용실","coordinates":[127.401398910992,36.3979310445382],"sales":{"202602":315}},{"id":"MA010120220806197033","name":"정관장홍삼","industry":"건강보조식품 소매업","coordinates":[127.404585392448,36.3976229077648],"sales":{"202602":1623}},{"id":"MA010120220806197126","name":"예스카써비스","industry":"자동차 정비소","coordinates":[127.403808886342,36.3983554809397],"sales":{"202602":505}},{"id":"MA010120220806197605","name":"한빛떡집","industry":"떡/한과","coordinates":[127.403121961337,36.3991688517115],"sales":{"202602":1400}},{"id":"MA010120220806197820","name":"원촌식당","industry":"백반/한정식","coordinates":[127.407167358841,36.379725942071],"sales":{"202602":2921}},{"id":"MA010120220806197961","name":"맥아트","industry":"예술품 소매업","coordinates":[127.405701252467,36.399989191445],"sales":{"202602":149}},{"id":"MA010120220806198540","name":"디아","industry":"기타 의류 소매업","coordinates":[127.405701252467,36.399989191445],"sales":{"202602":1707}},{"id":"MA010120220806198754","name":"신동양중화요리","industry":"중국집","coordinates":[127.400600263952,36.396527905032],"sales":{"202602":899}},{"id":"MA010120220806199178","name":"신발모아","industry":"신발 소매업","coordinates":[127.405701252467,36.399989191445],"sales":{"202602":129}},{"id":"MA010120220806199280","name":"오리사냥","industry":"닭/오리고기 구이/찜","coordinates":[127.396470977834,36.3999480957408],"sales":{"202602":2090}},{"id":"MA010120220806199376","name":"오렌지","industry":"기타 의류 소매업","coordinates":[127.405701252467,36.399989191445],"sales":{"202602":421}},{"id":"MA010120220806199479","name":"영일카서비스","industry":"자동차 정비소","coordinates":[127.404291746175,36.3968849450689],"sales":{"202602":1764}},{"id":"MA010120220806200017","name":"엠더블유","industry":"시계/귀금속 소매업","coordinates":[127.405701252467,36.399989191445],"sales":{"202602":560}},{"id":"MA010120220806200631","name":"뽀샤시","industry":"사진촬영업","coordinates":[127.405701252467,36.399989191445],"sales":{"202602":1586}},{"id":"MA010120220806200640","name":"허브앤뷰티샵#엑스포","industry":"화장품 소매업","coordinates":[127.405701252467,36.399989191445],"sales":{"202602":564}},{"id":"MA010120220806201261","name":"데코","industry":"여성 의류 소매업","coordinates":[127.405701252467,36.399989191445],"sales":{"202602":161}},{"id":"MA010120220806201279","name":"아하노래연습장","industry":"노래방","coordinates":[127.401395224861,36.3993819358342],"sales":{"202602":599}},{"id":"MA010120220806201416","name":"리토헤어","industry":"미용실","coordinates":[127.40412529449,36.3991834843084],"sales":{"202602":327}},{"id":"MA010120220806201452","name":"후지우동식당","industry":"일식 면 요리","coordinates":[127.405701252467,36.399989191445],"sales":{"202602":1126}},{"id":"MA010120220806201798","name":"씨스페이스대전","industry":"편의점","coordinates":[127.402521039732,36.3993691351924],"sales":{"202602":3998}},{"id":"MA010120220806201807","name":"해돋이횟집","industry":"횟집","coordinates":[127.403824094093,36.3969856555421],"sales":{"202602":1573}},{"id":"MA010120220806202109","name":"해원횟집","industry":"횟집","coordinates":[127.397103802497,36.3994413398064],"sales":{"202602":1398}},{"id":"MA010120220806202432","name":"울엄마양평해장국","industry":"국/탕/찌개류","coordinates":[127.401116222109,36.3993197915028],"sales":{"202602":978}},{"id":"MA010120220806202689","name":"버지니아","industry":"가구 소매업","coordinates":[127.405701252467,36.399989191445],"sales":{"202602":1741}},{"id":"MA010120220806202835","name":"이준하헤어프린스","industry":"미용실","coordinates":[127.404318473938,36.3977409633654],"sales":{"202602":1300}},{"id":"MA010120220806202946","name":"비비큐치킨","industry":"치킨","coordinates":[127.404124034761,36.3989401735153],"sales":{"202602":537}},{"id":"MA010120220806203033","name":"지정환임실피자","industry":"피자","coordinates":[127.40295859793,36.3977545708045],"sales":{"202602":2981}},{"id":"MA010120220806203263","name":"소나무풍경","industry":"가구 소매업","coordinates":[127.405701252467,36.399989191445],"sales":{"202602":1989}},{"id":"MA010120220806203529","name":"지엔미헤어클럽","industry":"미용실","coordinates":[127.404242506138,36.4002915227676],"sales":{"202602":268}},{"id":"MA010120220806203691","name":"아로마필","industry":"피부 관리실","coordinates":[127.404427200316,36.399362695741],"sales":{"202602":343}},{"id":"MA010120220806203743","name":"고정아헤어","industry":"미용실","coordinates":[127.406493928411,36.3959402565265],"sales":{"202602":528}},{"id":"MA010120220806203807","name":"필립휘트니스","industry":"헬스장","coordinates":[127.405701252467,36.399989191445],"sales":{"202602":693}},{"id":"MA010120220806204079","name":"삼성푸른공인중개사사무소","industry":"부동산 중개/대리업","coordinates":[127.397103802497,36.3994413398064],"sales":{"202602":2042}},{"id":"MA010120220806205075","name":"그젤","industry":"가구 소매업","coordinates":[127.405701252467,36.399989191445],"sales":{"202602":1171}},{"id":"MA010120220806205499","name":"리즈키친","industry":"반찬/식료품 소매업","coordinates":[127.403867931764,36.3989951098193],"sales":{"202602":1519}},{"id":"MA010120220806205805","name":"전민세종공인중개사사무소","industry":"부동산 중개/대리업","coordinates":[127.402290712237,36.3979370557108],"sales":{"202602":774}},{"id":"MA010120220806205879","name":"실루엣","industry":"여성 의류 소매업","coordinates":[127.405701252467,36.399989191445],"sales":{"202602":183}},{"id":"MA010120220806206312","name":"풍성한식탁","industry":"반찬/식료품 소매업","coordinates":[127.405701252467,36.399989191445],"sales":{"202602":1118}},{"id":"MA010120220806206327","name":"포인트","industry":"여성 의류 소매업","coordinates":[127.405701252467,36.399989191445],"sales":{"202602":411}},{"id":"MA010120220806206347","name":"신화이동통신","industry":"핸드폰 소매업","coordinates":[127.405701252467,36.399989191445],"sales":{"202602":223}},{"id":"MA010120220806207068","name":"스타","industry":"여성 의류 소매업","coordinates":[127.405701252467,36.399989191445],"sales":{"202602":385}},{"id":"MA010120220806207069","name":"퍼스트서적오피스","industry":"문구/회화용품 소매업","coordinates":[127.407073882843,36.3960013630129],"sales":{"202602":1161}},{"id":"MA010120220806207144","name":"화장품둘리","industry":"화장품 소매업","coordinates":[127.405701252467,36.399989191445],"sales":{"202602":1569}},{"id":"MA010120220806207807","name":"좋은사람들","industry":"기타 의류 소매업","coordinates":[127.405701252467,36.399989191445],"sales":{"202602":1211}},{"id":"MA010120220806207948","name":"성실세차","industry":"자동차 세차장","coordinates":[127.393362080515,36.4001926790539],"sales":{"202602":117}},{"id":"MA010120220806208328","name":"전민떡방앗간","industry":"떡/한과","coordinates":[127.402049332141,36.398685837155],"sales":{"202602":421}},{"id":"MA010120220806208471","name":"현대카원스톱서비스","industry":"자동차 정비소","coordinates":[127.393741133133,36.4002004416785],"sales":{"202602":410}},{"id":"MA010120220806208543","name":"스마일통신","industry":"핸드폰 소매업","coordinates":[127.405701252467,36.399989191445],"sales":{"202602":610}},{"id":"MA010120220806209384","name":"꿈꾸는돈우","industry":"돼지고기 구이/찜","coordinates":[127.404108828773,36.3981562097196],"sales":{"202602":2112}},{"id":"MA010120220806210351","name":"시크릿","industry":"기타 의류 소매업","coordinates":[127.405701252467,36.399989191445],"sales":{"202602":569}},{"id":"MA010120220806210377","name":"모니카","industry":"여성 의류 소매업","coordinates":[127.405701252467,36.399989191445],"sales":{"202602":283}},{"id":"MA010120220806210421","name":"꾸러기스넥","industry":"그 외 기타 간이 음식점","coordinates":[127.405701252467,36.399989191445],"sales":{"202602":1395}},{"id":"MA010120220806210512","name":"리빙트리","industry":"가구 소매업","coordinates":[127.405701252467,36.399989191445],"sales":{"202602":2840}},{"id":"MA010120220806210637","name":"나무향","industry":"카페","coordinates":[127.403825725749,36.3973010585351],"sales":{"202602":1551}},{"id":"MA010120220806210969","name":"치어스","industry":"생맥주 전문","coordinates":[127.402494052145,36.3984590475264],"sales":{"202602":1182}},{"id":"MA010120220806211544","name":"피자마루","industry":"피자","coordinates":[127.403045094872,36.399394402851],"sales":{"202602":1638}},{"id":"MA010120220806211620","name":"우창물산","industry":"슈퍼마켓","coordinates":[127.399297332159,36.3945947577956],"sales":{"202602":4307}},{"id":"MA010120220806212874","name":"그린셀러드바","industry":"반찬/식료품 소매업","coordinates":[127.405701252467,36.399989191445],"sales":{"202602":582}},{"id":"MA010120220806213011","name":"코스모뷰티샵","industry":"화장품 소매업","coordinates":[127.404118856034,36.3979398957059],"sales":{"202602":588}},{"id":"MA010120220806213115","name":"이츠","industry":"여성 의류 소매업","coordinates":[127.405701252467,36.399989191445],"sales":{"202602":72}},{"id":"MA010120220806214053","name":"로망스","industry":"가구 소매업","coordinates":[127.405701252467,36.399989191445],"sales":{"202602":2922}},{"id":"MA010120220806214150","name":"소이공방","industry":"교육컨설팅업","coordinates":[127.401116222109,36.3993197915028],"sales":{"202602":686}},{"id":"MA010120220806214638","name":"만초","industry":"김밥/만두/분식","coordinates":[127.402783362884,36.3983589438294],"sales":{"202602":1930}},{"id":"MA010120220806214821","name":"오가네대구왕뽈떼기","industry":"백반/한정식","coordinates":[127.402492983401,36.3982517827106],"sales":{"202602":1051}},{"id":"MA010120220806214915","name":"꼬꾸마시","industry":"요리 주점","coordinates":[127.402027687851,36.3988120733922],"sales":{"202602":4157}},{"id":"MA010120220806215213","name":"본죽엑스포","industry":"백반/한정식","coordinates":[127.40275317672,36.3989898625089],"sales":{"202602":2144}},{"id":"MA010120220806215619","name":"국수사랑","industry":"국수/칼국수","coordinates":[127.405701252467,36.399989191445],"sales":{"202602":1078}},{"id":"MA010120220806215695","name":"지에스25전민","industry":"편의점","coordinates":[127.40247923438,36.3977471754752],"sales":{"202602":954}},{"id":"MA010120220806215944","name":"코디","industry":"여성 의류 소매업","coordinates":[127.405701252467,36.399989191445],"sales":{"202602":215}},{"id":"MA010120220806216049","name":"황보석","industry":"시계/귀금속 소매업","coordinates":[127.405701252467,36.399989191445],"sales":{"202602":237}},{"id":"MA010120220806216616","name":"베이커리별","industry":"빵/도넛","coordinates":[127.402950763311,36.4048738131574],"sales":{"202602":1328}},{"id":"MA010120220806216623","name":"슬로우브레드","industry":"빵/도넛","coordinates":[127.401952628394,36.3993890728667],"sales":{"202602":1514}},{"id":"MA010120220806216699","name":"고민사진관","industry":"사진촬영업","coordinates":[127.404592615882,36.396865902906],"sales":{"202602":1232}},{"id":"MA010120220806217126","name":"그레이스켈리","industry":"미용실","coordinates":[127.40275317672,36.3989898625089],"sales":{"202602":617}},{"id":"MA010120220806217170","name":"바나나","industry":"기타 의류 소매업","coordinates":[127.405701252467,36.399989191445],"sales":{"202602":473}},{"id":"MA010120220806217195","name":"잉스","industry":"여성 의류 소매업","coordinates":[127.405701252467,36.399989191445],"sales":{"202602":228}},{"id":"MA010120220806217216","name":"숲속공간식당","industry":"그 외 기타 간이 음식점","coordinates":[127.391301816508,36.3894755486296],"sales":{"202602":723}},{"id":"MA010120220806217217","name":"불타는조개돌아온돼지","industry":"횟집","coordinates":[127.403852401965,36.3981480653948],"sales":{"202602":1542}},{"id":"MA010120220806217228","name":"하이디","industry":"여성 의류 소매업","coordinates":[127.405701252467,36.399989191445],"sales":{"202602":502}},{"id":"MA010120220806217948","name":"전민동","industry":"자전거 소매업","coordinates":[127.405701252467,36.399989191445],"sales":{"202602":1771}},{"id":"MA010120220806217953","name":"엑스포유리샷시","industry":"주방/가정용품 소매업","coordinates":[127.400857610669,36.3967162867397],"sales":{"202602":100}},{"id":"MA010120220806218023","name":"에이스당구","industry":"당구장","coordinates":[127.400667746279,36.3988166433491],"sales":{"202602":251}},{"id":"MA010120220806218025","name":"설아인테리어","industry":"벽지/장판/마루 소매업","coordinates":[127.400493882295,36.3975195458243],"sales":{"202602":129}},{"id":"MA010120220806218028","name":"아리고개식당","industry":"백반/한정식","coordinates":[127.40113283312,36.4068895331598],"sales":{"202602":1290}},{"id":"MA010120220806218041","name":"성원상사","industry":"전기용품/조명장치 소매업","coordinates":[127.405701252467,36.399989191445],"sales":{"202602":99}},{"id":"MA010120220806218048","name":"함지박","industry":"돼지고기 구이/찜","coordinates":[127.402478072776,36.3975218876042],"sales":{"202602":736}},{"id":"MA010120220806218059","name":"김대영머리마당","industry":"미용실","coordinates":[127.407352217145,36.4002088635208],"sales":{"202602":307}},{"id":"MA010120220806218096","name":"한빛서점，문구","industry":"서점","coordinates":[127.407352217145,36.4002088635208],"sales":{"202602":747}},{"id":"MA010120220806218107","name":"보금자리","industry":"침구류/커튼 소매업","coordinates":[127.40280630792,36.3984850298288],"sales":{"202602":313}},{"id":"MA010120220806218134","name":"동부카쎈타","industry":"자동차 정비소","coordinates":[127.397910210813,36.4001866244411],"sales":{"202602":1634}},{"id":"MA010120220806218154","name":"빅토리아","industry":"가구 소매업","coordinates":[127.405701252467,36.399989191445],"sales":{"202602":1476}},{"id":"MA010120220806218158","name":"명성문화사","industry":"복사업","coordinates":[127.400483336455,36.3976367329243],"sales":{"202602":934}},{"id":"MA010120220806218170","name":"꿈돌이슈퍼","industry":"슈퍼마켓","coordinates":[127.407352217145,36.4002088635208],"sales":{"202602":3795}},{"id":"MA010120220806218193","name":"성실약국","industry":"약국","coordinates":[127.401105815912,36.399464013159],"sales":{"202602":1868}},{"id":"MA010120220806218223","name":"모자나라","industry":"액세서리/잡화 소매업","coordinates":[127.405701252467,36.399989191445],"sales":{"202602":187}},{"id":"MA010120220806218246","name":"공주칼국수","industry":"국수/칼국수","coordinates":[127.403746152866,36.3991577315933],"sales":{"202602":1456}},{"id":"MA010120220806218353","name":"오복손칼국수","industry":"국수/칼국수","coordinates":[127.405701252467,36.399989191445],"sales":{"202602":1975}},{"id":"MA010120220806219415","name":"황보석J&H","industry":"시계/귀금속 소매업","coordinates":[127.405701252467,36.399989191445],"sales":{"202602":487}},{"id":"MA010120220806219416","name":"한국카-25시","industry":"자동차 정비소","coordinates":[127.40611637842,36.3812164494948],"sales":{"202602":1544}},{"id":"MA010120220806219417","name":"엑스포약국","industry":"약국","coordinates":[127.405701252467,36.399989191445],"sales":{"202602":2097}},{"id":"MA010120220806219428","name":"세모시","industry":"돼지고기 구이/찜","coordinates":[127.396007914948,36.4009589389933],"sales":{"202602":613}},{"id":"MA010120220806219431","name":"엑스포코아안경원","industry":"안경렌즈 소매업","coordinates":[127.405701252467,36.399989191445],"sales":{"202602":1247}},{"id":"MA010120220806219438","name":"헌트인너웨어대전","industry":"기타 의류 소매업","coordinates":[127.405701252467,36.399989191445],"sales":{"202602":1045}},{"id":"MA010120220806219570","name":"투어센터","industry":"여행사","coordinates":[127.405701252467,36.399989191445],"sales":{"202602":2513}},{"id":"MA010120220806219731","name":"스윗세라믹","industry":"예술품 소매업","coordinates":[127.403842840174,36.3984544945049],"sales":{"202602":195}},{"id":"MA010120220806220092","name":"커피디자인","industry":"카페","coordinates":[127.401370222747,36.3966875301771],"sales":{"202602":879}},{"id":"MA010120220806220317","name":"제이골프","industry":"운동용품 소매업","coordinates":[127.407788006897,36.3790659711302],"sales":{"202602":1770}},{"id":"MA010120220806220487","name":"장수촌식당","industry":"백반/한정식","coordinates":[127.40158845526,36.397939419038],"sales":{"202602":975}},{"id":"MA010120220806221000","name":"코코스","industry":"여성 의류 소매업","coordinates":[127.405701252467,36.399989191445],"sales":{"202602":135}},{"id":"MA010120220806221340","name":"고아라스킨케어","industry":"피부 관리실","coordinates":[127.408986952086,36.3952018003097],"sales":{"202602":281}},{"id":"MA010120220806221467","name":"눈섭공주","industry":"여성 의류 소매업","coordinates":[127.405701252467,36.399989191445],"sales":{"202602":229}},{"id":"MA010120220806221470","name":"백프로스시베이","industry":"일식 회/초밥","coordinates":[127.402766323301,36.399377319942],"sales":{"202602":2189}},{"id":"MA010120220806221851","name":"미랑","industry":"가방 소매업","coordinates":[127.405701252467,36.399989191445],"sales":{"202602":976}},{"id":"MA010120220806222029","name":"아이샤","industry":"여성 의류 소매업","coordinates":[127.405701252467,36.399989191445],"sales":{"202602":260}},{"id":"MA010120220806222171","name":"엑스포마취통증의학과","industry":"기타 의원","coordinates":[127.405701252467,36.399989191445],"sales":{"202602":5885}},{"id":"MA010120220806222178","name":"조은동물병원","industry":"동물병원","coordinates":[127.40457261086,36.3973075425772],"sales":{"202602":4449}},{"id":"MA010120220806222391","name":"위즈","industry":"여성 의류 소매업","coordinates":[127.405701252467,36.399989191445],"sales":{"202602":468}},{"id":"MA010120220806222587","name":"뚜레쥬르","industry":"빵/도넛","coordinates":[127.405701252467,36.399989191445],"sales":{"202602":1023}},{"id":"MA010120220806223021","name":"컨츄리덕","industry":"반찬/식료품 소매업","coordinates":[127.405701252467,36.399989191445],"sales":{"202602":3244}},{"id":"MA010120220806224167","name":"대세북","industry":"서점","coordinates":[127.396556593482,36.4080222622607],"sales":{"202602":2920}},{"id":"MA010120220806224482","name":"즉석손만두","industry":"김밥/만두/분식","coordinates":[127.405701252467,36.399989191445],"sales":{"202602":235}},{"id":"MA010120220806224623","name":"라이프하임","industry":"주방/가정용품 소매업","coordinates":[127.404310641044,36.3983808184633],"sales":{"202602":195}},{"id":"MA010120220806224643","name":"우리메밀촌","industry":"백반/한정식","coordinates":[127.394008531143,36.4001725248197],"sales":{"202602":5143}},{"id":"MA010120220806224645","name":"가온요가필라테스","industry":"요가/필라테스 학원","coordinates":[127.403216047462,36.3979609703585],"sales":{"202602":498}},{"id":"MA010120220806224649","name":"아라비카에스프레소","industry":"카페","coordinates":[127.400938516004,36.3994465515643],"sales":{"202602":159}},{"id":"MA010120220806224685","name":"엑스포아리따움","industry":"화장품 소매업","coordinates":[127.405701252467,36.399989191445],"sales":{"202602":572}},{"id":"MA010120220806224800","name":"옛곰국시","industry":"국수/칼국수","coordinates":[127.397784021663,36.4016739700145],"sales":{"202602":1114}},{"id":"MA010120220806224906","name":"원조의령소바유성구점","industry":"일식 면 요리","coordinates":[127.403394817596,36.3980414717282],"sales":{"202602":2777}},{"id":"MA010120220806225191","name":"하남돼지집","industry":"돼지고기 구이/찜","coordinates":[127.403398729602,36.3987984387893],"sales":{"202602":963}},{"id":"MA010120220806225227","name":"드림","industry":"카페","coordinates":[127.390761517818,36.3995523755576],"sales":{"202602":458}},{"id":"MA010120220806225287","name":"02헤어","industry":"미용실","coordinates":[127.404574852741,36.3977400951858],"sales":{"202602":266}},{"id":"MA010120220806225462","name":"예랑","industry":"여성 의류 소매업","coordinates":[127.405701252467,36.399989191445],"sales":{"202602":116}},{"id":"MA010120220806225657","name":"지비코멕스","industry":"경영 컨설팅업","coordinates":[127.396907873594,36.4003701930802],"sales":{"202602":1102}},{"id":"MA010120220806225883","name":"레시피","industry":"여성 의류 소매업","coordinates":[127.405701252467,36.399989191445],"sales":{"202602":493}},{"id":"MA010120220806226755","name":"돈부리강","industry":"일식 카레/돈가스/덮밥","coordinates":[127.405701252467,36.399989191445],"sales":{"202602":1297}},{"id":"MA010120220806227407","name":"엘르","industry":"액세서리/잡화 소매업","coordinates":[127.405701252467,36.399989191445],"sales":{"202602":129}},{"id":"MA010120220806227547","name":"얀하우스","industry":"실/섬유제품 소매업","coordinates":[127.404110601612,36.3984986471748],"sales":{"202602":272}},{"id":"MA010120220806227645","name":"스시가와다","industry":"일식 회/초밥","coordinates":[127.405800773216,36.393401321308],"sales":{"202602":2505}},{"id":"MA010120220806227752","name":"고마맛김","industry":"반찬/식료품 소매업","coordinates":[127.405701252467,36.399989191445],"sales":{"202602":185}},{"id":"MA010120220806227854","name":"어반","industry":"여성 의류 소매업","coordinates":[127.405701252467,36.399989191445],"sales":{"202602":336}},{"id":"MA010120220806227875","name":"죽사랑","industry":"백반/한정식","coordinates":[127.405701252467,36.399989191445],"sales":{"202602":1219}},{"id":"MA010120220806228161","name":"안젤라","industry":"가방 소매업","coordinates":[127.405701252467,36.399989191445],"sales":{"202602":127}},{"id":"MA010120220806228731","name":"바비로렌","industry":"여성 의류 소매업","coordinates":[127.405701252467,36.399989191445],"sales":{"202602":331}},{"id":"MA010120220806229263","name":"빅마마","industry":"기타 의류 소매업","coordinates":[127.405701252467,36.399989191445],"sales":{"202602":2122}},{"id":"MA010120220806229874","name":"뉴태양공인중개사사무소","industry":"부동산 중개/대리업","coordinates":[127.404242506138,36.4002915227676],"sales":{"202602":1536}},{"id":"MA010120220806230051","name":"플레이버거","industry":"버거","coordinates":[127.404591728454,36.3966946841441],"sales":{"202602":4454}},{"id":"MA010120220806230411","name":"던킨도넛","industry":"빵/도넛","coordinates":[127.404104026669,36.3993818129746],"sales":{"202602":905}},{"id":"MA010120220806230974","name":"도도","industry":"여성 의류 소매업","coordinates":[127.405701252467,36.399989191445],"sales":{"202602":274}},{"id":"MA010120220806231211","name":"대성주유소","industry":"주유소","coordinates":[127.407756408823,36.3794175351856],"sales":{"202602":11635}},{"id":"MA010120220806231258","name":"디디스포츠","industry":"그 외 기타 교육기관","coordinates":[127.395086817359,36.4039808978858],"sales":{"202602":2152}},{"id":"MA010120220806231409","name":"보카보카","industry":"카페","coordinates":[127.40296120307,36.3982592155741],"sales":{"202602":441}},{"id":"MA010120220806231721","name":"비엔시","industry":"슈퍼마켓","coordinates":[127.405701252467,36.399989191445],"sales":{"202602":2385}},{"id":"MA010120220806231876","name":"메르시","industry":"미용실","coordinates":[127.404602034472,36.3965324391316],"sales":{"202602":489}},{"id":"MA010120220806231910","name":"박하향헤어","industry":"미용실","coordinates":[127.403121961337,36.3991688517115],"sales":{"202602":929}},{"id":"MA010120220806232367","name":"미시노래연습장","industry":"노래방","coordinates":[127.403655158509,36.3988065840743],"sales":{"202602":359}},{"id":"MA010120220806232938","name":"소라","industry":"여성 의류 소매업","coordinates":[127.405701252467,36.399989191445],"sales":{"202602":660}},{"id":"MA010120220806232940","name":"라띠엔느","industry":"기타 의류 소매업","coordinates":[127.395846869995,36.3999772009173],"sales":{"202602":835}},{"id":"MA010120220806232945","name":"와요레스토랑","industry":"백반/한정식","coordinates":[127.402969093545,36.397628371997],"sales":{"202602":2649}},{"id":"MA010120220806232972","name":"다누기","industry":"요리 주점","coordinates":[127.403622649303,36.3989869273248],"sales":{"202602":1572}},{"id":"MA010120220806233237","name":"이화수원촌","industry":"백반/한정식","coordinates":[127.405517296099,36.3795963793505],"sales":{"202602":2277}},{"id":"MA010120220806234002","name":"줄리엣","industry":"여성 의류 소매업","coordinates":[127.405701252467,36.399989191445],"sales":{"202602":309}},{"id":"MA010120220806234063","name":"빅토리안","industry":"액세서리/잡화 소매업","coordinates":[127.404584318184,36.3974156429733],"sales":{"202602":454}},{"id":"MA010120220806234870","name":"문지효성해링턴공인중개사사무소","industry":"부동산 중개/대리업","coordinates":[127.404423733448,36.3965420546787],"sales":{"202602":739}},{"id":"MA010120220806235091","name":"아저씨","industry":"돼지고기 구이/찜","coordinates":[127.403655158509,36.3988065840743],"sales":{"202602":6994}},{"id":"MA010120220806235218","name":"메르시","industry":"미용실","coordinates":[127.404602034472,36.3965324391316],"sales":{"202602":354}},{"id":"MA010120220806235514","name":"젠느","industry":"여성 의류 소매업","coordinates":[127.405701252467,36.399989191445],"sales":{"202602":71}},{"id":"MA010120220806235540","name":"지호","industry":"여성 의류 소매업","coordinates":[127.405701252467,36.399989191445],"sales":{"202602":207}},{"id":"MA010120220806235664","name":"피오나","industry":"여성 의류 소매업","coordinates":[127.405701252467,36.399989191445],"sales":{"202602":158}},{"id":"MA010120220806236010","name":"녹색지대","industry":"카페","coordinates":[127.405701252467,36.399989191445],"sales":{"202602":995}},{"id":"MA010120220806236397","name":"체리","industry":"여성 의류 소매업","coordinates":[127.405701252467,36.399989191445],"sales":{"202602":229}},{"id":"MA010120220806247415","name":"중원에이치알컨설팅","industry":"임시/일용 인력 공급업","coordinates":[127.407882385683,36.3907357858887],"sales":{"202602":1623}},{"id":"MA010120220806249008","name":"아미투어주","industry":"여행사","coordinates":[127.405701252467,36.399989191445],"sales":{"202602":2196}},{"id":"MA010120220806249094","name":"디앤비투어","industry":"여행사","coordinates":[127.405701252467,36.399989191445],"sales":{"202602":4164}},{"id":"MA010120220806249676","name":"과학기술인공제회부설대덕복지센터","industry":"종합 스포츠시설","coordinates":[127.395086817359,36.4039808978858],"sales":{"202602":3842}},{"id":"MA010120220806250829","name":"대전소년원대전청소년비행예방센터","industry":"기타 오락관련 서비스업","coordinates":[127.399859791873,36.3781825900848],"sales":{"202602":9672}},{"id":"MA010120220806250966","name":"아워홈엘지에너지솔루션기술원","industry":"구내식당","coordinates":[127.395335172874,36.3869840532226],"sales":{"202602":2107}},{"id":"MA010120220806251093","name":"롯데쇼핑롯데슈퍼주","industry":"슈퍼마켓","coordinates":[127.405701252467,36.399989191445],"sales":{"202602":1868}},{"id":"MA010120220806251121","name":"앤플럭스주","industry":"기타 엔지니어링 서비스업","coordinates":[127.407882385683,36.3907357858887],"sales":{"202602":5744}},{"id":"MA010120220806251324","name":"주)세븐대전전민점주","industry":"편의점","coordinates":[127.402763347321,36.3988005831534],"sales":{"202602":5100}},{"id":"MA010120220806255534","name":"네스트","industry":"기타 엔지니어링 서비스업","coordinates":[127.401404728812,36.3968946826937],"sales":{"202602":939}},{"id":"MA010120220806255709","name":"에스브이에스에이주","industry":"자동차 부품 소매업","coordinates":[127.399297332159,36.3945947577956],"sales":{"202602":1385}},{"id":"MA010120220806283502","name":"오닉스","industry":"시계/귀금속 소매업","coordinates":[127.405701252467,36.399989191445],"sales":{"202602":613}},{"id":"MA010120220806320904","name":"엑스포MTB","industry":"자전거 소매업","coordinates":[127.40432789377,36.3974074996535],"sales":{"202602":523}},{"id":"MA010120220806339965","name":"아리음","industry":"카페","coordinates":[127.40610210818,36.3956171691733],"sales":{"202602":920}},{"id":"MA010120220806349500","name":"101농수산물","industry":"채소/과일 소매업","coordinates":[127.400925285905,36.3990410708493],"sales":{"202602":2278}},{"id":"MA010120220806349837","name":"무드라요가","industry":"요가/필라테스 학원","coordinates":[127.403746152866,36.3991577315933],"sales":{"202602":333}},{"id":"MA010120220806349904","name":"리아스테이블","industry":"주방/가정용품 소매업","coordinates":[127.405701252467,36.399989191445],"sales":{"202602":223}},{"id":"MA010120220806350115","name":"동방떡엣날꿀빵","industry":"떡/한과","coordinates":[127.405701252467,36.399989191445],"sales":{"202602":1451}},{"id":"MA010120220806350195","name":"곱창들의수다","industry":"곱창 전골/구이","coordinates":[127.403121077061,36.3989976329848],"sales":{"202602":4218}},{"id":"MA010120220806350611","name":"맛뜨네집","industry":"김밥/만두/분식","coordinates":[127.407352217145,36.4002088635208],"sales":{"202602":596}},{"id":"MA010120220806350682","name":"나모","industry":"여성 의류 소매업","coordinates":[127.405701252467,36.399989191445],"sales":{"202602":446}},{"id":"MA010120220806350886","name":"리오","industry":"여성 의류 소매업","coordinates":[127.405701252467,36.399989191445],"sales":{"202602":225}},{"id":"MA010120220806350967","name":"서민대패","industry":"돼지고기 구이/찜","coordinates":[127.403216047462,36.3979609703585],"sales":{"202602":493}},{"id":"MA010120220806350979","name":"이니스프리","industry":"화장품 소매업","coordinates":[127.405701252467,36.399989191445],"sales":{"202602":371}},{"id":"MA010120220806351579","name":"교촌치킨","industry":"치킨","coordinates":[127.406767992835,36.395056179489],"sales":{"202602":1024}},{"id":"MA010120220806351756","name":"수아의방","industry":"주방/가정용품 소매업","coordinates":[127.405701252467,36.399989191445],"sales":{"202602":540}},{"id":"MA010120220806351927","name":"올레노래연습장","industry":"노래방","coordinates":[127.402763347321,36.3988005831534],"sales":{"202602":870}},{"id":"MA010120220806352049","name":"세덴","industry":"자동차 정비소","coordinates":[127.405212659746,36.3788764772316],"sales":{"202602":941}},{"id":"MA010120220806352431","name":"스마트풋살장매점","industry":"슈퍼마켓","coordinates":[127.402839723104,36.3768748934414],"sales":{"202602":3076}},{"id":"MA010120220806352591","name":"다래김밥","industry":"김밥/만두/분식","coordinates":[127.405701252467,36.399989191445],"sales":{"202602":1310}},{"id":"MA010120220806352764","name":"풍경","industry":"가구 소매업","coordinates":[127.405701252467,36.399989191445],"sales":{"202602":1246}},{"id":"MA010120220806356667","name":"유성한우","industry":"소고기 구이/찜","coordinates":[127.406004921137,36.39407650325],"sales":{"202602":1828}},{"id":"MA010120220806361812","name":"가온트래블","industry":"여행사","coordinates":[127.404242506138,36.4002915227676],"sales":{"202602":2892}},{"id":"MA010120220806361965","name":"코아시스","industry":"기타 엔지니어링 서비스업","coordinates":[127.407172228589,36.3956225375364],"sales":{"202602":1947}},{"id":"MA010120220806382117","name":"홀리퀼트","industry":"침구류/커튼 소매업","coordinates":[127.405701252467,36.399989191445],"sales":{"202602":752}},{"id":"MA010120220806385249","name":"지에스25","industry":"편의점","coordinates":[127.407554361725,36.3940892496454],"sales":{"202602":3788}},{"id":"MA010120220806394126","name":"합기도천지관","industry":"기타 예술/스포츠 교육기관","coordinates":[127.403216047462,36.3979609703585],"sales":{"202602":310}},{"id":"MA010120220806408531","name":"먹태집","industry":"생맥주 전문","coordinates":[127.402964087409,36.398817929376],"sales":{"202602":1207}},{"id":"MA010120220806412104","name":"힐링하우스","industry":"기타 기술/직업 훈련학원","coordinates":[127.404124034761,36.3989401735153],"sales":{"202602":445}},{"id":"MA010120220806428656","name":"리쯔","industry":"여성 의류 소매업","coordinates":[127.405701252467,36.399989191445],"sales":{"202602":337}},{"id":"MA010120220806453848","name":"에스앤케이벤처","industry":"기타 엔지니어링 서비스업","coordinates":[127.389168789109,36.3931142264699],"sales":{"202602":2312}},{"id":"MA010120220806470359","name":"만물철물","industry":"철물/공구 소매업","coordinates":[127.403443472865,36.3966715333139],"sales":{"202602":864}},{"id":"MA010120220806487025","name":"빽다방대전","industry":"카페","coordinates":[127.406430735429,36.3945076154569],"sales":{"202602":1208}},{"id":"MA010120220806499108","name":"육우촌","industry":"정육점","coordinates":[127.402960691341,36.3981600889263],"sales":{"202602":1282}},{"id":"MA010120220806515548","name":"메르시","industry":"여성 의류 소매업","coordinates":[127.405701252467,36.399989191445],"sales":{"202602":278}},{"id":"MA010120220806522890","name":"에벤에셀공방","industry":"실/섬유제품 소매업","coordinates":[127.408986952086,36.3952018003097],"sales":{"202602":135}},{"id":"MA010120220806526539","name":"르헤브","industry":"여성 의류 소매업","coordinates":[127.405701252467,36.399989191445],"sales":{"202602":150}},{"id":"MA010120220806556736","name":"보니따뷰티헤어","industry":"미용실","coordinates":[127.401395224861,36.3993819358342],"sales":{"202602":348}},{"id":"MA010120220806559466","name":"더배움PTstudio","industry":"헬스장","coordinates":[127.40339425875,36.3979333335687],"sales":{"202602":612}},{"id":"MA010120220806580230","name":"나라","industry":"기타 의류 소매업","coordinates":[127.405701252467,36.399989191445],"sales":{"202602":457}},{"id":"MA010120220806580751","name":"스시안","industry":"일식 회/초밥","coordinates":[127.401794666478,36.3990201259415],"sales":{"202602":2595}},{"id":"MA010120220806594182","name":"케이티그룹희망나눔재단","industry":"슈퍼마켓","coordinates":[127.400288774193,36.40317054929],"sales":{"202602":3365}},{"id":"MA010120220806605274","name":"숲음악교습소","industry":"음악학원","coordinates":[127.400455356375,36.3965283909737],"sales":{"202602":295}},{"id":"MA010120220806616232","name":"차화당","industry":"백반/한정식","coordinates":[127.397330598998,36.4001975657811],"sales":{"202602":816}},{"id":"MA010120220806621965","name":"글로우안경원","industry":"안경렌즈 소매업","coordinates":[127.40373617106,36.3993830570499],"sales":{"202602":1476}},{"id":"MA010120220806639634","name":"라임","industry":"여성 의류 소매업","coordinates":[127.405701252467,36.399989191445],"sales":{"202602":808}},{"id":"MA010120220806673305","name":"엑스포다래","industry":"김밥/만두/분식","coordinates":[127.405701252467,36.399989191445],"sales":{"202602":1094}},{"id":"MA010120220806674647","name":"계룡마트","industry":"슈퍼마켓","coordinates":[127.404242506138,36.4002915227676],"sales":{"202602":3846}},{"id":"MA010120220806677706","name":"한방삼계탕","industry":"국/탕/찌개류","coordinates":[127.403409271203,36.398681251481],"sales":{"202602":735}},{"id":"MA010120220806715820","name":"영어종결센터전민학원","industry":"입시·교과학원","coordinates":[127.404579336646,36.3986052003084],"sales":{"202602":558}},{"id":"MA010120220806754147","name":"뉴세덴","industry":"자동차 정비소","coordinates":[127.404593736853,36.3970821792297],"sales":{"202602":1259}},{"id":"MA010120220806796702","name":"굽네치킨","industry":"치킨","coordinates":[127.400925285905,36.3990410708493],"sales":{"202602":1977}},{"id":"MA010120220806831715","name":"도시락49","industry":"백반/한정식","coordinates":[127.401129300635,36.3975264251142],"sales":{"202602":1417}},{"id":"MA010120220806833412","name":"대전곱이곱다","industry":"곱창 전골/구이","coordinates":[127.40246418464,36.3969902457566],"sales":{"202602":1311}},{"id":"MA010120220806842648","name":"가마솥식당","industry":"백반/한정식","coordinates":[127.405701252467,36.399989191445],"sales":{"202602":4274}},{"id":"MA010120220806849506","name":"甲헤어살롱갑","industry":"미용실","coordinates":[127.400493882295,36.3975195458243],"sales":{"202602":321}},{"id":"MA010120220806852462","name":"전민반찬","industry":"반찬/식료품 소매업","coordinates":[127.405701252467,36.399989191445],"sales":{"202602":1107}},{"id":"MA010120220806870237","name":"그레이트헤어살롱","industry":"미용실","coordinates":[127.408316038893,36.3947985704875],"sales":{"202602":341}},{"id":"MA010120220806902057","name":"뮤네일","industry":"네일숍","coordinates":[127.400490364235,36.3990064833564],"sales":{"202602":249}},{"id":"MA010120220806940999","name":"사넬","industry":"여성 의류 소매업","coordinates":[127.405701252467,36.399989191445],"sales":{"202602":499}},{"id":"MA010120220806956502","name":"이미지다빈치미술학원","industry":"미술학원","coordinates":[127.404584831961,36.3975147696137],"sales":{"202602":874}},{"id":"MA010120220806970297","name":"추억82","industry":"빵/도넛","coordinates":[127.404128976555,36.3977416047096],"sales":{"202602":1419}},{"id":"MA010120220806974602","name":"더필라테스","industry":"요가/필라테스 학원","coordinates":[127.405800773216,36.393401321308],"sales":{"202602":1418}},{"id":"MA010120220807016168","name":"코코리색채연구소","industry":"그 외 기타 교육기관","coordinates":[127.397486706599,36.4002060580063],"sales":{"202602":1089}},{"id":"MA010120220807020920","name":"웰빙발관리","industry":"마사지/안마","coordinates":[127.403457492553,36.3993839987768],"sales":{"202602":343}},{"id":"MA010120220807051536","name":"엔에스","industry":"기타 엔지니어링 서비스업","coordinates":[127.401793011032,36.3965329101967],"sales":{"202602":3812}},{"id":"MA010120220807074096","name":"사바하","industry":"마사지/안마","coordinates":[127.402494052145,36.3984590475264],"sales":{"202602":214}},{"id":"MA010120220807078639","name":"조선일보전민센터","industry":"광고 대행업","coordinates":[127.404122261835,36.398597736086],"sales":{"202602":881}},{"id":"MA010120220807080781","name":"고봉민김밥인","industry":"김밥/만두/분식","coordinates":[127.402086394112,36.3993886226043],"sales":{"202602":1565}},{"id":"MA010120220807106382","name":"세븐대전전민센터점","industry":"편의점","coordinates":[127.401103500499,36.3990134374624],"sales":{"202602":1545}},{"id":"MA010120220807120166","name":"소바공방","industry":"일식 면 요리","coordinates":[127.407172228589,36.3956225375364],"sales":{"202602":1504}},{"id":"MA010120220807129860","name":"블레싱","industry":"여성 의류 소매업","coordinates":[127.405701252467,36.399989191445],"sales":{"202602":272}},{"id":"MA010120220807132896","name":"사계절가방","industry":"가방 소매업","coordinates":[127.405701252467,36.399989191445],"sales":{"202602":260}},{"id":"MA010120220807161821","name":"카페랑희","industry":"카페","coordinates":[127.400455356375,36.3965283909737],"sales":{"202602":422}},{"id":"MA010120220807165016","name":"비알이테크","industry":"기타 엔지니어링 서비스업","coordinates":[127.397440832705,36.3999538839288],"sales":{"202602":1905}},{"id":"MA010120220807203325","name":"은솔","industry":"여성 의류 소매업","coordinates":[127.405701252467,36.399989191445],"sales":{"202602":231}},{"id":"MA010120220807209503","name":"보타니카","industry":"기념품점","coordinates":[127.405701252467,36.399989191445],"sales":{"202602":137}},{"id":"MA010120220807211941","name":"에비타","industry":"침구류/커튼 소매업","coordinates":[127.405701252467,36.399989191445],"sales":{"202602":852}},{"id":"MA010120220807248881","name":"춘천집닭갈비","industry":"닭/오리고기 구이/찜","coordinates":[127.402778433938,36.3974037233315],"sales":{"202602":844}},{"id":"MA010120220807276559","name":"빛나리운동화세탁소","industry":"세탁소","coordinates":[127.404560452167,36.3992631160975],"sales":{"202602":285}},{"id":"MA010120220807291668","name":"구도일태전주유소오앤씨에너지","industry":"주유소","coordinates":[127.406087155247,36.3798828178443],"sales":{"202602":11319}},{"id":"MA010120220807312994","name":"끌리앙","industry":"여성 의류 소매업","coordinates":[127.405701252467,36.399989191445],"sales":{"202602":154}},{"id":"MA010120220807329641","name":"밍밍갤러리","industry":"주방/가정용품 소매업","coordinates":[127.405701252467,36.399989191445],"sales":{"202602":96}},{"id":"MA010120220807356987","name":"성진산업","industry":"건축물 일반 청소업","coordinates":[127.396484368102,36.4003896230981],"sales":{"202602":593}},{"id":"MA010120220807373245","name":"묘향","industry":"중국집","coordinates":[127.403500077966,36.3989963531561],"sales":{"202602":2468}},{"id":"MA010120220807384460","name":"한식요리주점묘미","industry":"요리 주점","coordinates":[127.403121077061,36.3989976329848],"sales":{"202602":602}},{"id":"MA010120220807388091","name":"사이언스이룸","industry":"사진기/기타 광학기기 소매업","coordinates":[127.407882385683,36.3907357858887],"sales":{"202602":3138}},{"id":"MA010120220807482140","name":"으뜸한우","industry":"정육점","coordinates":[127.405701252467,36.399989191445],"sales":{"202602":5887}},{"id":"MA010120220807514960","name":"오피스드림","industry":"문구/회화용품 소매업","coordinates":[127.401141003229,36.3976345258733],"sales":{"202602":732}},{"id":"MA010120220807560678","name":"오스카","industry":"기타 의류 소매업","coordinates":[127.405701252467,36.399989191445],"sales":{"202602":1140}},{"id":"MA010120220807571578","name":"동우공인중개사사무소","industry":"부동산 중개/대리업","coordinates":[127.406744385141,36.3948039330124],"sales":{"202602":1545}},{"id":"MA010120220807571948","name":"린넨율리아","industry":"침구류/커튼 소매업","coordinates":[127.405701252467,36.399989191445],"sales":{"202602":296}},{"id":"MA010120220807753905","name":"라멘히로시","industry":"일식 면 요리","coordinates":[127.40250794084,36.3989906892369],"sales":{"202602":1274}},{"id":"MA010120220807757649","name":"매드락코인노래연습장","industry":"노래방","coordinates":[127.402771471902,36.3982147972047],"sales":{"202602":420}},{"id":"MA010120220807775307","name":"엑스포까사","industry":"주방/가정용품 소매업","coordinates":[127.405701252467,36.399989191445],"sales":{"202602":131}},{"id":"MA010120220807790921","name":"카앤피플샵대전","industry":"자동차 세차장","coordinates":[127.407604781501,36.3952065251939],"sales":{"202602":1584}},{"id":"MA010120220807822408","name":"채선당도시락앤샐러드밀키트24","industry":"백반/한정식","coordinates":[127.405479777575,36.3938349719283],"sales":{"202602":1197}},{"id":"MA010120220807823925","name":"위드헤어","industry":"미용실","coordinates":[127.402476400088,36.397197473055],"sales":{"202602":614}},{"id":"MA010120220807881479","name":"이승용헤어","industry":"미용실","coordinates":[127.407435419952,36.3947925660565],"sales":{"202602":829}},{"id":"MA010120220807905144","name":"하루일본어교습소","industry":"입시·교과학원","coordinates":[127.404242506138,36.4002915227676],"sales":{"202602":549}},{"id":"MA010120220807936939","name":"황금돼지","industry":"돼지고기 구이/찜","coordinates":[127.403651150815,36.3980315940123],"sales":{"202602":1386}},{"id":"MA010120220807939854","name":"카페올","industry":"카페","coordinates":[127.396184488981,36.4006068983028],"sales":{"202602":790}},{"id":"MA010120220807980675","name":"라니's홈","industry":"주방/가정용품 소매업","coordinates":[127.405701252467,36.399989191445],"sales":{"202602":214}},{"id":"MA010120220807998001","name":"아스티","industry":"카페","coordinates":[127.407872298413,36.3952056119484],"sales":{"202602":687}},{"id":"MA010120220808000383","name":"필립","industry":"여성 의류 소매업","coordinates":[127.405701252467,36.399989191445],"sales":{"202602":61}},{"id":"MA010120220808006747","name":"갤러리노래연습장","industry":"노래방","coordinates":[127.397186555845,36.400369266614],"sales":{"202602":458}},{"id":"MA010120220808037125","name":"알뤼샵","industry":"피부 관리실","coordinates":[127.406493928411,36.3959402565265],"sales":{"202602":533}},{"id":"MA010120220808053470","name":"둔산주먹구이","industry":"백반/한정식","coordinates":[127.402875841168,36.3989984604684],"sales":{"202602":411}},{"id":"MA010120220808071723","name":"디에떼에스프레소카이스트","industry":"카페","coordinates":[127.399297332159,36.3945947577956],"sales":{"202602":304}},{"id":"MA010120220808098639","name":"오포스ITSOLUTION","industry":"컴퓨터/소프트웨어 소매업","coordinates":[127.407882385683,36.3907357858887],"sales":{"202602":665}},{"id":"MA010120220808148188","name":"와이데코","industry":"주방/가정용품 소매업","coordinates":[127.405701252467,36.399989191445],"sales":{"202602":631}},{"id":"MA010120220808190711","name":"제인","industry":"여성 의류 소매업","coordinates":[127.405701252467,36.399989191445],"sales":{"202602":249}},{"id":"MA010120220808196819","name":"뷰티나에스테틱","industry":"피부 관리실","coordinates":[127.402964087409,36.398817929376],"sales":{"202602":837}},{"id":"MA010120220808221949","name":"법인로컬팜","industry":"채소/과일 소매업","coordinates":[127.406698411344,36.3923979720503],"sales":{"202602":4218}},{"id":"MA010120220808229215","name":"올리브","industry":"여성 의류 소매업","coordinates":[127.405701252467,36.399989191445],"sales":{"202602":884}},{"id":"MA010120220808242615","name":"안희령국어학원","industry":"입시·교과학원","coordinates":[127.400503037199,36.399303825963],"sales":{"202602":995}},{"id":"MA010120220808260940","name":"파리바게뜨대전","industry":"빵/도넛","coordinates":[127.403189961175,36.399384902223],"sales":{"202602":2305}},{"id":"MA010120220808266295","name":"커피가","industry":"카페","coordinates":[127.404101227419,36.3988411223265],"sales":{"202602":1267}},{"id":"MA010120220808283912","name":"동아울","industry":"백반/한정식","coordinates":[127.405701252467,36.399989191445],"sales":{"202602":2790}},{"id":"MA010120220808286928","name":"스윗제뉴어리","industry":"빵/도넛","coordinates":[127.400673527506,36.3977712701167],"sales":{"202602":1098}},{"id":"MA010120220808299420","name":"다래정","industry":"돼지고기 구이/찜","coordinates":[127.403652269226,36.3982478703188],"sales":{"202602":879}},{"id":"MA010120220808300499","name":"대전수전복","industry":"백반/한정식","coordinates":[127.397719513452,36.3999529562281],"sales":{"202602":3457}},{"id":"MA010120220808308040","name":"위드미스터디카페","industry":"독서실/스터디 카페","coordinates":[127.402948371225,36.4022514274877],"sales":{"202602":369}},{"id":"MA010120220808321024","name":"바르다선필라테스","industry":"요가/필라테스 학원","coordinates":[127.406698411344,36.3923979720503],"sales":{"202602":334}},{"id":"MA010120220808321519","name":"공동구매협동조합","industry":"슈퍼마켓","coordinates":[127.40412445113,36.3968674878993],"sales":{"202602":1569}},{"id":"MA010120220808341593","name":"벤처캐피털타운","industry":"경영 컨설팅업","coordinates":[127.390761517818,36.3995523755576],"sales":{"202602":2643}},{"id":"MA010120220808346108","name":"탑스팀손세차장","industry":"자동차 세차장","coordinates":[127.393362080515,36.4001926790539],"sales":{"202602":1910}},{"id":"MA010120220808373436","name":"오투탁구장","industry":"탁구장","coordinates":[127.403244532993,36.3991594262667],"sales":{"202602":90}},{"id":"MA010120220808399510","name":"송가육회","industry":"소고기 구이/찜","coordinates":[127.402023696314,36.3980370831757],"sales":{"202602":1524}},{"id":"MA010120220808410770","name":"심태정헤어비스","industry":"미용실","coordinates":[127.403852914827,36.3982471920318],"sales":{"202602":226}},{"id":"MA010120220808429881","name":"닌닌","industry":"가방 소매업","coordinates":[127.405701252467,36.399989191445],"sales":{"202602":503}},{"id":"MA010120220808431590","name":"코디하우스","industry":"그 외 기타 교육기관","coordinates":[127.405701252467,36.399989191445],"sales":{"202602":1475}},{"id":"MA010120220808464131","name":"엠남성컷트","industry":"미용실","coordinates":[127.407352217145,36.4002088635208],"sales":{"202602":421}},{"id":"MA010120220808469439","name":"정원토탈뷰티","industry":"미용실","coordinates":[127.403840136071,36.397931826781],"sales":{"202602":617}},{"id":"MA010120220808525356","name":"손꽃네일","industry":"네일숍","coordinates":[127.406759663574,36.3955969082634],"sales":{"202602":239}},{"id":"MA010120220808536344","name":"한별부동산공인중개사사무소","industry":"부동산 중개/대리업","coordinates":[127.407352217145,36.4002088635208],"sales":{"202602":1025}},{"id":"MA010120220808546667","name":"동탁공방빈","industry":"기타 기술/직업 훈련학원","coordinates":[127.402771471902,36.3982147972047],"sales":{"202602":383}},{"id":"MA010120220808567446","name":"쭈케이크","industry":"빵/도넛","coordinates":[127.401927514239,36.3966766444154],"sales":{"202602":2198}},{"id":"MA010120220808595456","name":"런앤점프","industry":"요가/필라테스 학원","coordinates":[127.4020289489,36.3968925831742],"sales":{"202602":450}},{"id":"MA010120220808597283","name":"옷걸이","industry":"여성 의류 소매업","coordinates":[127.405701252467,36.399989191445],"sales":{"202602":256}},{"id":"MA010120220808624235","name":"대전멘토즈스터디카페","industry":"독서실/스터디 카페","coordinates":[127.400503037199,36.399303825963],"sales":{"202602":287}},{"id":"MA010120220808629787","name":"전민옷수선","industry":"의류/이불 수선업","coordinates":[127.405701252467,36.399989191445],"sales":{"202602":187}},{"id":"MA010120220808654777","name":"마르니","industry":"여성 의류 소매업","coordinates":[127.405701252467,36.399989191445],"sales":{"202602":1484}},{"id":"MA010120220808682746","name":"시너진","industry":"사진기/기타 광학기기 소매업","coordinates":[127.407882385683,36.3907357858887],"sales":{"202602":3836}},{"id":"MA010120220808701717","name":"소달구지식당","industry":"백반/한정식","coordinates":[127.401382131423,36.3990034897221],"sales":{"202602":1152}},{"id":"MA010120220808731322","name":"쥬드","industry":"여성 의류 소매업","coordinates":[127.405701252467,36.399989191445],"sales":{"202602":290}},{"id":"MA010120220808744779","name":"애플","industry":"여성 의류 소매업","coordinates":[127.405701252467,36.399989191445],"sales":{"202602":241}},{"id":"MA010120220808750684","name":"레몬스팀세차","industry":"자동차 세차장","coordinates":[127.407632062457,36.3961616693897],"sales":{"202602":7740}},{"id":"MA010120220808760136","name":"인디안가죽수제화","industry":"신발 소매업","coordinates":[127.405701252467,36.399989191445],"sales":{"202602":87}},{"id":"MA010120220808780910","name":"이든벤처스","industry":"경영 컨설팅업","coordinates":[127.407217896165,36.3958296503166],"sales":{"202602":3064}},{"id":"MA010120220808781517","name":"어니언키친","industry":"중국집","coordinates":[127.401843953366,36.3977673379255],"sales":{"202602":6135}},{"id":"MA010120220808844195","name":"엠수학","industry":"입시·교과학원","coordinates":[127.400481117254,36.3972041800906],"sales":{"202602":798}},{"id":"MA010120220808995027","name":"라엘","industry":"기타 의류 소매업","coordinates":[127.405701252467,36.399989191445],"sales":{"202602":698}},{"id":"MA010120220809085705","name":"정닭발","industry":"닭/오리고기 구이/찜","coordinates":[127.403406523409,36.398149572236],"sales":{"202602":737}},{"id":"MA010120220809132951","name":"에임엔","industry":"액세서리/잡화 소매업","coordinates":[127.405701252467,36.399989191445],"sales":{"202602":135}},{"id":"MA010120220809227614","name":"트렌드제이","industry":"여성 의류 소매업","coordinates":[127.405701252467,36.399989191445],"sales":{"202602":247}},{"id":"MA010120220809237973","name":"채스갤러리","industry":"백반/한정식","coordinates":[127.396337302583,36.399966562756],"sales":{"202602":2322}},{"id":"MA010120220809241626","name":"아임프로브","industry":"건강보조식품 소매업","coordinates":[127.393394542874,36.3977864556173],"sales":{"202602":2352}},{"id":"MA010120220809307740","name":"오감만족에프엔씨","industry":"백반/한정식","coordinates":[127.397196831816,36.4001980107256],"sales":{"202602":4624}},{"id":"MA010120220809323041","name":"도담식당","industry":"돼지고기 구이/찜","coordinates":[127.403868771051,36.3991573170194],"sales":{"202602":1030}},{"id":"MA010120220809331531","name":"어바웃더핏","industry":"여성 의류 소매업","coordinates":[127.405701252467,36.399989191445],"sales":{"202602":236}},{"id":"MA010120220809371007","name":"황진이","industry":"노래방","coordinates":[127.402766323301,36.399377319942],"sales":{"202602":515}},{"id":"MA010120220809374936","name":"법인팜브리지","industry":"채소/과일 소매업","coordinates":[127.404944124195,36.3786701187377],"sales":{"202602":1431}},{"id":"MA010120220809585323","name":"메디힐의원","industry":"내과/소아과 의원","coordinates":[127.405701252467,36.399989191445],"sales":{"202602":11957}},{"id":"MA010120220809609764","name":"폰하우스","industry":"핸드폰 소매업","coordinates":[127.40275317672,36.3989898625089],"sales":{"202602":288}},{"id":"MA010120220809630340","name":"비307308","industry":"카페","coordinates":[127.402752374127,36.3966738657612],"sales":{"202602":860}},{"id":"MA010120220809636134","name":"베쏭쥬쥬","industry":"가방 소매업","coordinates":[127.405701252467,36.399989191445],"sales":{"202602":154}},{"id":"MA010120220809650618","name":"유미153다이아미네일라운지","industry":"네일숍","coordinates":[127.405701252467,36.399989191445],"sales":{"202602":172}},{"id":"MA010120220809663656","name":"곰아빠","industry":"빵/도넛","coordinates":[127.404564733353,36.3979383862128],"sales":{"202602":3132}},{"id":"MA010120220809672544","name":"핵연료연구소","industry":"기타 엔지니어링 서비스업","coordinates":[127.40610065457,36.4039079077674],"sales":{"202602":3478}},{"id":"MA010120220809673806","name":"커스텀커피","industry":"카페","coordinates":[127.407959351553,36.3947997893285],"sales":{"202602":339}},{"id":"MA010120220809674615","name":"대박노래연습장","industry":"노래방","coordinates":[127.40275317672,36.3989898625089],"sales":{"202602":640}},{"id":"MA010120220809687958","name":"본푸드서비스한의학연구원점","industry":"구내식당","coordinates":[127.394501094344,36.3983775761973],"sales":{"202602":4057}},{"id":"MA010120220809704788","name":"헤드스파K","industry":"미용실","coordinates":[127.405800773216,36.393401321308],"sales":{"202602":808}},{"id":"MA010120220809725136","name":"노글라스안경원","industry":"안경렌즈 소매업","coordinates":[127.40427128043,36.3993902586216],"sales":{"202602":3151}},{"id":"MA010120220809727083","name":"투썸플레이스대전","industry":"카페","coordinates":[127.397195639496,36.3999637112848],"sales":{"202602":960}},{"id":"MA010120220809729429","name":"메니큐어","industry":"여성 의류 소매업","coordinates":[127.405701252467,36.399989191445],"sales":{"202602":50}},{"id":"MA010120220809736695","name":"마리유프랑스자수공방","industry":"기타 기술/직업 훈련학원","coordinates":[127.40936914768,36.3958132846873],"sales":{"202602":498}},{"id":"MA010120220809744548","name":"초이푸드","industry":"구내식당","coordinates":[127.402766577519,36.3951057865987],"sales":{"202602":2701}},{"id":"MA010120220809771232","name":"우리황토","industry":"침구류/커튼 소매업","coordinates":[127.405701252467,36.399989191445],"sales":{"202602":305}},{"id":"MA010120220809772934","name":"랩소디프로젝트","industry":"광고물 설계/제작업","coordinates":[127.402022257541,36.3977577262124],"sales":{"202602":881}},{"id":"MA010120220809793059","name":"엄마김밥","industry":"김밥/만두/분식","coordinates":[127.400935275793,36.3988157455646],"sales":{"202602":615}},{"id":"MA010120220809794262","name":"봉순대","industry":"국/탕/찌개류","coordinates":[127.404116056829,36.3973992049279],"sales":{"202602":2105}},{"id":"MA010120220809805128","name":"헤어샵반하다","industry":"미용실","coordinates":[127.404110601612,36.3984986471748],"sales":{"202602":541}},{"id":"MA010120220809822154","name":"가왕노래연습장","industry":"노래방","coordinates":[127.403398729602,36.3987984387893],"sales":{"202602":333}},{"id":"MA010120220809829387","name":"오스카","industry":"여성 의류 소매업","coordinates":[127.405701252467,36.399989191445],"sales":{"202602":347}},{"id":"MA010120220809852336","name":"카페달달해","industry":"백반/한정식","coordinates":[127.401940274724,36.3991548110449],"sales":{"202602":621}},{"id":"MA010120220809870722","name":"카페블레스롤대전","industry":"카페","coordinates":[127.40533825379,36.3773080153674],"sales":{"202602":549}},{"id":"MA010120220809883857","name":"전민한우","industry":"소고기 구이/찜","coordinates":[127.401838187815,36.3988127111179],"sales":{"202602":1629}},{"id":"MA010120220809887310","name":"로즈마리","industry":"기타 의류 소매업","coordinates":[127.405701252467,36.399989191445],"sales":{"202602":2914}},{"id":"MA010120220809899560","name":"문지동카페","industry":"카페","coordinates":[127.408645371945,36.3959599499593],"sales":{"202602":707}},{"id":"MA010120220809908587","name":"티업비젼원촌점","industry":"골프 연습장","coordinates":[127.405675053721,36.3777844922484],"sales":{"202602":1941}},{"id":"MA010120220809926019","name":"쏠레노래연습장","industry":"노래방","coordinates":[127.403500077966,36.3989963531561],"sales":{"202602":314}},{"id":"MA010120220809973052","name":"보동이네공방","industry":"화장품 소매업","coordinates":[127.405701252467,36.399989191445],"sales":{"202602":967}},{"id":"MA010120220810003582","name":"세건푸드","industry":"구내식당","coordinates":[127.407882385683,36.3907357858887],"sales":{"202602":3599}},{"id":"MA010120220810006205","name":"세븐일레븐대전전민","industry":"편의점","coordinates":[127.401103500499,36.3990134374624],"sales":{"202602":3930}},{"id":"MA010120220810010566","name":"연하커피","industry":"카페","coordinates":[127.403660853125,36.3977521994316],"sales":{"202602":2881}},{"id":"MA010120220810011723","name":"종가집","industry":"반찬/식료품 소매업","coordinates":[127.405701252467,36.399989191445],"sales":{"202602":2749}},{"id":"MA010120220810012272","name":"지에스25전민","industry":"편의점","coordinates":[127.397186555845,36.400369266614],"sales":{"202602":5439}},{"id":"MA010120220810021904","name":"세종크리닝세탁소","industry":"세탁소","coordinates":[127.404242506138,36.4002915227676],"sales":{"202602":383}},{"id":"MA010120220810044755","name":"팀그라운드주짓수","industry":"요가/필라테스 학원","coordinates":[127.400503037199,36.399303825963],"sales":{"202602":346}},{"id":"MA010120220810067923","name":"엑셀베스트","industry":"경영 컨설팅업","coordinates":[127.390761517818,36.3995523755576],"sales":{"202602":1634}},{"id":"MA010120220810079415","name":"전민마트","industry":"슈퍼마켓","coordinates":[127.402781177379,36.3979354026842],"sales":{"202602":3953}},{"id":"MA010120220810087472","name":"지오","industry":"경영 컨설팅업","coordinates":[127.407882385683,36.3907357858887],"sales":{"202602":893}},{"id":"MA010120220810092442","name":"하루","industry":"여성 의류 소매업","coordinates":[127.405701252467,36.399989191445],"sales":{"202602":290}},{"id":"MA010120220810135850","name":"프랭크버거","industry":"버거","coordinates":[127.401105815912,36.399464013159],"sales":{"202602":673}},{"id":"MA010120220810141092","name":"동양척추교정원","industry":"마사지/안마","coordinates":[127.404478300324,36.3769504620631],"sales":{"202602":890}},{"id":"MA010120220810149546","name":"작은공간더정","industry":"빵/도넛","coordinates":[127.402948371225,36.4022514274877],"sales":{"202602":1320}},{"id":"MA010120220810158255","name":"내일봄정신건강의학과","industry":"신경/정신과 의원","coordinates":[127.405701252467,36.399989191445],"sales":{"202602":3551}},{"id":"MA010120220810180163","name":"서원골유황오리","industry":"돼지고기 구이/찜","coordinates":[127.406291409801,36.3805850356403],"sales":{"202602":1681}},{"id":"MA010120220810186919","name":"플레이앤스포츠","industry":"입시·교과학원","coordinates":[127.402775737066,36.3968810554469],"sales":{"202602":1024}},{"id":"MA010120220810221857","name":"바비","industry":"여성 의류 소매업","coordinates":[127.405701252467,36.399989191445],"sales":{"202602":228}},{"id":"MA010120220810233437","name":"르큐피동","industry":"경양식","coordinates":[127.406097842274,36.3947971213558],"sales":{"202602":11477}},{"id":"MA010120220810250886","name":"헤어에쉬","industry":"미용실","coordinates":[127.403838597561,36.3976344468485],"sales":{"202602":836}},{"id":"MA010120220810254869","name":"문지뜰","industry":"백반/한정식","coordinates":[127.40616106421,36.3940939957328],"sales":{"202602":5184}},{"id":"MA010120220810283228","name":"헬레나","industry":"여성 의류 소매업","coordinates":[127.405701252467,36.399989191445],"sales":{"202602":106}},{"id":"MA010120220810315733","name":"대다법무사","industry":"법무사","coordinates":[127.406267290553,36.3952291054627],"sales":{"202602":157}},{"id":"MA010120220810349091","name":"샹니","industry":"여성 의류 소매업","coordinates":[127.405701252467,36.399989191445],"sales":{"202602":387}},{"id":"MA010120220810381036","name":"씨유","industry":"편의점","coordinates":[127.39850674794,36.383837445821],"sales":{"202602":2684}},{"id":"MA010120220810381370","name":"전민참피온탁구장","industry":"탁구장","coordinates":[127.400935275793,36.3988157455646],"sales":{"202602":172}},{"id":"MA010120220810397312","name":"연암엔지니어링","industry":"건물 및 토목 엔지니어링 서비스업","coordinates":[127.407882385683,36.3907357858887],"sales":{}},{"id":"MA010120220810412053","name":"베니스","industry":"액세서리/잡화 소매업","coordinates":[127.405701252467,36.399989191445],"sales":{"202602":51}},{"id":"MA010120220810413395","name":"그린셀러드바","industry":"반찬/식료품 소매업","coordinates":[127.405701252467,36.399989191445],"sales":{"202602":1710}},{"id":"MA010120220810443803","name":"제이엠필라테스","industry":"요가/필라테스 학원","coordinates":[127.406678184437,36.3927945547352],"sales":{"202602":632}},{"id":"MA010120220810481326","name":"이지뷰","industry":"여성 의류 소매업","coordinates":[127.405701252467,36.399989191445],"sales":{"202602":133}},{"id":"MA010120220810492871","name":"도쌤재활연구원","industry":"마사지/안마","coordinates":[127.403398729602,36.3987984387893],"sales":{"202602":547}},{"id":"MA010120220810497712","name":"제주은희네해장국","industry":"국/탕/찌개류","coordinates":[127.406148183211,36.3937606075307],"sales":{"202602":1274}},{"id":"MA010120220810545971","name":"루네","industry":"여성 의류 소매업","coordinates":[127.409309445636,36.3950565088129],"sales":{"202602":120}},{"id":"MA010120220810554342","name":"옥이네현미누룽지","industry":"반찬/식료품 소매업","coordinates":[127.402965232391,36.3968804162626],"sales":{"202602":865}},{"id":"MA010120220810580809","name":"포코어커피","industry":"카페","coordinates":[127.407607886964,36.3958012850086],"sales":{"202602":1063}},{"id":"MA010120220810583465","name":"벧엘인테리어","industry":"인테리어 디자인업","coordinates":[127.404242506138,36.4002915227676],"sales":{"202602":147}},{"id":"MA010120220810995190","name":"어부와해녀","industry":"횟집","coordinates":[127.40113768276,36.3991575093756],"sales":{"202602":2215}},{"id":"MA010120220811047719","name":"영탁구클럽","industry":"탁구장","coordinates":[127.404242506138,36.4002915227676],"sales":{"202602":375}},{"id":"MA010120220811074458","name":"파티","industry":"그 외 기타 종합 소매업","coordinates":[127.405701252467,36.399989191445],"sales":{"202602":2479}},{"id":"MA010120220811084925","name":"인시티커피로스터즈","industry":"카페","coordinates":[127.402770588426,36.3980435784431],"sales":{"202602":348}},{"id":"MA010120220811133818","name":"국영수떡볶이","industry":"김밥/만두/분식","coordinates":[127.400474871082,36.3981594382668],"sales":{"202602":470}},{"id":"MA010120220811162760","name":"루카헤어","industry":"미용실","coordinates":[127.404118856034,36.3979398957059],"sales":{"202602":463}},{"id":"MA010120220811191640","name":"고고짬뽕","industry":"중국집","coordinates":[127.4020289489,36.3968925831742],"sales":{"202602":961}},{"id":"MA010120220811196784","name":"푸른세탁소","industry":"세탁소","coordinates":[127.397103802497,36.3994413398064],"sales":{"202602":240}},{"id":"MA010120220811473281","name":"샤브마니아","industry":"백반/한정식","coordinates":[127.405492094063,36.3940602220145],"sales":{"202602":2767}},{"id":"MA010120220811549990","name":"모자랜드","industry":"가발 소매업","coordinates":[127.405701252467,36.399989191445],"sales":{"202602":180}},{"id":"MA010120220811696349","name":"하백소프트","industry":"환경 관련 엔지니어링 서비스업","coordinates":[127.39418790042,36.4069937634779],"sales":{}},{"id":"MA010120220811703513","name":"나래스킨케어","industry":"피부 관리실","coordinates":[127.402948371225,36.4022514274877],"sales":{"202602":310}},{"id":"MA010120220811714662","name":"별꽃","industry":"카페","coordinates":[127.39604733733,36.3999404896422],"sales":{"202602":329}},{"id":"MA010120220811716099","name":"미다모특수가발","industry":"그 외 기타 상품 전문 소매업","coordinates":[127.405701252467,36.399989191445],"sales":{"202602":5065}},{"id":"MA010120220811730363","name":"제이앤엠","industry":"슈퍼마켓","coordinates":[127.409174270484,36.3947866217745],"sales":{"202602":4828}},{"id":"MA010120220811746026","name":"철판순대","industry":"국/탕/찌개류","coordinates":[127.402290712237,36.3979370557108],"sales":{"202602":1218}},{"id":"MA010120220811758167","name":"다나공인중개사사무소","industry":"부동산 중개/대리업","coordinates":[127.406409943759,36.3947960597923],"sales":{"202602":2335}},{"id":"MA010120220811760564","name":"모던챠이","industry":"중국집","coordinates":[127.405624258676,36.3937533762677],"sales":{"202602":1593}},{"id":"MA010120220811764549","name":"필","industry":"여성 의류 소매업","coordinates":[127.405701252467,36.399989191445],"sales":{"202602":269}},{"id":"MA010120220811770655","name":"동해회관동해막국수","industry":"국수/칼국수","coordinates":[127.40113283312,36.4068895331598],"sales":{"202602":690}},{"id":"MA010120220811779427","name":"우드스토리","industry":"기념품점","coordinates":[127.405701252467,36.399989191445],"sales":{"202602":131}},{"id":"MA010120220811852382","name":"뉴월드공인중개사사무소","industry":"부동산 중개/대리업","coordinates":[127.407352217145,36.4002088635208],"sales":{"202602":958}},{"id":"MA010120220811863538","name":"올굿소아청소년과의원","industry":"일반병원","coordinates":[127.400514970419,36.3994569843265],"sales":{"202602":24551}},{"id":"MA010120220811897455","name":"싱싱과야","industry":"채소/과일 소매업","coordinates":[127.407352217145,36.4002088635208],"sales":{"202602":3709}},{"id":"MA010120220811920779","name":"동장군아이스크림","industry":"슈퍼마켓","coordinates":[127.401105815912,36.399464013159],"sales":{"202602":751}},{"id":"MA010120220811928504","name":"소망부동산공인중개사사무소","industry":"부동산 중개/대리업","coordinates":[127.404242506138,36.4002915227676],"sales":{"202602":1790}},{"id":"MA010120220811929836","name":"나의음악공간","industry":"음악학원","coordinates":[127.402022257541,36.3977577262124],"sales":{"202602":159}},{"id":"MA010120220811938591","name":"리본","industry":"여성 의류 소매업","coordinates":[127.405701252467,36.399989191445],"sales":{"202602":251}},{"id":"MA010120220811958914","name":"블랙홀댄스아카데미","industry":"레크리에이션 교육기관","coordinates":[127.404242506138,36.4002915227676],"sales":{"202602":812}},{"id":"MA010120220811965454","name":"또바기곰탕","industry":"국/탕/찌개류","coordinates":[127.401119357743,36.3977607619753],"sales":{"202602":916}},{"id":"MA010120220812004722","name":"행운공인중개사사무소","industry":"부동산 중개/대리업","coordinates":[127.404242506138,36.4002915227676],"sales":{"202602":2327}},{"id":"MA010120220812032750","name":"솔루션공인중개사사무소","industry":"부동산 중개/대리업","coordinates":[127.408164040167,36.3955740939106],"sales":{"202602":1420}},{"id":"MA010120220812101703","name":"제주진고기국수멸치국수","industry":"국수/칼국수","coordinates":[127.401407972589,36.3975254888604],"sales":{"202602":1129}},{"id":"MA010120220812102092","name":"써밋스터디카페","industry":"독서실/스터디 카페","coordinates":[127.405189256338,36.3958455613064],"sales":{"202602":240}},{"id":"MA010120220812120121","name":"화이트","industry":"액세서리/잡화 소매업","coordinates":[127.405701252467,36.399989191445],"sales":{"202602":237}},{"id":"MA010120220812136631","name":"닥터박잉글리시","industry":"입시·교과학원","coordinates":[127.405701252467,36.399989191445],"sales":{"202602":672}},{"id":"MA010120220812169982","name":"개밥파는고양이","industry":"애완동물/애완용품 소매업","coordinates":[127.404583197224,36.3971993666615],"sales":{"202602":657}},{"id":"MA010120220812182633","name":"아이케어동물병원","industry":"동물병원","coordinates":[127.407330584996,36.3960635695375],"sales":{"202602":3307}},{"id":"MA010120220812184046","name":"준호네춘천숯불닭갈비","industry":"돼지고기 구이/찜","coordinates":[127.402973978342,36.3985745809235],"sales":{"202602":773}},{"id":"MA010120220812187739","name":"아이리스","industry":"화장품 소매업","coordinates":[127.400938785403,36.3973288080245],"sales":{"202602":352}},{"id":"MA010120220812237258","name":"굿","industry":"마사지/안마","coordinates":[127.402763347321,36.3988005831534],"sales":{"202602":319}},{"id":"MA010120220812247142","name":"공차대전","industry":"카페","coordinates":[127.401818816282,36.3993805114664],"sales":{"202602":578}},{"id":"MA010120220812260853","name":"본갈비","industry":"돼지고기 구이/찜","coordinates":[127.402207851791,36.3991629219157],"sales":{"202602":1603}},{"id":"MA010120220812265396","name":"승리태권도전민관","industry":"태권도/무술학원","coordinates":[127.404242506138,36.4002915227676],"sales":{"202602":523}},{"id":"MA010120220812287614","name":"뉴전민당구장","industry":"당구장","coordinates":[127.40113768276,36.3991575093756],"sales":{"202602":418}},