[{"id":"MA010120220800007168","name":"느낌","industry":"카페","coordinates":[127.419863218449,36.3490331495978],"sales":{"202602":1407}},{"id":"MA010120220800080860","name":"스포츠랜드","industry":"기타 오락장","coordinates":[127.426348243186,36.3513442273667],"sales":{"202602":309}},{"id":"MA010120220800082374","name":"프로당구장","industry":"당구장","coordinates":[127.411492344662,36.3545053573578],"sales":{"202602":280}},{"id":"MA010120220800374625","name":"힐링캠프","industry":"침구류/커튼 소매업","coordinates":[127.416989644886,36.3595869376034],"sales":{"202602":380}},{"id":"MA010120220800383323","name":"레반토리아","industry":"기타 교육지원 서비스업","coordinates":[127.422469651632,36.3551519418453],"sales":{"202602":789}},{"id":"MA010120220800607476","name":"대덕구청직장금고","industry":"슈퍼마켓","coordinates":[127.414715662486,36.3467801659762],"sales":{"202602":8380}},{"id":"MA010120220800618079","name":"골든공인중개사사무소","industry":"부동산 중개/대리업","coordinates":[127.409493717409,36.3536651202885],"sales":{"202602":2192}},{"id":"MA010120220800657055","name":"마켓온통","industry":"경영 컨설팅업","coordinates":[127.414394533158,36.3534499667731],"sales":{"202602":1545}},{"id":"MA010120220800693038","name":"브로디테일","industry":"자동차 세차장","coordinates":[127.417442216625,36.3504474626043],"sales":{"202602":2289}},{"id":"MA010120220800757653","name":"우리소머리곰탕","industry":"국/탕/찌개류","coordinates":[127.408656451505,36.3554703334554],"sales":{"202602":4564}},{"id":"MA010120220800889946","name":"캠퍼스복사","industry":"복사업","coordinates":[127.421401530397,36.3512806688473],"sales":{"202602":293}},{"id":"MA010120220800926180","name":"삼일건축사사무소","industry":"건축 설계 및 관련 서비스업","coordinates":[127.421355706795,36.3510465253285],"sales":{"202602":1419}},{"id":"MA010120220800996926","name":"드링키","industry":"카페","coordinates":[127.425369322294,36.3516090563283],"sales":{"202602":654}},{"id":"MA010120220801140326","name":"제로스인터내셔널","industry":"담배/전자담배 소매업","coordinates":[127.424229491835,36.3509642635626],"sales":{"202602":432}},{"id":"MA010120220801142927","name":"구워담다","industry":"빵/도넛","coordinates":[127.411938484553,36.3588294504895],"sales":{"202602":562}},{"id":"MA010120220801250449","name":"광진천막","industry":"침구류/커튼 소매업","coordinates":[127.414981963778,36.3486807191285],"sales":{"202602":893}},{"id":"MA010120220801317160","name":"윤인테리어","industry":"인테리어 디자인업","coordinates":[127.416312224534,36.3600038391086],"sales":{"202602":663}},{"id":"MA010120220802146092","name":"파스카로제하우스","industry":"카페","coordinates":[127.424787557505,36.3491058635313],"sales":{"202602":1642}},{"id":"MA010120220802510808","name":"신가네매운떡복이","industry":"김밥/만두/분식","coordinates":[127.42548190214,36.351824937104],"sales":{"202602":381}},{"id":"MA010120220802511283","name":"작은식당1","industry":"백반/한정식","coordinates":[127.410532843465,36.3521205478713],"sales":{"202602":445}},{"id":"MA010120220802650501","name":"해요","industry":"카페","coordinates":[127.410532843465,36.3521205478713],"sales":{"202602":607}},{"id":"MA010120220802934834","name":"알트","industry":"인테리어 디자인업","coordinates":[127.422469651632,36.3551519418453],"sales":{"202602":847}},{"id":"MA010120220802986745","name":"마스터휠","industry":"기타 개인/가정용품 대여업","coordinates":[127.418110384104,36.3504000679045],"sales":{"202602":291}},{"id":"MA010120220803026159","name":"마이스프로","industry":"전시/컨벤션/행사 대행 서비스업","coordinates":[127.422469651632,36.3551519418453],"sales":{"202602":2669}},{"id":"MA010120220803067008","name":"서승건축에스에스인테리어","industry":"인테리어 디자인업","coordinates":[127.412774590918,36.3504817005917],"sales":{"202602":588}},{"id":"MA010120220803098476","name":"바다횟집","industry":"횟집","coordinates":[127.410020944296,36.3586017411123],"sales":{"202602":2930}},{"id":"MA010120220803139672","name":"오렌다","industry":"교육컨설팅업","coordinates":[127.422469651632,36.3551519418453],"sales":{"202602":3560}},{"id":"MA010120220803143489","name":"대성식당","industry":"백반/한정식","coordinates":[127.40936214831,36.3561978681713],"sales":{"202602":2039}},{"id":"MA010120220803145294","name":"와이앤에스","industry":"건축 설계 및 관련 서비스업","coordinates":[127.414870277914,36.3507267717602],"sales":{"202602":2022}},{"id":"MA010120220803198329","name":"에스에이치크린","industry":"건축물 일반 청소업","coordinates":[127.41239483536,36.3608555144137],"sales":{"202602":278}},{"id":"MA010120220803199802","name":"채색코튼","industry":"침구류/커튼 소매업","coordinates":[127.421355706795,36.3510465253285],"sales":{"202602":322}},{"id":"MA010120220803227126","name":"피사","industry":"슈퍼마켓","coordinates":[127.422469651632,36.3551519418453],"sales":{"202602":15252}},{"id":"MA010120220803243664","name":"작은식당3","industry":"백반/한정식","coordinates":[127.410016866147,36.3556999781107],"sales":{"202602":464}},{"id":"MA010120220803250254","name":"대성식당","industry":"백반/한정식","coordinates":[127.414595768519,36.3577839111233],"sales":{"202602":526}},{"id":"MA010120220803283739","name":"중앙공인중개사사무소","industry":"부동산 중개/대리업","coordinates":[127.425264893631,36.3508434306772],"sales":{"202602":896}},{"id":"MA010120220803292767","name":"베러비스윗","industry":"빵/도넛","coordinates":[127.427338189705,36.3530979788066],"sales":{"202602":519}},{"id":"MA010120220803355593","name":"땡기는포차","industry":"요리 주점","coordinates":[127.418450471589,36.3514983092957],"sales":{"202602":1353}},{"id":"MA010120220803356751","name":"먹고먹고먹고","industry":"백반/한정식","coordinates":[127.410815411985,36.3550123436565],"sales":{"202602":703}},{"id":"MA010120220803393849","name":"조마루감자탕","industry":"국/탕/찌개류","coordinates":[127.414824187304,36.3588374903275],"sales":{"202602":1266}},{"id":"MA010120220803419939","name":"사회적협동조합도원참사랑나눔행복담은한그릇","industry":"백반/한정식","coordinates":[127.418929286318,36.3472971615052],"sales":{"202602":500}},{"id":"MA010120220803436815","name":"독고다이형제특수렉카","industry":"자동차 정비소","coordinates":[127.41587743672,36.357860562649],"sales":{"202602":2513}},{"id":"MA010120220803437671","name":"윤슬헤어","industry":"미용실","coordinates":[127.425595911033,36.3502564894483],"sales":{"202602":291}},{"id":"MA010120220803580862","name":"델리빌더스","industry":"카페","coordinates":[127.424859170098,36.3520344226855],"sales":{"202602":1640}},{"id":"MA010120220803709697","name":"프랑블랑케이크","industry":"피자","coordinates":[127.41400528541,36.3577859585268],"sales":{"202602":4402}},{"id":"MA010120220803711301","name":"1819카페","industry":"피자","coordinates":[127.425679239089,36.3512384716495],"sales":{"202602":4317}},{"id":"MA010120220803735980","name":"신화","industry":"가정용 연료 소매업","coordinates":[127.411015851639,36.3549936308984],"sales":{"202602":1302}},{"id":"MA010120220803829064","name":"이오사가구","industry":"가구 소매업","coordinates":[127.408180424562,36.3496503782158],"sales":{"202602":1172}},{"id":"MA010120220803853110","name":"씨유오정","industry":"편의점","coordinates":[127.410249520434,36.3575736194957],"sales":{"202602":3185}},{"id":"MA010120220804050810","name":"작은달커피","industry":"카페","coordinates":[127.424344307218,36.3495400017232],"sales":{"202602":415}},{"id":"MA010120220804075938","name":"서천정육점","industry":"정육점","coordinates":[127.405067680879,36.3595107969363],"sales":{"202602":31905}},{"id":"MA010120220804149884","name":"오정차사랑","industry":"자동차 정비소","coordinates":[127.411175668751,36.3514875160342],"sales":{"202602":240}},{"id":"MA010120220804155165","name":"블레스헤어","industry":"미용실","coordinates":[127.425663438426,36.3503824132103],"sales":{"202602":355}},{"id":"MA010120220804285055","name":"대덕이노베이션","industry":"철물/공구 소매업","coordinates":[127.413654567534,36.3504606341766],"sales":{"202602":548}},{"id":"MA010120220804316804","name":"삼삼철거·인테리어","industry":"인테리어 디자인업","coordinates":[127.410898333995,36.353831521434],"sales":{"202602":248}},{"id":"MA010120220804393715","name":"한남커피&티아카데미학원","industry":"기타 기술/직업 훈련학원","coordinates":[127.421401530397,36.3512806688473],"sales":{"202602":793}},{"id":"MA010120220804396725","name":"디에스씨친환경세차","industry":"자동차 세차장","coordinates":[127.419516913524,36.3488541310819],"sales":{"202602":558}},{"id":"MA010120220804536501","name":"꽁냥꽁냥","industry":"만화방","coordinates":[127.425644395762,36.3509772554957],"sales":{"202602":643}},{"id":"MA010120220804780344","name":"빽다방대전","industry":"카페","coordinates":[127.425076343285,36.350997301026],"sales":{"202602":1041}},{"id":"MA010120220804782879","name":"피자오르새","industry":"피자","coordinates":[127.425663438426,36.3503824132103],"sales":{"202602":5052}},{"id":"MA010120220804801022","name":"슈퍼리치","industry":"기타 여행 보조/예약 서비스업","coordinates":[127.412684811756,36.3587998399372],"sales":{"202602":980}},{"id":"MA010120220804801986","name":"써브웨이대전","industry":"토스트/샌드위치/샐러드","coordinates":[127.425264893631,36.3508434306772],"sales":{"202602":1051}},{"id":"MA010120220804813695","name":"소라피리협동조합","industry":"예술품 소매업","coordinates":[127.422469651632,36.3551519418453],"sales":{"202602":147}},{"id":"MA010120220804852931","name":"르시크","industry":"미용실","coordinates":[127.424941730282,36.3508265568572],"sales":{"202602":1116}},{"id":"MA010120220804854453","name":"양지할인마트","industry":"슈퍼마켓","coordinates":[127.413826809827,36.3598502620415],"sales":{"202602":11749}},{"id":"MA010120220804913817","name":"미치다","industry":"백반/한정식","coordinates":[127.417618319035,36.3521320419228],"sales":{"202602":1293}},{"id":"MA010120220804982148","name":"명랑시대","industry":"그 외 기타 간이 음식점","coordinates":[127.425644395762,36.3509772554957],"sales":{"202602":1232}},{"id":"MA010120220805009960","name":"산마루삼겹살","industry":"돼지고기 구이/찜","coordinates":[127.409689869281,36.359206662481],"sales":{"202602":1659}},{"id":"MA010120220805091223","name":"꺼꿀로헤어","industry":"미용실","coordinates":[127.41239483536,36.3608555144137],"sales":{"202602":647}},{"id":"MA010120220805109836","name":"우드스탁","industry":"건축 설계 및 관련 서비스업","coordinates":[127.416696604651,36.3589571392246],"sales":{"202602":1269}},{"id":"MA010120220805119757","name":"한결중고가전","industry":"중고 상품 소매업","coordinates":[127.415593301497,36.3568071791216],"sales":{"202602":581}},{"id":"MA010120220805127351","name":"좋은마을만들기협동조합","industry":"백반/한정식","coordinates":[127.418929286318,36.3472971615052],"sales":{"202602":143}},{"id":"MA010120220805129617","name":"티지패션","industry":"남성 의류 소매업","coordinates":[127.415961035449,36.3589146435839],"sales":{"202602":1152}},{"id":"MA010120220805131209","name":"춘리마라탕","industry":"마라탕/훠궈","coordinates":[127.424229491835,36.3509642635626],"sales":{"202602":2131}},{"id":"MA010120220805137513","name":"현대오일뱅크㈜직영럭키셀프주유소","industry":"주유소","coordinates":[127.410299429819,36.3585917734236],"sales":{"202602":32376}},{"id":"MA010120220805155257","name":"쉼표플라워","industry":"꽃집","coordinates":[127.427142583816,36.3539998511179],"sales":{"202602":745}},{"id":"MA010120220805219966","name":"청진동닭도리탕","industry":"백반/한정식","coordinates":[127.410106640024,36.3536990651988],"sales":{"202602":904}},{"id":"MA010120220805230617","name":"하선약국","industry":"약국","coordinates":[127.414923592025,36.3544754684001],"sales":{"202602":8044}},{"id":"MA010120220805320890","name":"신전떡볶이","industry":"김밥/만두/분식","coordinates":[127.425921722786,36.3507599857198],"sales":{"202602":1076}},{"id":"MA010120220805350940","name":"국전문집","industry":"백반/한정식","coordinates":[127.417425228147,36.3514388129771],"sales":{"202602":606}},{"id":"MA010120220805378403","name":"조대포가든식당","industry":"돼지고기 구이/찜","coordinates":[127.413287110981,36.3589239223329],"sales":{"202602":741}},{"id":"MA010120220805397287","name":"씨유대전","industry":"편의점","coordinates":[127.418709044022,36.3456938431733],"sales":{"202602":1976}},{"id":"MA010120220805400805","name":"유혜준공인회계사사무소","industry":"공인회계사","coordinates":[127.412684811756,36.3587998399372],"sales":{"202602":758}},{"id":"MA010120220805407432","name":"롯데리아","industry":"버거","coordinates":[127.425134102172,36.3513755883583],"sales":{"202602":1807}},{"id":"MA010120220805419104","name":"대조건기","industry":"건설기계/장비 대여업","coordinates":[127.416642528749,36.3467193929858],"sales":{"202602":656}},{"id":"MA010120220805421881","name":"신양지공인중개사사무소","industry":"부동산 중개/대리업","coordinates":[127.413826809827,36.3598502620415],"sales":{"202602":4505}},{"id":"MA010120220805437902","name":"깨끗한친구들","industry":"건축물 일반 청소업","coordinates":[127.413058284507,36.349354252838],"sales":{"202602":222}},{"id":"MA010120220805463613","name":"89푸드팩토리","industry":"중국집","coordinates":[127.426214953087,36.3514167967242],"sales":{"202602":1214}},{"id":"MA010120220805476145","name":"느루가치협동조합","industry":"그 외 기타 교육기관","coordinates":[127.416980280905,36.3494758076871],"sales":{"202602":1407}},{"id":"MA010120220805484387","name":"더케이가구","industry":"가구 소매업","coordinates":[127.413872783869,36.3580117107375],"sales":{"202602":2751}},{"id":"MA010120220805500536","name":"엑스포인삼사","industry":"그 외 기타 상품 전문 소매업","coordinates":[127.408415747502,36.3584450275319],"sales":{"202602":7848}},{"id":"MA010120220805506691","name":"굿하루","industry":"광고물 설계/제작업","coordinates":[127.411980133561,36.3561618352219],"sales":{"202602":479}},{"id":"MA010120220805527723","name":"서동미피아노스튜디오교습소","industry":"음악학원","coordinates":[127.41239483536,36.3608555144137],"sales":{"202602":460}},{"id":"MA010120220805545509","name":"민제이컴퍼니","industry":"기타 의류 소매업","coordinates":[127.425792996996,36.3516706295343],"sales":{"202602":1512}},{"id":"MA010120220805627431","name":"그린세탁","industry":"세탁소","coordinates":[127.4103050231,36.3511660861259],"sales":{"202602":171}},{"id":"MA010120220805627470","name":"애니원유통","industry":"건강보조식품 소매업","coordinates":[127.41239483536,36.3608555144137],"sales":{"202602":552}},{"id":"MA010120220805639494","name":"동양매직주방","industry":"주방/가정용품 소매업","coordinates":[127.416642479345,36.3529825514306],"sales":{"202602":902}},{"id":"MA010120220805646806","name":"골목식당","industry":"김밥/만두/분식","coordinates":[127.408772572063,36.3563711094722],"sales":{"202602":721}},{"id":"MA010120220805738840","name":"신발","industry":"신발 소매업","coordinates":[127.408542802463,36.3571739393444],"sales":{"202602":152}},{"id":"MA010120220805738918","name":"대전국민서관썬차일드","industry":"그 외 기타 상품 전문 소매업","coordinates":[127.410765072514,36.3539130852183],"sales":{"202602":5784}},{"id":"MA010120220805740739","name":"국제상사","industry":"자동차 부품 소매업","coordinates":[127.417876762277,36.346291531502],"sales":{"202602":1827}},{"id":"MA010120220805741702","name":"정회연세무사무소","industry":"세무사","coordinates":[127.416406382283,36.3483964001036],"sales":{"202602":1300}},{"id":"MA010120220805742240","name":"자동차정비마을","industry":"자동차 정비소","coordinates":[127.416690689846,36.3515765526854],"sales":{"202602":629}},{"id":"MA010120220805743718","name":"천일주방","industry":"가전제품 소매업","coordinates":[127.408252992368,36.3571478946987],"sales":{"202602":275}},{"id":"MA010120220805743909","name":"미래사","industry":"명함/간판/광고물 제작","coordinates":[127.414996116585,36.3492484096256],"sales":{"202602":529}},{"id":"MA010120220805744737","name":"김유진헤어샵","industry":"미용실","coordinates":[127.411806117704,36.3590822351063],"sales":{"202602":329}},{"id":"MA010120220805744780","name":"에이치앤티","industry":"명함/간판/광고물 제작","coordinates":[127.416865614141,36.3488634094724],"sales":{"202602":731}},{"id":"MA010120220805744880","name":"헤어1004미용실","industry":"미용실","coordinates":[127.419024695891,36.3505500648052],"sales":{"202602":533}},{"id":"MA010120220805744929","name":"신신중고타이어","industry":"타이어 소매업","coordinates":[127.415121150881,36.3518163206716],"sales":{"202602":1955}},{"id":"MA010120220805745476","name":"명륜진사갈비","industry":"돼지고기 구이/찜","coordinates":[127.425454129691,36.3508157218652],"sales":{"202602":1315}},{"id":"MA010120220805745702","name":"동림공조","industry":"가전제품 수리업","coordinates":[127.410122807225,36.3567810222729],"sales":{"202602":572}},{"id":"MA010120220805747164","name":"박병규세무회계사무소","industry":"세무사","coordinates":[127.414981963778,36.3486807191285],"sales":{"202602":1822}},{"id":"MA010120220805747547","name":"대가족상회","industry":"슈퍼마켓","coordinates":[127.408404307147,36.3562552162349],"sales":{"202602":10289}},{"id":"MA010120220805747684","name":"공조","industry":"자동차 부품 소매업","coordinates":[127.417431921853,36.3485189864633],"sales":{"202602":2087}},{"id":"MA010120220805747890","name":"헤어스ㅌ리","industry":"미용실","coordinates":[127.417407710173,36.3523310359553],"sales":{"202602":761}},{"id":"MA010120220805748111","name":"업소명없음","industry":"슈퍼마켓","coordinates":[127.419297111141,36.349413630329],"sales":{"202602":4838}},{"id":"MA010120220805748120","name":"연탄구이","industry":"돼지고기 구이/찜","coordinates":[127.41884959108,36.3511364415573],"sales":{"202602":1750}},{"id":"MA010120220805748165","name":"에스더헤어라인","industry":"미용실","coordinates":[127.412948730825,36.3560323274869],"sales":{"202602":343}},{"id":"MA010120220805748174","name":"코스모스","industry":"옥외/전시 광고 대행업","coordinates":[127.407200253114,36.3539613334198],"sales":{"202602":1282}},{"id":"MA010120220805748592","name":"미그린인테리어","industry":"인테리어 디자인업","coordinates":[127.410867611456,36.3543452959209],"sales":{"202602":661}},{"id":"MA010120220805748922","name":"유승기획","industry":"복사업","coordinates":[127.424371977941,36.3525858695582],"sales":{"202602":225}},{"id":"MA010120220805749450","name":"대성상회","industry":"중고 상품 소매업","coordinates":[127.411962356773,36.3506737500459],"sales":{"202602":303}},{"id":"MA010120220805749689","name":"대화할인마트","industry":"슈퍼마켓","coordinates":[127.416003413325,36.3626904076802],"sales":{"202602":3633}},{"id":"MA010120220805750345","name":"삼삼카","industry":"자동차 정비소","coordinates":[127.416159209617,36.3459100201511],"sales":{"202602":293}},{"id":"MA010120220805750369","name":"태능생삼겹살","industry":"김밥/만두/분식","coordinates":[127.410867611456,36.3543452959209],"sales":{"202602":448}},{"id":"MA010120220805750420","name":"수작인테리어","industry":"인테리어 디자인업","coordinates":[127.414119914045,36.3562896143549],"sales":{"202602":578}},{"id":"MA010120220805750573","name":"푸른약국","industry":"약국","coordinates":[127.417482107304,36.3620904765753],"sales":{"202602":6103}},{"id":"MA010120220805750606","name":"홍인약국","industry":"약국","coordinates":[127.411235347305,36.3585975676578],"sales":{"202602":3097}},{"id":"MA010120220805750684","name":"행복을나르는사람들","industry":"백반/한정식","coordinates":[127.418022431068,36.3485349457199],"sales":{"202602":363}},{"id":"MA010120220805750922","name":"행운세탁소","industry":"세탁소","coordinates":[127.418771794191,36.3490910498341],"sales":{"202602":168}},{"id":"MA010120220805751146","name":"마니슈퍼","industry":"슈퍼마켓","coordinates":[127.41598095327,36.3542825457409],"sales":{"202602":5923}},{"id":"MA010120220805751298","name":"세븐일레븐편의점","industry":"편의점","coordinates":[127.418647426358,36.3508307509774],"sales":{"202602":1056}},{"id":"MA010120220805751446","name":"그린레져","industry":"스포츠/레크리에이션 용품 대여업","coordinates":[127.406162860304,36.351567741888],"sales":{}},{"id":"MA010120220805751457","name":"쌍용자동차대덕서비스프라자","industry":"자동차 정비소","coordinates":[127.415459752574,36.3568346787314],"sales":{"202602":506}},{"id":"MA010120220805751679","name":"제일추어탕","industry":"국/탕/찌개류","coordinates":[127.415120420011,36.3474816765847],"sales":{"202602":607}},{"id":"MA010120220805752043","name":"세이미용실","industry":"미용실","coordinates":[127.417425228147,36.3514388129771],"sales":{"202602":1043}},{"id":"MA010120220805752467","name":"누리컴퓨터","industry":"컴퓨터/노트북/프린터 수리업","coordinates":[127.417304783722,36.349745027069],"sales":{"202602":930}},{"id":"MA010120220805752923","name":"양지떡고추방앗간","industry":"떡/한과","coordinates":[127.410568903844,36.3589873637731],"sales":{"202602":696}},{"id":"MA010120220805753069","name":"오케이알뜰매장.삼성유통","industry":"중고 상품 소매업","coordinates":[127.409894306926,36.3535736294636],"sales":{"202602":1793}},{"id":"MA010120220805753868","name":"재우진로","industry":"생수/음료 소매업","coordinates":[127.417338193071,36.3539173438394],"sales":{"202602":394}},{"id":"MA010120220805754248","name":"헤스본씨엠티","industry":"자동차 정비소","coordinates":[127.419941818175,36.3512227254902],"sales":{"202602":2365}},{"id":"MA010120220805754460","name":"연출기획","industry":"명함/간판/광고물 제작","coordinates":[127.412101519066,36.3580538797642],"sales":{"202602":197}},{"id":"MA010120220805754601","name":"유창메디칼","industry":"의료기기 소매업","coordinates":[127.4159016191,36.3603116676489],"sales":{"202602":2543}},{"id":"MA010120220805755277","name":"N-통신","industry":"핸드폰 소매업","coordinates":[127.414824187304,36.3588374903275],"sales":{"202602":302}},{"id":"MA010120220805755297","name":"소리꾼노래방","industry":"노래방","coordinates":[127.415921521345,36.3472986561737],"sales":{"202602":553}},{"id":"MA010120220805756223","name":"지드종합광고","industry":"명함/간판/광고물 제작","coordinates":[127.407361400004,36.3528162936427],"sales":{"202602":779}},{"id":"MA010120220805756271","name":"정창환카크리닉","industry":"자동차 정비소","coordinates":[127.412888859314,36.346804515239],"sales":{"202602":5230}},{"id":"MA010120220805756715","name":"연세약국","industry":"약국","coordinates":[127.416071052735,36.3523717445462],"sales":{"202602":4907}},{"id":"MA010120220805757582","name":"모닝글로리","industry":"문구/회화용품 소매업","coordinates":[127.424641728332,36.3509718110736],"sales":{"202602":9037}},{"id":"MA010120220805757971","name":"좋은건축인테리어","industry":"인테리어 디자인업","coordinates":[127.410380734668,36.3507332626625],"sales":{"202602":264}},{"id":"MA010120220805758001","name":"투다리오정１점식당","industry":"요리 주점","coordinates":[127.410454269903,36.3541304348548],"sales":{"202602":229}},{"id":"MA010120220805758104","name":"D.Q24시편의점","industry":"편의점","coordinates":[127.424353158927,36.3511710943412],"sales":{"202602":1660}},{"id":"MA010120220805758244","name":"소문난옛날치킨","industry":"치킨","coordinates":[127.415748204477,36.3628895538128],"sales":{"202602":829}},{"id":"MA010120220805758299","name":"영신공구","industry":"그 외 기타 개인/가정용품 수리업","coordinates":[127.414103964208,36.3490712697883],"sales":{"202602":2969}},{"id":"MA010120220805758875","name":"연건축사사무소","industry":"건축 설계 및 관련 서비스업","coordinates":[127.416439040604,36.3461613741679],"sales":{"202602":2038}},{"id":"MA010120220805758918","name":"삼성신발","industry":"신발 소매업","coordinates":[127.411170774653,36.3590303527725],"sales":{"202602":358}},{"id":"MA010120220805759036","name":"스위트번스커피","industry":"카페","coordinates":[127.422469651632,36.3551519418453],"sales":{"202602":1117}},{"id":"MA010120220805759547","name":"쌍용카크리닉","industry":"자동차 정비소","coordinates":[127.411149839485,36.3486939654979],"sales":{"202602":418}},{"id":"MA010120220805759586","name":"청림복사","industry":"복사업","coordinates":[127.424051199686,36.3509558846638],"sales":{"202602":667}},{"id":"MA010120220805759626","name":"오리고을","industry":"백반/한정식","coordinates":[127.41392035478,36.354370807066],"sales":{"202602":2015}},{"id":"MA010120220805759688","name":"대전발전기","industry":"기타 산업용 기계/장비 대여업","coordinates":[127.413805541501,36.3516226256247],"sales":{"202602":772}},{"id":"MA010120220805760161","name":"프롬엔","industry":"조경 유지·관리 서비스업","coordinates":[127.416254001015,36.3532542573409],"sales":{}},{"id":"MA010120220805760195","name":"대전프린팅한남피오디","industry":"명함/간판/광고물 제작","coordinates":[127.423929830021,36.3511725969248],"sales":{"202602":1789}},{"id":"MA010120220805760410","name":"김동수모터클럽","industry":"자동차 정비소","coordinates":[127.41661420076,36.3455840119928],"sales":{"202602":2899}},{"id":"MA010120220805761297","name":"카젠","industry":"자동차 정비소","coordinates":[127.416997629703,36.3527289840311],"sales":{"202602":2040}},{"id":"MA010120220805761650","name":"장안뜨끈이집","industry":"백반/한정식","coordinates":[127.406733581725,36.35634202057],"sales":{"202602":1092}},{"id":"MA010120220805762022","name":"킴스돈까스","industry":"경양식","coordinates":[127.421401530397,36.3512806688473],"sales":{"202602":2604}},{"id":"MA010120220805762244","name":"킹당구장","industry":"당구장","coordinates":[127.414923592025,36.3544754684001],"sales":{"202602":322}},{"id":"MA010120220805762267","name":"동광전기조명","industry":"전기용품/조명장치 소매업","coordinates":[127.413817139157,36.3496039560732],"sales":{"202602":1093}},{"id":"MA010120220805762598","name":"한국산업경영연구원","industry":"경영 컨설팅업","coordinates":[127.416439040604,36.3461613741679],"sales":{"202602":1689}},{"id":"MA010120220805762869","name":"종합밧데리","industry":"자동차 정비소","coordinates":[127.415093231575,36.3528527672211],"sales":{"202602":186}},{"id":"MA010120220805762978","name":"가장아름다운날이용실","industry":"미용실","coordinates":[127.41274489022,36.3490759717488],"sales":{"202602":928}},{"id":"MA010120220805763201","name":"천북왕순대","industry":"국/탕/찌개류","coordinates":[127.409083341085,36.356144752635],"sales":{"202602":3707}},{"id":"MA010120220805763270","name":"지코바숯불양념치킨","industry":"치킨","coordinates":[127.416742594812,36.3487737211579],"sales":{"202602":876}},{"id":"MA010120220805763484","name":"스타노래방","industry":"노래방","coordinates":[127.408097769542,36.357292612633],"sales":{"202602":471}},{"id":"MA010120220805763551","name":"행운슈퍼","industry":"슈퍼마켓","coordinates":[127.40931631051,36.3559547084457],"sales":{"202602":9732}},{"id":"MA010120220805763871","name":"삼화카센타","industry":"자동차 정비소","coordinates":[127.414692791685,36.3550710439126],"sales":{"202602":4627}},{"id":"MA010120220805763985","name":"마미하우스","industry":"백반/한정식","coordinates":[127.424577137979,36.3513865803398],"sales":{"202602":732}},{"id":"MA010120220805764172","name":"반도유통","industry":"슈퍼마켓","coordinates":[127.424730536264,36.3488627493158],"sales":{"202602":7804}},{"id":"MA010120220805764185","name":"수정쇼파","industry":"그 외 기타 개인/가정용품 수리업","coordinates":[127.416123315848,36.3496319945184],"sales":{"202602":10391}},{"id":"MA010120220805764361","name":"대덕골프","industry":"운동용품 소매업","coordinates":[127.416068947505,36.3582564118958],"sales":{"202602":5975}},{"id":"MA010120220805764523","name":"윤정공인중개사무소","industry":"부동산 중개/대리업","coordinates":[127.40931631051,36.3559547084457],"sales":{"202602":1006}},{"id":"MA010120220805764831","name":"개나리주유소","industry":"주유소","coordinates":[127.411175668751,36.3514875160342],"sales":{"202602":18401}},{"id":"MA010120220805765051","name":"화려한외출미용실","industry":"미용실","coordinates":[127.425111791497,36.3493209921896],"sales":{"202602":663}},{"id":"MA010120220805765200","name":"혜원미용실","industry":"미용실","coordinates":[127.417877032808,36.36301730306],"sales":{"202602":349}},{"id":"MA010120220805765203","name":"신도애니테크","industry":"사무기기 소매업","coordinates":[127.406512942105,36.3524767370547],"sales":{"202602":357}},{"id":"MA010120220805765479","name":"황실노래연습장","industry":"노래방","coordinates":[127.408923155825,36.3574700253505],"sales":{"202602":409}},{"id":"MA010120220805765840","name":"자수친구","industry":"침구류/커튼 소매업","coordinates":[127.41239483536,36.3608555144137],"sales":{"202602":1118}},{"id":"MA010120220805766058","name":"버르장머리","industry":"미용실","coordinates":[127.411113559921,36.354506661183],"sales":{"202602":511}},{"id":"MA010120220805766700","name":"현대슈퍼","industry":"슈퍼마켓","coordinates":[127.418062922394,36.3519412408253],"sales":{"202602":4062}},{"id":"MA010120220805767091","name":"양지세탁소","industry":"세탁소","coordinates":[127.413826809827,36.3598502620415],"sales":{"202602":188}},{"id":"MA010120220805767596","name":"천복권방","industry":"복권 발행/판매업","coordinates":[127.41446737773,36.3587846581966],"sales":{"202602":1067}},{"id":"MA010120220805767703","name":"인덕토목","industry":"건물 및 토목 엔지니어링 서비스업","coordinates":[127.409083341085,36.356144752635],"sales":{}},{"id":"MA010120220805767953","name":"굴세상식당","industry":"해산물 구이/찜","coordinates":[127.410640313312,36.3577344882181],"sales":{"202602":1900}},{"id":"MA010120220805768083","name":"추영재동물병원","industry":"동물병원","coordinates":[127.412684811756,36.3587998399372],"sales":{"202602":1607}},{"id":"MA010120220805768109","name":"양산에어공구","industry":"철물/공구 소매업","coordinates":[127.409349550016,36.353791778549],"sales":{"202602":1714}},{"id":"MA010120220805768377","name":"참조은공인중개사사무소","industry":"부동산 중개/대리업","coordinates":[127.424051199686,36.3509558846638],"sales":{"202602":1569}},{"id":"MA010120220805769074","name":"우신상회","industry":"백반/한정식","coordinates":[127.404982331059,36.3602410361711],"sales":{"202602":970}},{"id":"MA010120220805769088","name":"한성사","industry":"복사업","coordinates":[127.422469651632,36.3551519418453],"sales":{"202602":333}},{"id":"MA010120220805769111","name":"제일카써비스","industry":"자동차 정비소","coordinates":[127.414208472086,36.3498729524378],"sales":{"202602":214}},{"id":"MA010120220805769241","name":"신오정고기마을","industry":"돼지고기 구이/찜","coordinates":[127.409470070346,36.3512770910125],"sales":{"202602":1574}},{"id":"MA010120220805769301","name":"카119모터스","industry":"자동차 정비소","coordinates":[127.413293124387,36.3474159163512],"sales":{"202602":1026}},{"id":"MA010120220805769473","name":"엄지분식식당","industry":"김밥/만두/분식","coordinates":[127.411095159055,36.3573634433014],"sales":{"202602":1164}},{"id":"MA010120220805769702","name":"충청상회","industry":"슈퍼마켓","coordinates":[127.408097769542,36.357292612633],"sales":{"202602":6383}},{"id":"MA010120220805770180","name":"가마골감자탕식당","industry":"국/탕/찌개류","coordinates":[127.417331182133,36.3484292209209],"sales":{"202602":1521}},{"id":"MA010120220805770577","name":"좋은느낌광고기획","industry":"명함/간판/광고물 제작","coordinates":[127.415451933863,36.3595562472845],"sales":{"202602":362}},{"id":"MA010120220805770796","name":"진앤키노","industry":"백반/한정식","coordinates":[127.42494731342,36.3518538746107],"sales":{"202602":1363}},{"id":"MA010120220805770852","name":"드림기획","industry":"광고 대행업","coordinates":[127.414394533158,36.3534499667731],"sales":{"202602":7628}},{"id":"MA010120220805771481","name":"강릉집오부자","industry":"백반/한정식","coordinates":[127.413145791322,36.3553737899347],"sales":{"202602":900}},{"id":"MA010120220805771676","name":"오정불교사","industry":"그 외 기타 상품 전문 소매업","coordinates":[127.408597707306,36.3570205521891],"sales":{"202602":7577}},{"id":"MA010120220805772276","name":"안전119산업","industry":"운동용품 소매업","coordinates":[127.40977770563,36.3525827384239],"sales":{"202602":7064}},{"id":"MA010120220805772536","name":"사랑채식당","industry":"백반/한정식","coordinates":[127.415050712025,36.3469412141348],"sales":{"202602":340}},{"id":"MA010120220805772681","name":"몰리다","industry":"백반/한정식","coordinates":[127.425981891195,36.3515798389746],"sales":{"202602":1289}},{"id":"MA010120220805772782","name":"이산","industry":"건강보조식품 소매업","coordinates":[127.416289600679,36.3494782157868],"sales":{"202602":961}},{"id":"MA010120220805773804","name":"홈마트","industry":"슈퍼마켓","coordinates":[127.416872538092,36.3522517985732],"sales":{"202602":8732}},{"id":"MA010120220805774342","name":"엘지인테리어필름","industry":"인테리어 디자인업","coordinates":[127.411092245039,36.3483336939482],"sales":{"202602":245}},{"id":"MA010120220805774397","name":"빅토리워시","industry":"자동차 세차장","coordinates":[127.410249520434,36.3575736194957],"sales":{"202602":310}},{"id":"MA010120220805774672","name":"용인대수합기도장","industry":"태권도/무술학원","coordinates":[127.415047253337,36.3588817743156],"sales":{"202602":171}},{"id":"MA010120220805774817","name":"우신공인중개사사무소","industry":"부동산 중개/대리업","coordinates":[127.407386533203,36.3555017050443],"sales":{"202602":643}},{"id":"MA010120220805774971","name":"큐모텔","industry":"여관/모텔","coordinates":[127.41392035478,36.354370807066],"sales":{"202602":1250}},{"id":"MA010120220805774978","name":"진주카센타","industry":"자동차 정비소","coordinates":[127.413624347604,36.3447472937644],"sales":{"202602":4065}},{"id":"MA010120220805774981","name":"예인공인중개사사무소","industry":"부동산 중개/대리업","coordinates":[127.426034352006,36.3509848775621],"sales":{"202602":1865}},{"id":"MA010120220805776076","name":"김용락세무회계사무소","industry":"세무사","coordinates":[127.415247119983,36.3482652579372],"sales":{"202602":704}},{"id":"MA010120220805776142","name":"쿨마트","industry":"슈퍼마켓","coordinates":[127.407974315141,36.3528502495434],"sales":{"202602":12697}},{"id":"MA010120220805777002","name":"대복민반점","industry":"중국집","coordinates":[127.409239165237,36.3582439521417],"sales":{"202602":1924}},{"id":"MA010120220805777102","name":"유미헤어","industry":"미용실","coordinates":[127.4159016191,36.3603116676489],"sales":{"202602":448}},{"id":"MA010120220805777212","name":"씨유","industry":"편의점","coordinates":[127.425786912078,36.3505531962684],"sales":{"202602":2714}},{"id":"MA010120220805777518","name":"옹기내숯","industry":"주방/가정용품 소매업","coordinates":[127.414642054043,36.3581081726858],"sales":{"202602":1628}},{"id":"MA010120220805778330","name":"대한고려홍삼","industry":"건강보조식품 소매업","coordinates":[127.416790039896,36.3514049832156],"sales":{"202602":4175}},{"id":"MA010120220805778492","name":"비단강","industry":"전시/컨벤션/행사 대행 서비스업","coordinates":[127.414592831963,36.3488262576867],"sales":{"202602":1806}},{"id":"MA010120220805778738","name":"합동전재","industry":"전기용품/조명장치 소매업","coordinates":[127.410018117279,36.3516897517436],"sales":{"202602":225}},{"id":"MA010120220805778862","name":"연진기획","industry":"명함/간판/광고물 제작","coordinates":[127.40869423227,36.3499099625374],"sales":{"202602":780}},{"id":"MA010120220805779137","name":"매점","industry":"슈퍼마켓","coordinates":[127.406733581725,36.35634202057],"sales":{"202602":9916}},{"id":"MA010120220805779234","name":"J모터스","industry":"자동차 정비소","coordinates":[127.416571024309,36.358389838419],"sales":{"202602":656}},{"id":"MA010120220805779257","name":"샘물마트","industry":"슈퍼마켓","coordinates":[127.407023081643,36.3541692069636],"sales":{"202602":10456}},{"id":"MA010120220805779556","name":"한라모터스","industry":"자동차 정비소","coordinates":[127.410444808376,36.3523281202441],"sales":{"202602":1071}},{"id":"MA010120220805779839","name":"양지공인중개사사무소","industry":"부동산 중개/대리업","coordinates":[127.414170142721,36.3594615682736],"sales":{"202602":1133}},{"id":"MA010120220805780515","name":"한미카페트","industry":"침구류/커튼 소매업","coordinates":[127.409319572177,36.3544497378672],"sales":{"202602":1065}},{"id":"MA010120220805780759","name":"삼통카센타","industry":"자동차 세차장","coordinates":[127.414728235799,36.3470504746489],"sales":{"202602":383}},{"id":"MA010120220805781632","name":"대전건축자재","industry":"기타 건설/건축자재 소매업","coordinates":[127.417890215556,36.3529781943632],"sales":{"202602":56}},{"id":"MA010120220805782272","name":"전통식당","industry":"백반/한정식","coordinates":[127.417515966876,36.345481735623],"sales":{"202602":753}},{"id":"MA010120220805782338","name":"우상","industry":"핸드폰 소매업","coordinates":[127.421401530397,36.3512806688473],"sales":{"202602":93}},{"id":"MA010120220805783160","name":"예쁜수선","industry":"의류/이불 수선업","coordinates":[127.411293424581,36.3590479541011],"sales":{"202602":169}},{"id":"MA010120220805783177","name":"아름도배방","industry":"벽지/장판/마루 소매업","coordinates":[127.417618319035,36.3521320419228],"sales":{"202602":428}},{"id":"MA010120220805783813","name":"샤론헤어","industry":"미용실","coordinates":[127.419297111141,36.349413630329],"sales":{"202602":245}},{"id":"MA010120220805783868","name":"화인오피스","industry":"문구/회화용품 소매업","coordinates":[127.409735037607,36.3550701235684],"sales":{"202602":1688}},{"id":"MA010120220805783879","name":"강인천막기업","industry":"기타 개인/가정용품 대여업","coordinates":[127.410674731049,36.3579236162294],"sales":{"202602":149}},{"id":"MA010120220805783899","name":"대전금자탑애드텍","industry":"광고 대행업","coordinates":[127.419016742922,36.3511448672824],"sales":{"202602":3202}},{"id":"MA010120220805784144","name":"세덴，자동차외형복원대전농수산물점","industry":"자동차 정비소","coordinates":[127.413475608346,36.3587520473956],"sales":{"202602":860}},{"id":"MA010120220805784229","name":"새로맛청림식당","industry":"백반/한정식","coordinates":[127.424527405817,36.3524861884166],"sales":{"202602":889}},{"id":"MA010120220805784364","name":"광팔이식당","industry":"요리 주점","coordinates":[127.414234603575,36.3590107585534],"sales":{"202602":659}},{"id":"MA010120220805784410","name":"대전실사","industry":"광고 대행업","coordinates":[127.41484622832,36.3524931556067],"sales":{"202602":3231}},{"id":"MA010120220805784614","name":"가인피부샵","industry":"피부 관리실","coordinates":[127.426214953087,36.3514167967242],"sales":{"202602":301}},{"id":"MA010120220805784888","name":"동글동글주먹밥","industry":"김밥/만두/분식","coordinates":[127.424208286994,36.3511625969914],"sales":{"202602":803}},{"id":"MA010120220805784995","name":"우리음향","industry":"가전제품 소매업","coordinates":[127.418139377043,36.362070154745],"sales":{"202602":1014}},{"id":"MA010120220805785335","name":"현일썬팅","industry":"자동차 정비소","coordinates":[127.414378308448,36.3482862972978],"sales":{"202602":1934}},{"id":"MA010120220805785412","name":"옥경이식당","industry":"국수/칼국수","coordinates":[127.416347924154,36.3541551034041],"sales":{"202602":552}},{"id":"MA010120220805785658","name":"유황돼지촌","industry":"돼지고기 구이/찜","coordinates":[127.415921521345,36.3472986561737],"sales":{"202602":2138}},{"id":"MA010120220805785893","name":"박보정다옴필라테스요가","industry":"요가/필라테스 학원","coordinates":[127.425369322294,36.3516090563283],"sales":{"202602":374}},{"id":"MA010120220805786137","name":"멕시카나치킨","industry":"치킨","coordinates":[127.412656164745,36.3554836226336],"sales":{"202602":464}},{"id":"MA010120220805786262","name":"오정안전철물","industry":"철물/공구 소매업","coordinates":[127.408623854875,36.3534968751243],"sales":{"202602":3161}},{"id":"MA010120220805786512","name":"주아뷰티","industry":"화장품 소매업","coordinates":[127.414824187304,36.3588374903275],"sales":{"202602":606}},{"id":"MA010120220805786980","name":"한남유학","industry":"기타 교육지원 서비스업","coordinates":[127.420756171514,36.3514271307336],"sales":{"202602":822}},{"id":"MA010120220805787140","name":"맥시칸","industry":"치킨","coordinates":[127.410419949069,36.3539593297899],"sales":{"202602":1447}},{"id":"MA010120220805787220","name":"한밭노래연습장","industry":"노래방","coordinates":[127.420756171514,36.3514271307336],"sales":{"202602":755}},{"id":"MA010120220805787254","name":"한밭사무용가구","industry":"명함/간판/광고물 제작","coordinates":[127.414592831963,36.3488262576867],"sales":{"202602":447}},{"id":"MA010120220805787905","name":"산타클로스안경","industry":"안경렌즈 소매업","coordinates":[127.410093703255,36.3533566636597],"sales":{"202602":587}},{"id":"MA010120220805788218","name":"청림공인중개사사무소","industry":"부동산 중개/대리업","coordinates":[127.425921722786,36.3507599857198],"sales":{"202602":1705}},{"id":"MA010120220805788982","name":"여행숲","industry":"여행사","coordinates":[127.419071961135,36.3510545562858],"sales":{"202602":645}},{"id":"MA010120220805789150","name":"이미지플러스","industry":"사진촬영업","coordinates":[127.42490919119,36.3509888837793],"sales":{"202602":355}},{"id":"MA010120220805790231","name":"성실인력","industry":"고용 알선업","coordinates":[127.415875722214,36.3512549692746],"sales":{"202602":9469}},{"id":"MA010120220805790457","name":"따뜻한엄마밥상","industry":"백반/한정식","coordinates":[127.413889994986,36.3465306996806],"sales":{"202602":1753}},{"id":"MA010120220805790699","name":"뽐","industry":"여성 의류 소매업","coordinates":[127.410647887566,36.3591763386075],"sales":{"202602":128}},{"id":"MA010120220805790736","name":"한신공구상사","industry":"철물/공구 소매업","coordinates":[127.409466952695,36.3528090970991],"sales":{"202602":760}},{"id":"MA010120220805790934","name":"티정보","industry":"핸드폰 소매업","coordinates":[127.410765072514,36.3539130852183],"sales":{"202602":84}},{"id":"MA010120220805791084","name":"이마트24R대전","industry":"편의점","coordinates":[127.409754780935,36.3588369590842],"sales":{"202602":2191}},{"id":"MA010120220805791258","name":"한국타일위생기","industry":"건설/건축자재 소매업","coordinates":[127.410532843465,36.3521205478713],"sales":{"202602":23}},{"id":"MA010120220805791968","name":"한남공인중개사사무소","industry":"부동산 중개/대리업","coordinates":[127.419297111141,36.349413630329],"sales":{"202602":1286}},{"id":"MA010120220805792402","name":"신화랑닭발","industry":"치킨","coordinates":[127.418938230152,36.3510460134718],"sales":{"202602":694}},{"id":"MA010120220805792608","name":"별밤7080","industry":"일반 유흥 주점","coordinates":[127.414981963778,36.3486807191285],"sales":{"202602":619}},{"id":"MA010120220805792891","name":"산고을","industry":"건강보조식품 소매업","coordinates":[127.422469651632,36.3551519418453],"sales":{"202602":1509}},{"id":"MA010120220805793047","name":"대전포장상사","industry":"침구류/커튼 소매업","coordinates":[127.41479516489,36.351267736763],"sales":{"202602":353}},{"id":"MA010120220805793053","name":"비앤제이휘트니스","industry":"헬스장","coordinates":[127.412684811756,36.3587998399372],"sales":{"202602":1075}},{"id":"MA010120220805793085","name":"청명공인중개사사무소","industry":"부동산 중개/대리업","coordinates":[127.41484622832,36.3524931556067],"sales":{"202602":1853}},{"id":"MA010120220805793504","name":"비단소리","industry":"의류 대여업","coordinates":[127.415790559909,36.3582844161386],"sales":{"202602":1691}},{"id":"MA010120220805794168","name":"즐거운노래연습장","industry":"노래방","coordinates":[127.410979444845,36.3544260169346],"sales":{"202602":679}},{"id":"MA010120220805794319","name":"디엠패션","industry":"기타 의류 소매업","coordinates":[127.414094310421,36.3535591483635],"sales":{"202602":1221}},{"id":"MA010120220805794693","name":"영메디칼","industry":"가전제품 소매업","coordinates":[127.412995921436,36.3480928245827],"sales":{"202602":899}},{"id":"MA010120220805794804","name":"업소명없음","industry":"운동용품 소매업","coordinates":[127.412917159053,36.3606013822152],"sales":{"202602":1715}},{"id":"MA010120220805794807","name":"서강세탁소","industry":"세탁소","coordinates":[127.40626110981,36.3511799030881],"sales":{"202602":69}},{"id":"MA010120220805794856","name":"가람전기조명","industry":"전기용품/조명장치 소매업","coordinates":[127.410122807225,36.3567810222729],"sales":{"202602":432}},{"id":"MA010120220805794917","name":"피자헤븐","industry":"카페","coordinates":[127.424893668515,36.3522325581309],"sales":{"202602":823}},{"id":"MA010120220805794930","name":"에치와이","industry":"우유 소매업","coordinates":[127.413012672417,36.3554823909066],"sales":{"202602":150}},{"id":"MA010120220805795040","name":"공간공인중개사사무소","industry":"부동산 중개/대리업","coordinates":[127.409256651329,36.3530711579088],"sales":{"202602":4454}},{"id":"MA010120220805795386","name":"푸른가정의원","industry":"기타 의원","coordinates":[127.417225509172,36.3620282908462],"sales":{"202602":3790}},{"id":"MA010120220805795390","name":"한솥도시락한남대후문앞점","industry":"백반/한정식","coordinates":[127.425204472124,36.3520241827377],"sales":{"202602":1285}},{"id":"MA010120220805795403","name":"미건의료기오정지점","industry":"의료기기 소매업","coordinates":[127.414824187304,36.3588374903275],"sales":{"202602":1643}},{"id":"MA010120220805795412","name":"오늘은닭","industry":"돼지고기 구이/찜","coordinates":[127.425869801149,36.3514540742485],"sales":{"202602":1174}},{"id":"MA010120220805795789","name":"맘스터치","industry":"버거","coordinates":[127.424893668515,36.3522325581309],"sales":{"202602":2118}},{"id":"MA010120220805795839","name":"덕이식당","industry":"백반/한정식","coordinates":[127.415312655698,36.3459219769769],"sales":{"202602":845}},{"id":"MA010120220805795858","name":"효성공인중개사사무소","industry":"부동산 중개/대리업","coordinates":[127.410131694915,36.3521039019066],"sales":{"202602":1278}},{"id":"MA010120220805796334","name":"고수","industry":"기타 개인/가정용품 대여업","coordinates":[127.412839563565,36.3543475108691],"sales":{"202602":129}},{"id":"MA010120220805810986","name":"상원개발","industry":"건축물 일반 청소업","coordinates":[127.412684811756,36.3587998399372],"sales":{"202602":489}},{"id":"MA010120220805811652","name":"대현주","industry":"화장터/묘지/납골당","coordinates":[127.413889994986,36.3465306996806],"sales":{"202602":638}},{"id":"MA010120220805812462","name":"일오삼산업개발주","industry":"사업시설 유지·관리 서비스업","coordinates":[127.416289600679,36.3494782157868],"sales":{"202602":743}},{"id":"MA010120220805812664","name":"다원축산유통","industry":"정육점","coordinates":[127.410566584633,36.3585457971102],"sales":{"202602":9851}},{"id":"MA010120220805813615","name":"크로스파워","industry":"건축물 일반 청소업","coordinates":[127.416289600679,36.3494782157868],"sales":{"202602":358}},{"id":"MA010120220805814884","name":"대전총신평생교육원","industry":"사회교육시설","coordinates":[127.416439040604,36.3461613741679],"sales":{"202602":967}},{"id":"MA010120220805814960","name":"한남교육사랑","industry":"입시·교과학원","coordinates":[127.422469651632,36.3551519418453],"sales":{"202602":2917}},{"id":"MA010120220805815327","name":"대전광역시오정농수산물도매시장관리사업소","industry":"사업시설 유지·관리 서비스업","coordinates":[127.406451224885,36.3577488114262],"sales":{"202602":521}},{"id":"MA010120220805815489","name":"세븐오정점주","industry":"편의점","coordinates":[127.410093703255,36.3533566636597],"sales":{"202602":3817}},{"id":"MA010120220805815512","name":"서연세무법인","industry":"세무사","coordinates":[127.417761515772,36.345570994922],"sales":{"202602":832}},{"id":"MA010120220805815612","name":"한울회계법인","industry":"공인회계사","coordinates":[127.412684811756,36.3587998399372],"sales":{"202602":376}},{"id":"MA010120220805815816","name":"세무법인한밭","industry":"세무사","coordinates":[127.414824187304,36.3588374903275],"sales":{"202602":1325}},{"id":"MA010120220805816009","name":"연정에스에스주유소","industry":"주유소","coordinates":[127.411867363268,36.3580186402131],"sales":{"202602":22059}},{"id":"MA010120220805816497","name":"파란세상주","industry":"건축물 일반 청소업","coordinates":[127.416123315848,36.3496319945184],"sales":{"202602":316}},{"id":"MA010120220805816822","name":"세미환경주","industry":"소독, 구충 및 방제 서비스업","coordinates":[127.416715100743,36.3624265877649],"sales":{"202602":194}},{"id":"MA010120220805816838","name":"정상주","industry":"소독, 구충 및 방제 서비스업","coordinates":[127.415045168131,36.34799560728],"sales":{"202602":219}},{"id":"MA010120220805817324","name":"법인천강제약","industry":"건강보조식품 소매업","coordinates":[127.410941930727,36.3578866506531],"sales":{"202602":3050}},{"id":"MA010120220805817585","name":"비엔비","industry":"명함/간판/광고물 제작","coordinates":[127.414539062574,36.3449874414219],"sales":{"202602":466}},{"id":"MA010120220805818095","name":"아이티비","industry":"기타 의류 소매업","coordinates":[127.41747982292,36.3512313523234],"sales":{"202602":1583}},{"id":"MA010120220805818129","name":"연정","industry":"주유소","coordinates":[127.41128697634,36.3578223813653],"sales":{"202602":35245}},{"id":"MA010120220805818422","name":"예스잡라이프","industry":"임시/일용 인력 공급업","coordinates":[127.410566584633,36.3585457971102],"sales":{"202602":53254}},{"id":"MA010120220805824271","name":"한일전기조명상사","industry":"전기용품/조명장치 소매업","coordinates":[127.415434788594,36.350039918437],"sales":{"202602":370}},{"id":"MA010120220805824696","name":"한국산업볼트","industry":"철물/공구 소매업","coordinates":[127.415254058734,36.3495719361835],"sales":{"202602":1138}},{"id":"MA010120220805824706","name":"금오적재함카","industry":"자동차 정비소","coordinates":[127.416164410352,36.3594456271615],"sales":{"202602":198}},{"id":"MA010120220805824912","name":"대동카서비스","industry":"자동차 정비소","coordinates":[127.406582349893,36.3508273526334],"sales":{"202602":679}},{"id":"MA010120220805825133","name":"삼원전기온돌판넬","industry":"전기용품/조명장치 소매업","coordinates":[127.416970622531,36.3476644815819],"sales":{"202602":451}},{"id":"MA010120220805825761","name":"닥터카글라스","industry":"자동차 정비소","coordinates":[127.415531600615,36.3598713805961],"sales":{"202602":408}},{"id":"MA010120220805826225","name":"현대시트지앤필름","industry":"벽지/장판/마루 소매업","coordinates":[127.413951631389,36.3581736486891],"sales":{"202602":369}},{"id":"MA010120220805826562","name":"황해면옥식당","industry":"냉면/밀면","coordinates":[127.414371623399,36.3470246765149],"sales":{"202602":1736}},{"id":"MA010120220805826736","name":"은하미용실","industry":"미용실","coordinates":[127.409791072302,36.3551330135416],"sales":{"202602":399}},{"id":"MA010120220805827068","name":"대전아크릴","industry":"명함/간판/광고물 제작","coordinates":[127.411149839485,36.3486939654979],"sales":{"202602":294}},{"id":"MA010120220805827153","name":"헤어21C","industry":"미용실","coordinates":[127.42490919119,36.3509888837793],"sales":{"202602":340}},{"id":"MA010120220805828061","name":"코콤대전센터","industry":"그 외 기타 개인/가정용품 수리업","coordinates":[127.413779075904,36.3466212012395],"sales":{"202602":2280}},{"id":"MA010120220805828276","name":"금호목욕탕，여관","industry":"목욕탕/사우나","coordinates":[127.414642918631,36.3561706481123],"sales":{"202602":1896}},{"id":"MA010120220805828300","name":"김영중세무사무소","industry":"세무사","coordinates":[127.413387870958,36.3505877214318],"sales":{"202602":887}},{"id":"MA010120220805828367","name":"한양사","industry":"복사업","coordinates":[127.422469651632,36.3551519418453],"sales":{"202602":339}},{"id":"MA010120220805828408","name":"법무사","industry":"법무사","coordinates":[127.417660923883,36.3455082643206],"sales":{}},{"id":"MA010120220805828410","name":"법무사","industry":"법무사","coordinates":[127.417660923883,36.3455082643206],"sales":{}},{"id":"MA010120220805828632","name":"한양종합상사","industry":"철물/공구 소매업","coordinates":[127.415218054746,36.3490854273433],"sales":{"202602":1099}},{"id":"MA010120220805828704","name":"남광카서비스","industry":"자동차 정비소","coordinates":[127.41459916724,36.3563239993311],"sales":{"202602":1116}},{"id":"MA010120220805828975","name":"호재건축사사무소아트레이저","industry":"건축 설계 및 관련 서비스업","coordinates":[127.408705772305,36.3521177992392],"sales":{"202602":1079}},{"id":"MA010120220805829086","name":"신화공인중개사사무소","industry":"부동산 중개/대리업","coordinates":[127.424208286994,36.3511625969914],"sales":{"202602":943}},{"id":"MA010120220805829090","name":"스튜디오포토뷰","industry":"사진촬영업","coordinates":[127.411937392312,36.3586221845391],"sales":{"202602":922}},{"id":"MA010120220805829448","name":"대화생돼지석쇠구이","industry":"돼지고기 구이/찜","coordinates":[127.416003413325,36.3626904076802],"sales":{"202602":2100}},{"id":"MA010120220805835562","name":"고려사","industry":"예술품 소매업","coordinates":[127.405822009364,36.3502892327942],"sales":{"202602":56}},{"id":"MA010120220805846535","name":"정관장","industry":"건강보조식품 소매업","coordinates":[127.412101519066,36.3580538797642],"sales":{"202602":1009}},{"id":"MA010120220805848051","name":"동원유리","industry":"기타 건설/건축자재 소매업","coordinates":[127.411186900372,36.3536232588931],"sales":{"202602":74}},{"id":"MA010120220805849056","name":"PC장터","industry":"컴퓨터/노트북/프린터 수리업","coordinates":[127.416763866042,36.3485844004288],"sales":{"202602":824}},{"id":"MA010120220805849084","name":"하나계기상사","industry":"사진기/기타 광학기기 소매업","coordinates":[127.413357451685,36.3511555661622],"sales":{"202602":157}},{"id":"MA010120220805849443","name":"놀부네설렁탕","industry":"국/탕/찌개류","coordinates":[127.412480193101,36.3559167933151],"sales":{"202602":697}},{"id":"MA010120220805850415","name":"임정헤어칼라","industry":"미용실","coordinates":[127.414170142721,36.3594615682736],"sales":{"202602":253}},{"id":"MA010120220805850503","name":"동이약국","industry":"약국","coordinates":[127.414735633931,36.3547464728836],"sales":{"202602":6953}},{"id":"MA010120220805851125","name":"락희미용실","industry":"미용실","coordinates":[127.417125569696,36.3620917218306],"sales":{"202602":765}},{"id":"MA010120220805851127","name":"현대문구","industry":"문구/회화용품 소매업","coordinates":[127.413077376047,36.3571853842114],"sales":{"202602":3932}},{"id":"MA010120220805851131","name":"한남이용원","industry":"미용실","coordinates":[127.416865614141,36.3488634094724],"sales":{"202602":1078}},{"id":"MA010120220805851138","name":"중앙복사","industry":"복사업","coordinates":[127.420756171514,36.3514271307336],"sales":{"202602":494}},{"id":"MA010120220805851157","name":"엄마랑미용실","industry":"미용실","coordinates":[127.411725694893,36.356505157976],"sales":{"202602":474}},{"id":"MA010120220805851163","name":"일성차써비스","industry":"자동차 정비소","coordinates":[127.416340150203,36.3526952297041],"sales":{"202602":2242}},{"id":"MA010120220805851166","name":"중앙자전거","industry":"자전거 소매업","coordinates":[127.415214373524,36.3588811936855],"sales":{"202602":285}},{"id":"MA010120220805851179","name":"전진사","industry":"자동차 정비소","coordinates":[127.414658122444,36.3569365923274],"sales":{"202602":1282}},{"id":"MA010120220805851185","name":"논산이용원","industry":"미용실","coordinates":[127.413092229806,36.3557795030167],"sales":{"202602":306}},{"id":"MA010120220805851194","name":"오정라디에터","industry":"자동차 정비소","coordinates":[127.40692607657,36.3526555656264],"sales":{"202602":1130}},{"id":"MA010120220805851197","name":"동양포토","industry":"사진촬영업","coordinates":[127.416998371623,36.3466009991402],"sales":{"202602":360}},{"id":"MA010120220805851247","name":"태광금속","industry":"명함/간판/광고물 제작","coordinates":[127.40903900896,36.3498006419674],"sales":{"202602":712}},{"id":"MA010120220805851261","name":"시민열쇠","industry":"그 외 기타 개인/가정용품 수리업","coordinates":[127.417046620977,36.3452040103951],"sales":{"202602":1551}},{"id":"MA010120220805851279","name":"학생문구점","industry":"문구/회화용품 소매업","coordinates":[127.412689768364,36.3576282982692],"sales":{"202602":10796}},{"id":"MA010120220805851288","name":"낙원떡집","industry":"떡/한과","coordinates":[127.407940904393,36.3592577051682],"sales":{"202602":1842}},{"id":"MA010120220805851309","name":"두리두리식당","industry":"백반/한정식","coordinates":[127.420756171514,36.3514271307336],"sales":{"202602":1167}},{"id":"MA010120220805851311","name":"우리미용실","industry":"미용실","coordinates":[127.413823517996,36.3592284644232],"sales":{"202602":638}},{"id":"MA010120220805851314","name":"영진공인중개사사무소","industry":"부동산 중개/대리업","coordinates":[127.413539963468,36.3561744704323],"sales":{"202602":1266}},{"id":"MA010120220805851324","name":"백조미용실","industry":"미용실","coordinates":[127.416763866042,36.3485844004288],"sales":{"202602":574}},{"id":"MA010120220805851361","name":"종합보일러","industry":"철물/공구 소매업","coordinates":[127.413586291273,36.3565077440898],"sales":{"202602":1252}},{"id":"MA010120220805851364","name":"청운반점식당","industry":"중국집","coordinates":[127.41029305119,36.3531306859488],"sales":{"202602":1247}},{"id":"MA010120220805851382","name":"한일기전","industry":"전기용품/조명장치 소매업","coordinates":[127.417669731157,36.3471573825916],"sales":{"202602":338}},{"id":"MA010120220805851406","name":"캠퍼스문구센타","industry":"문구/회화용품 소매업","coordinates":[127.420756171514,36.3514271307336],"sales":{"202602":8249}},{"id":"MA010120220805851420","name":"수정미용타운","industry":"미용실","coordinates":[127.419805777147,36.348708928807],"sales":{"202602":868}},{"id":"MA010120220805851500","name":"종합카써비스","industry":"자동차 정비소","coordinates":[127.419024695891,36.3505500648052],"sales":{"202602":4051}},{"id":"MA010120220805851517","name":"아리랑스튜디오","industry":"사진촬영업","coordinates":[127.406461887356,36.3555138656751],"sales":{"202602":184}},{"id":"MA010120220805851520","name":"세실약국","industry":"약국","coordinates":[127.413865436702,36.3566239300365],"sales":{"202602":3412}},{"id":"MA010120220805851529","name":"우리카센타","industry":"자동차 정비소","coordinates":[127.415445258391,36.3499137176955],"sales":{"202602":1509}},{"id":"MA010120220805851532","name":"경원카센타","industry":"자동차 정비소","coordinates":[127.409441737586,36.3586307624678],"sales":{"202602":2885}},{"id":"MA010120220805851536","name":"정성카서비스","industry":"자동차 정비소","coordinates":[127.41128697634,36.3578223813653],"sales":{"202602":2044}},{"id":"MA010120220805851540","name":"조일밧데리","industry":"자동차 정비소","coordinates":[127.411548007978,36.3566139108686],"sales":{"202602":477}},{"id":"MA010120220805851693","name":"계룡디자인","industry":"침구류/커튼 소매업","coordinates":[127.411492344662,36.3545053573578],"sales":{"202602":550}},{"id":"MA010120220805851730","name":"선일시스템","industry":"기타 산업용 기계/장비 대여업","coordinates":[127.410168929214,36.3507069546535],"sales":{"202602":921}},{"id":"MA010120220805851753","name":"한남건설인테리어","industry":"인테리어 디자인업","coordinates":[127.424574284032,36.3488092341554],"sales":{"202602":478}},{"id":"MA010120220805851762","name":"한남볼링쎈타","industry":"볼링장","coordinates":[127.416145630331,36.3517316516351],"sales":{"202602":1195}},{"id":"MA010120220805851770","name":"가경화원","industry":"꽃집","coordinates":[127.412138744335,36.3545481882603],"sales":{"202602":365}},{"id":"MA010120220805851781","name":"지운공인중개사사무소","industry":"부동산 중개/대리업","coordinates":[127.410496234991,36.3578791709437],"sales":{"202602":783}},{"id":"MA010120220805851784","name":"금강공구","industry":"철물/공구 소매업","coordinates":[127.414996116585,36.3492484096256],"sales":{"202602":1032}},{"id":"MA010120220805851792","name":"이레중전기","industry":"전기용품/조명장치 소매업","coordinates":[127.41227115009,36.3543044147085],"sales":{"202602":737}},{"id":"MA010120220805852134","name":"세진약국","industry":"약국","coordinates":[127.411938484553,36.3588294504895],"sales":{"202602":2319}},{"id":"MA010120220805852144","name":"선명이용원","industry":"미용실","coordinates":[127.410568903844,36.3589873637731],"sales":{"202602":185}},{"id":"MA010120220805852203","name":"평양치킨","industry":"치킨","coordinates":[127.414479856958,36.3590369432263],"sales":{"202602":160}},{"id":"MA010120220805856195","name":"윤광택","industry":"자동차 세차장","coordinates":[127.415531600615,36.3598713805961],"sales":{"202602":69}},{"id":"MA010120220805856869","name":"거북슈퍼","industry":"슈퍼마켓","coordinates":[127.414366030714,36.3543782741338],"sales":{"202602":3950}},{"id":"MA010120220805857557","name":"아트피플","industry":"명함/간판/광고물 제작","coordinates":[127.417908994784,36.350238561112],"sales":{"202602":154}},{"id":"MA010120220805860108","name":"명성기업","industry":"명함/간판/광고물 제작","coordinates":[127.413603892529,36.3471985593083],"sales":{"202602":684}},{"id":"MA010120220805860182","name":"한남빅마트","industry":"슈퍼마켓","coordinates":[127.42591342959,36.3512826958247],"sales":{"202602":25179}},{"id":"MA010120220805860413","name":"애니카랜드","industry":"자동차 정비소","coordinates":[127.414917954246,36.3576115699476],"sales":{"202602":1804}},{"id":"MA010120220805860416","name":"대일카","industry":"자동차 정비소","coordinates":[127.406627594398,36.3552429498749],"sales":{"202602":4212}},{"id":"MA010120220805860417","name":"태광카써비스쎈타","industry":"자동차 정비소","coordinates":[127.41479702719,36.3579183885319],"sales":{"202602":3435}},{"id":"MA010120220805860431","name":"일일분식","industry":"김밥/만두/분식","coordinates":[127.418616900481,36.3513715620773],"sales":{"202602":804}},{"id":"MA010120220805860436","name":"우성오토바이","industry":"모터사이클 및 부품 소매업","coordinates":[127.415895290095,36.3591221421184],"sales":{"202602":1290}},{"id":"MA010120220805860446","name":"대영사","industry":"자동차 부품 소매업","coordinates":[127.415371470972,36.3548974637229],"sales":{"202602":1490}},{"id":"MA010120220805860482","name":"한남프라자안경원","industry":"안경렌즈 소매업","coordinates":[127.416801268957,36.3472415205105],"sales":{"202602":2142}},{"id":"MA010120220805861718","name":"광덕부동산중개인사무소","industry":"부동산 중개/대리업","coordinates":[127.410106640024,36.3536990651988],"sales":{"202602":1698}},{"id":"MA010120220805862658","name":"대륭개발","industry":"건축물 일반 청소업","coordinates":[127.417660923883,36.3455082643206],"sales":{"202602":302}},{"id":"MA010120220805862866","name":"대조건기주","industry":"건설기계/장비 대여업","coordinates":[127.416642528749,36.3467193929858],"sales":{"202602":577}},{"id":"MA010120220805863193","name":"보성중기주","industry":"건설기계/장비 대여업","coordinates":[127.414174169844,36.3581188071515],"sales":{"202602":511}},{"id":"MA010120220805863647","name":"학교법인대전기독학원","industry":"교육컨설팅업","coordinates":[127.422469651632,36.3551519418453],"sales":{"202602":1596}},{"id":"MA010120220805863696","name":"학교법인대전신학대학교","industry":"기타 교육지원 서비스업","coordinates":[127.424021296028,36.3495501600623],"sales":{"202602":801}},{"id":"MA010120220805863718","name":"대전병원","industry":"일반병원","coordinates":[127.417774346983,36.3625670762224],"sales":{"202602":3970}},{"id":"MA010120220805863734","name":"한남신용협동조합","industry":"편의점","coordinates":[127.420756171514,36.3514271307336],"sales":{"202602":1979}},{"id":"MA010120220805863747","name":"대전가농","industry":"슈퍼마켓","coordinates":[127.413429611799,36.347947137059],"sales":{"202602":3630}},{"id":"MA010120220805864070","name":"중도석유오정동주유소주","industry":"주유소","coordinates":[127.415436560583,36.3566635365251],"sales":{"202602":21790}},{"id":"MA010120220805884034","name":"웨스트우드","industry":"기타 의류 소매업","coordinates":[127.411012236793,36.3585442649677],"sales":{"202602":838}},{"id":"MA010120220805888925","name":"한빛가스상사경동나비엔대덕","industry":"철물/공구 소매업","coordinates":[127.410093703255,36.3533566636597],"sales":{"202602":779}},{"id":"MA010120220805912672","name":"물감세상","industry":"기타 기술/직업 훈련학원","coordinates":[127.418787470748,36.3499380982949],"sales":{"202602":1713}},{"id":"MA010120220805916250","name":"디피","industry":"명함/간판/광고물 제작","coordinates":[127.417331182133,36.3484292209209],"sales":{"202602":684}},{"id":"MA010120220805961655","name":"신골목통신","industry":"핸드폰 소매업","coordinates":[127.412357862472,36.358071018831],"sales":{"202602":488}},{"id":"MA010120220805973435","name":"미미헤어","industry":"미용실","coordinates":[127.410647887566,36.3591763386075],"sales":{"202602":619}},{"id":"MA010120220805990759","name":"수정탕","industry":"목욕탕/사우나","coordinates":[127.414174169844,36.3581188071515],"sales":{"202602":3438}},{"id":"MA010120220805991248","name":"산들","industry":"백반/한정식","coordinates":[127.415531823562,36.3473360588562],"sales":{"202602":1148}},{"id":"MA010120220805993940","name":"기아시트","industry":"자동차 세차장","coordinates":[127.414119914045,36.3562896143549],"sales":{"202602":535}},{"id":"MA010120220805994728","name":"해요","industry":"카페","coordinates":[127.410532843465,36.3521205478713],"sales":{"202602":625}},{"id":"MA010120220806119716","name":"루나디자인","industry":"명함/간판/광고물 제작","coordinates":[127.408351101724,36.3503346874179],"sales":{"202602":501}},{"id":"MA010120220806171277","name":"신대덕자동차공업사","industry":"자동차 정비소","coordinates":[127.414946344484,36.3482663027243],"sales":{"202602":1560}},{"id":"MA010120220806171697","name":"오정상회","industry":"슈퍼마켓","coordinates":[127.40958968915,36.357098261482],"sales":{"202602":10596}},{"id":"MA010120220806172233","name":"범양산업","industry":"가전제품 소매업","coordinates":[127.41423154689,36.3521258068572],"sales":{"202602":396}},{"id":"MA010120220806172898","name":"보성중기","industry":"건설기계/장비 대여업","coordinates":[127.414174169844,36.3581188071515],"sales":{"202602":698}},{"id":"MA010120220806173743","name":"두아름마트","industry":"슈퍼마켓","coordinates":[127.411638664831,36.3590197300318],"sales":{"202602":14761}},{"id":"MA010120220806178995","name":"SD광고기획","industry":"광고물 설계/제작업","coordinates":[127.413452122561,36.3564180911174],"sales":{"202602":884}},{"id":"MA010120220806179306","name":"건축사사무소네오","industry":"건축 설계 및 관련 서비스업","coordinates":[127.411235347305,36.3585975676578],"sales":{"202602":1920}},{"id":"MA010120220806179842","name":"한썸디자인","industry":"명함/간판/광고물 제작","coordinates":[127.415451933863,36.3595562472845],"sales":{"202602":241}},{"id":"MA010120220806179931","name":"세원유통","industry":"그 외 기타 상품 전문 소매업","coordinates":[127.419096703798,36.345277944036],"sales":{"202602":11886}},{"id":"MA010120220806180194","name":"새터전공인중개사","industry":"부동산 중개/대리업","coordinates":[127.418312747097,36.3465783819184],"sales":{"202602":890}},{"id":"MA010120220806181083","name":"양지행복공인중개사사무소","industry":"부동산 중개/대리업","coordinates":[127.413826809827,36.3598502620415],"sales":{"202602":2219}},{"id":"MA010120220806181685","name":"지앤아이인테리어","industry":"인테리어 디자인업","coordinates":[127.406673158838,36.3511514662697],"sales":{"202602":636}},{"id":"MA010120220806181914","name":"성화정보","industry":"핸드폰 소매업","coordinates":[127.410640313312,36.3577344882181],"sales":{"202602":65}},{"id":"MA010120220806182699","name":"앨트캡","industry":"가전제품 수리업","coordinates":[127.41771997863,36.3523930268915],"sales":{"202602":621}},{"id":"MA010120220806183534","name":"놀러와분식","industry":"김밥/만두/분식","coordinates":[127.414504863467,36.3595505248071],"sales":{"202602":1233}},{"id":"MA010120220806184446","name":"삼마광고기획","industry":"명함/간판/광고물 제작","coordinates":[127.410318616367,36.3558791769367],"sales":{"202602":1060}},{"id":"MA010120220806184934","name":"상도클린환경","industry":"산업설비, 운송장비 및 공공장소 청소업","coordinates":[127.415788612779,36.3516337653373],"sales":{"202602":189}},{"id":"MA010120220806185566","name":"기쁜헤어샵","industry":"미용실","coordinates":[127.410198808643,36.3564022687021],"sales":{"202602":367}},{"id":"MA010120220806185737","name":"유진건축사사무소","industry":"건축 설계 및 관련 서비스업","coordinates":[127.417364054486,36.3462392527946],"sales":{"202602":1408}},{"id":"MA010120220806186017","name":"복합인쇄소","industry":"명함/간판/광고물 제작","coordinates":[127.410406112112,36.3534457084284],"sales":{"202602":731}},{"id":"MA010120220806187564","name":"김태인세무회계사무소","industry":"세무사","coordinates":[127.408711049877,36.3573896454881],"sales":{"202602":1152}},{"id":"MA010120220806189720","name":"구만골슈퍼","industry":"슈퍼마켓","coordinates":[127.41530778578,36.3554924593302],"sales":{"202602":19639}},{"id":"MA010120220806189891","name":"배스킨라빈스대전","industry":"아이스크림/빙수","coordinates":[127.426034352006,36.3509848775621],"sales":{"202602":1914}},{"id":"MA010120220806190467","name":"나비","industry":"화장품 소매업","coordinates":[127.405607125433,36.3561115446145],"sales":{"202602":906}},{"id":"MA010120220806193396","name":"청원이용원","industry":"미용실","coordinates":[127.414483209888,36.3575680201672],"sales":{"202602":97}},{"id":"MA010120220806193742","name":"허만용세무회계사무소","industry":"세무사","coordinates":[127.408711049877,36.3573896454881],"sales":{"202602":738}},{"id":"MA010120220806195463","name":"임팩광학","industry":"반찬/식료품 소매업","coordinates":[127.406602709056,36.3504578019897],"sales":{"202602":1369}},{"id":"MA010120220806196737","name":"탑공인중개사사무소","industry":"부동산 중개/대리업","coordinates":[127.415533834671,36.3477145450438],"sales":{"202602":764}},{"id":"MA010120220806197536","name":"병천가마솥순대","industry":"국/탕/찌개류","coordinates":[127.410765072514,36.3539130852183],"sales":{"202602":2203}},{"id":"MA010120220806197769","name":"디자인시티","industry":"명함/간판/광고물 제작","coordinates":[127.417544186277,36.352853239725],"sales":{"202602":1037}},{"id":"MA010120220806199696","name":"이삭토스트","industry":"토스트/샌드위치/샐러드","coordinates":[127.424371977941,36.3525858695582],"sales":{"202602":285}},{"id":"MA010120220806199913","name":"오크하우징","industry":"벽지/장판/마루 소매업","coordinates":[127.412774590918,36.3504817005917],"sales":{"202602":340}},{"id":"MA010120220806200685","name":"승민도자기","industry":"주방/가정용품 소매업","coordinates":[127.409126655193,36.3516477485737],"sales":{"202602":593}},{"id":"MA010120220806202301","name":"세이헤어","industry":"미용실","coordinates":[127.410224372697,36.35915075822],"sales":{"202602":602}},{"id":"MA010120220806202561","name":"숨빛비앤비","industry":"피부 관리실","coordinates":[127.416120486524,36.3491003117445],"sales":{"202602":475}},{"id":"MA010120220806204336","name":"유안경원","industry":"안경렌즈 소매업","coordinates":[127.410496234991,36.3578791709437],"sales":{"202602":2367}},{"id":"MA010120220806206131","name":"동성자동차유리","industry":"자동차 정비소","coordinates":[127.410979444845,36.3544260169346],"sales":{"202602":523}},{"id":"MA010120220806206699","name":"원형건축사사무소","industry":"건축 설계 및 관련 서비스업","coordinates":[127.410249520434,36.3575736194957],"sales":{"202602":1538}},{"id":"MA010120220806207524","name":"오피스아이티","industry":"사무기기 소매업","coordinates":[127.407515526415,36.3546000918069],"sales":{"202602":721}},{"id":"MA010120220806208424","name":"은실이네","industry":"백반/한정식","coordinates":[127.409251351865,36.3563154002108],"sales":{"202602":2654}},{"id":"MA010120220806213904","name":"샤르망침구이불","industry":"기타 의류 소매업","coordinates":[127.415214373524,36.3588811936855],"sales":{"202602":1751}},{"id":"MA010120220806214026","name":"현대공인중개사사무소","industry":"부동산 중개/대리업","coordinates":[127.409466952695,36.3528090970991],"sales":{"202602":1330}},{"id":"MA010120220806220043","name":"훈건축사사무소","industry":"건축 설계 및 관련 서비스업","coordinates":[127.415699177867,36.3536707285251],"sales":{"202602":1329}},{"id":"MA010120220806231008","name":"상하목장·강성원우유","industry":"우유 소매업","coordinates":[127.413539963468,36.3561744704323],"sales":{"202602":356}},{"id":"MA010120220806231656","name":"케이에스디자인인테리어","industry":"인테리어 디자인업","coordinates":[127.411092245039,36.3483336939482],"sales":{"202602":381}},{"id":"MA010120220806232224","name":"효석상사","industry":"모터사이클 및 부품 소매업","coordinates":[127.412946270494,36.3471287396515],"sales":{"202602":1986}},{"id":"MA010120220806234076","name":"이정화헤어","industry":"미용실","coordinates":[127.411438309885,36.3590564670133],"sales":{"202602":282}},{"id":"MA010120220806235221","name":"으뜸냉난방","industry":"가전제품 수리업","coordinates":[127.414145230913,36.3484493166468],"sales":{"202602":444}},{"id":"MA010120220806235463","name":"무궁화이벤트렌탈","industry":"기타 개인/가정용품 대여업","coordinates":[127.407071440095,36.3506184174798],"sales":{"202602":140}},{"id":"MA010120220806237358","name":"인호디자인인테리어","industry":"인테리어 디자인업","coordinates":[127.408239276917,36.3502539638347],"sales":{"202602":379}},{"id":"MA010120220806237770","name":"정글펫","industry":"애완동물/애완용품 소매업","coordinates":[127.41555319224,36.3576454093056],"sales":{"202602":644}},{"id":"MA010120220806244807","name":"한국케트","industry":"기타 산업용 기계/장비 대여업","coordinates":[127.414280818884,36.3488093163109],"sales":{"202602":408}},{"id":"MA010120220806246622","name":"나래렌트카주","industry":"자동차 대여업","coordinates":[127.415699177867,36.3536707285251],"sales":{"202602":2789}},{"id":"MA010120220806247140","name":"위드커뮤니케이션","industry":"광고 대행업","coordinates":[127.409816741193,36.351528231262],"sales":{"202602":1561}},{"id":"MA010120220806249042","name":"상록비엠","industry":"건축물 일반 청소업","coordinates":[127.41239483536,36.3608555144137],"sales":{"202602":296}},{"id":"MA010120220806252833","name":"한스푸드시스템，포춘차이나주","industry":"중국집","coordinates":[127.411798494326,36.3534048711258],"sales":{"202602":1756}},{"id":"MA010120220806253251","name":"마이오토","industry":"자동차 대여업","coordinates":[127.420756171514,36.3514271307336],"sales":{"202602":3608}},{"id":"MA010120220806256253","name":"나라렌트","industry":"자동차 대여업","coordinates":[127.41171580008,36.3588572531903],"sales":{"202602":463}},{"id":"MA010120220806256650","name":"내셔널렌트카","industry":"자동차 대여업","coordinates":[127.421401530397,36.3512806688473],"sales":{"202602":344}},{"id":"MA010120220806277942","name":"굴돌밥집식당","industry":"백반/한정식","coordinates":[127.411716203235,36.3547028443709],"sales":{"202602":1053}},{"id":"MA010120220806307689","name":"바른OA","industry":"컴퓨터/사무기기 대여업","coordinates":[127.411235347305,36.3585975676578],"sales":{"202602":328}},{"id":"MA010120220806339948","name":"오!짬뽕","industry":"중국집","coordinates":[127.415523396466,36.3457500212364],"sales":{"202602":1635}},{"id":"MA010120220806350058","name":"더참맛수육국밥","industry":"국/탕/찌개류","coordinates":[127.424988397126,36.3512138954511],"sales":{"202602":474}},{"id":"MA010120220806350244","name":"골목통신","industry":"핸드폰 소매업","coordinates":[127.412357862472,36.358071018831],"sales":{"202602":156}},{"id":"MA010120220806350433","name":"JK인테리어","industry":"인테리어 디자인업","coordinates":[127.417304783722,36.349745027069],"sales":{"202602":770}},{"id":"MA010120220806351011","name":"내가찜한닭","industry":"닭/오리고기 구이/찜","coordinates":[127.426214953087,36.3514167967242],"sales":{"202602":1654}},{"id":"MA010120220806351391","name":"카와","industry":"카페","coordinates":[127.422469651632,36.3551519418453],"sales":{"202602":620}},{"id":"MA010120220806351522","name":"국제결혼하노이사랑","industry":"결혼 상담 서비스업","coordinates":[127.415577445531,36.3538243514177],"sales":{}},{"id":"MA010120220806351646","name":"대성유통","industry":"반찬/식료품 소매업","coordinates":[127.411583747639,36.3549376057377],"sales":{"202602":1574}},{"id":"MA010120220806352169","name":"한남대마실","industry":"백반/한정식","coordinates":[127.426059087564,36.3514353760308],"sales":{"202602":1475}},{"id":"MA010120220806352361","name":"배가빵빵","industry":"경양식","coordinates":[127.42585517622,36.3508142932987],"sales":{"202602":3799}},{"id":"MA010120220806352540","name":"피자뻬르","industry":"피자","coordinates":[127.424527405817,36.3524861884166],"sales":{"202602":2690}},{"id":"MA010120220806352585","name":"점메옥소머리국밥","industry":"국/탕/찌개류","coordinates":[127.417185703903,36.3629205900547],"sales":{"202602":2545}},{"id":"MA010120220806352854","name":"안도푸드","industry":"건어물/젓갈 소매업","coordinates":[127.415134662884,36.3459676541586],"sales":{"202602":1273}},{"id":"MA010120220806352922","name":"유진헤어","industry":"미용실","coordinates":[127.414504863467,36.3595505248071],"sales":{"202602":530}},{"id":"MA010120220806361885","name":"라인커뮤니케이션","industry":"광고 대행업","coordinates":[127.415790559909,36.3582844161386],"sales":{"202602":7447}},{"id":"MA010120220806362795","name":"대전개인택시동대전충전소","industry":"가스 충전소","coordinates":[127.415596086269,36.3531393948461],"sales":{"202602":28454}},{"id":"MA010120220806387655","name":"이디야커피대전","industry":"카페","coordinates":[127.424475946103,36.351215716903],"sales":{"202602":2095}},{"id":"MA010120220806416972","name":"항아리속홍탁","industry":"횟집","coordinates":[127.409397880251,36.358766088661],"sales":{"202602":2204}},{"id":"MA010120220806478534","name":"풀스터디카페","industry":"독서실/스터디 카페","coordinates":[127.42591342959,36.3512826958247],"sales":{"202602":212}},{"id":"MA010120220806604028","name":"공조에너지시스템","industry":"가전제품 수리업","coordinates":[127.413712349619,36.3487482035608],"sales":{"202602":672}},{"id":"MA010120220806615906","name":"베스트노래연습장","industry":"노래방","coordinates":[127.418938230152,36.3510460134718],"sales":{"202602":840}},{"id":"MA010120220806637553","name":"세븐일레븐대전오정","industry":"편의점","coordinates":[127.41281280303,36.3556092458201],"sales":{"202602":1500}},{"id":"MA010120220806639130","name":"종합인테리어","industry":"자동차 정비소","coordinates":[127.408782938917,36.3583536545843],"sales":{"202602":1201}},{"id":"MA010120220806643303","name":"빛의바다","industry":"사진촬영업","coordinates":[127.416406382283,36.3483964001036],"sales":{"202602":381}},{"id":"MA010120220806665461","name":"뷰티코스메틱사이언스","industry":"기타 기술/직업 훈련학원","coordinates":[127.422469651632,36.3551519418453],"sales":{"202602":216}},{"id":"MA010120220806710606","name":"집밥","industry":"백반/한정식","coordinates":[127.421401530397,36.3512806688473],"sales":{"202602":1203}},{"id":"MA010120220806722490","name":"챠보빈티지","industry":"기타 의류 소매업","coordinates":[127.422469651632,36.3551519418453],"sales":{"202602":1141}},{"id":"MA010120220806745596","name":"소셜팜","industry":"기타 오락관련 서비스업","coordinates":[127.422469651632,36.3551519418453],"sales":{"202602":460}},{"id":"MA010120220806753999","name":"석영","industry":"자동차 정비소","coordinates":[127.405421899633,36.3612128118765],"sales":{"202602":1353}},{"id":"MA010120220806759545","name":"대화탑부동산공인중개사사무소","industry":"부동산 중개/대리업","coordinates":[127.41590399949,36.3628529647233],"sales":{"202602":2407}},{"id":"MA010120220806773939","name":"오거리당구장","industry":"당구장","coordinates":[127.414981963778,36.3486807191285],"sales":{"202602":243}},{"id":"MA010120220806794352","name":"수안씨푸드","industry":"반찬/식료품 소매업","coordinates":[127.414676402523,36.3498803412872],"sales":{"202602":1191}},{"id":"MA010120220806821840","name":"하나의료기","industry":"기타 개인/가정용품 대여업","coordinates":[127.417618319035,36.3521320419228],"sales":{"202602":101}},{"id":"MA010120220806830796","name":"성지공인중개사사무소","industry":"부동산 중개/대리업","coordinates":[127.415599625372,36.3579967051597],"sales":{"202602":1509}},{"id":"MA010120220806831179","name":"하랑기획","industry":"옥외/전시 광고 대행업","coordinates":[127.413665072172,36.3545519257514],"sales":{"202602":1822}},{"id":"MA010120220806847911","name":"청정원식당","industry":"백반/한정식","coordinates":[127.419022474516,36.3501355326944],"sales":{"202602":1272}},{"id":"MA010120220806857007","name":"초롱전기","industry":"철물/공구 소매업","coordinates":[127.413823517996,36.3592284644232],"sales":{"202602":2524}},{"id":"MA010120220806872332","name":"대성테크","industry":"명함/간판/광고물 제작","coordinates":[127.410094256286,36.3513380326741],"sales":{"202602":1635}},{"id":"MA010120220806923908","name":"부엉이푸드","industry":"슈퍼마켓","coordinates":[127.420799471689,36.3511926731532],"sales":{"202602":12668}},{"id":"MA010120220806939255","name":"차밍네일","industry":"네일숍","coordinates":[127.424641728332,36.3509718110736],"sales":{"202602":80}},{"id":"MA010120220806949796","name":"대전특수추레라","industry":"건설기계/장비 대여업","coordinates":[127.417000678086,36.3470335547539],"sales":{"202602":414}},{"id":"MA010120220806983242","name":"영화공인중개사사무소","industry":"부동산 중개/대리업","coordinates":[127.41239483536,36.3608555144137],"sales":{"202602":869}},{"id":"MA010120220806988652","name":"더쎄짐","industry":"태권도/무술학원","coordinates":[127.425679239089,36.3512384716495],"sales":{"202602":445}},{"id":"MA010120220806991700","name":"장원인슈퍼","industry":"슈퍼마켓","coordinates":[127.405067680879,36.3595107969363],"sales":{"202602":5231}},{"id":"MA010120220806995553","name":"크린토피아남대전지사","industry":"세탁소","coordinates":[127.408551765447,36.3503610367491],"sales":{"202602":177}},{"id":"MA010120220807015419","name":"세종수산","industry":"횟집","coordinates":[127.405517016095,36.3559226040648],"sales":{"202602":804}},{"id":"MA010120220807086775","name":"크린토피아남대전지사","industry":"세탁소","coordinates":[127.408551765447,36.3503610367491],"sales":{"202602":155}},{"id":"MA010120220807119367","name":"돼지꿈돌구이","industry":"돼지고기 구이/찜","coordinates":[127.411828132946,36.3548015877151],"sales":{"202602":2307}},{"id":"MA010120220807146479","name":"만인","industry":"고용 알선업","coordinates":[127.414208472086,36.3498729524378],"sales":{"202602":3206}},{"id":"MA010120220807168493","name":"에스지라이팅","industry":"신발 소매업","coordinates":[127.413092229806,36.3557795030167],"sales":{"202602":18}},{"id":"MA010120220807171401","name":"해성원","industry":"마사지/안마","coordinates":[127.412349819642,36.3523215616031],"sales":{"202602":354}},{"id":"MA010120220807176104","name":"해피데이","industry":"미용실","coordinates":[127.419280001316,36.3503779462808],"sales":{"202602":525}},{"id":"MA010120220807205059","name":"문화공간OZ","industry":"기타 교육지원 서비스업","coordinates":[127.421401530397,36.3512806688473],"sales":{"202602":1406}},{"id":"MA010120220807213013","name":"엘샤다이","industry":"카페","coordinates":[127.413076946014,36.3507780431587],"sales":{"202602":348}},{"id":"MA010120220807331404","name":"청춘시대","industry":"생맥주 전문","coordinates":[127.410867611456,36.3543452959209],"sales":{"202602":946}},{"id":"MA010120220807334216","name":"기업공인중개사","industry":"부동산 중개/대리업","coordinates":[127.415599625372,36.3579967051597],"sales":{"202602":997}},{"id":"MA010120220807390177","name":"미도종합상사","industry":"기타 건설/건축자재 소매업","coordinates":[127.40880382739,36.3559564628851],"sales":{"202602":74}},{"id":"MA010120220807402208","name":"엘에스솔루션","industry":"경영 컨설팅업","coordinates":[127.420539895184,36.3484990775464],"sales":{"202602":939}},{"id":"MA010120220807415482","name":"수목관리","industry":"운동용품 소매업","coordinates":[127.422168163039,36.3488357823041],"sales":{"202602":14100}},{"id":"MA010120220807416810","name":"비오비씨","industry":"포장/충전업","coordinates":[127.4107668243,36.3542465133605],"sales":{}},{"id":"MA010120220807436189","name":"쉐프과자점","industry":"빵/도넛","coordinates":[127.416003413325,36.3626904076802],"sales":{"202602":984}},{"id":"MA010120220807441732","name":"티에스티멀티샵","industry":"자동차 부품 소매업","coordinates":[127.412888859314,36.346804515239],"sales":{"202602":3365}},{"id":"MA010120220807446344","name":"더행복한아이연구소","industry":"교육컨설팅업","coordinates":[127.422469651632,36.3551519418453],"sales":{"202602":2631}},{"id":"MA010120220807451103","name":"해유니폼","industry":"기타 의류 소매업","coordinates":[127.408513994127,36.3580571873418],"sales":{"202602":2277}},{"id":"MA010120220807485536","name":"블루키위","industry":"사진촬영업","coordinates":[127.416120486524,36.3491003117445],"sales":{"202602":384}},{"id":"MA010120220807509772","name":"로취사이언스","industry":"소독, 구충 및 방제 서비스업","coordinates":[127.411492344662,36.3545053573578],"sales":{"202602":125}},{"id":"MA010120220807571427","name":"오정약국","industry":"약국","coordinates":[127.415170528605,36.3485268645555],"sales":{"202602":21988}},{"id":"MA010120220807633707","name":"스포츠블루","industry":"기타 의류 소매업","coordinates":[127.415961035449,36.3589146435839],"sales":{"202602":450}},{"id":"MA010120220807754643","name":"대덕킥복싱MMA","industry":"레크리에이션 교육기관","coordinates":[127.409559240208,36.3576661048189],"sales":{"202602":264}},{"id":"MA010120220807761008","name":"봉투","industry":"슈퍼마켓","coordinates":[127.408097769542,36.357292612633],"sales":{"202602":14951}},{"id":"MA010120220807761932","name":"이종구항아리짬뽕","industry":"중국집","coordinates":[127.410773628752,36.3576619361487],"sales":{"202602":535}},{"id":"MA010120220807768757","name":"성실한인력","industry":"고용 알선업","coordinates":[127.417780912839,36.3617109398969],"sales":{"202602":4206}},{"id":"MA010120220807795805","name":"장원휴게식당","industry":"구내식당","coordinates":[127.405067680879,36.3595107969363],"sales":{"202602":3580}},{"id":"MA010120220807797080","name":"다솜유통","industry":"그 외 기타 상품 전문 소매업","coordinates":[127.415790559909,36.3582844161386],"sales":{"202602":13947}},{"id":"MA010120220808058809","name":"롯데리아대전","industry":"버거","coordinates":[127.41171580008,36.3588572531903],"sales":{"202602":4316}},{"id":"MA010120220808079307","name":"종성모터스","industry":"자동차 정비소","coordinates":[127.405421899633,36.3612128118765],"sales":{"202602":6346}},{"id":"MA010120220808117323","name":"국시","industry":"국수/칼국수","coordinates":[127.415777328165,36.3474163106059],"sales":{"202602":1673}},{"id":"MA010120220808132102","name":"센트럴볼링센타","industry":"볼링장","coordinates":[127.412684811756,36.3587998399372],"sales":{"202602":1637}},{"id":"MA010120220808180247","name":"라인PC","industry":"PC방","coordinates":[127.415214373524,36.3588811936855],"sales":{"202602":2333}},{"id":"MA010120220808219744","name":"명품진한우","industry":"소고기 구이/찜","coordinates":[127.414313240259,36.3549281728446],"sales":{"202602":1853}},{"id":"MA010120220808231306","name":"다온","industry":"피자","coordinates":[127.419805777147,36.348708928807],"sales":{"202602":2580}},{"id":"MA010120220808316252","name":"빨간지붕","industry":"백반/한정식","coordinates":[127.419280001316,36.3503779462808],"sales":{"202602":1677}},{"id":"MA010120220808317044","name":"천궁","industry":"화장품 소매업","coordinates":[127.417819392383,36.3501487570647],"sales":{"202602":380}},{"id":"MA010120220808336507","name":"씨유대전오정","industry":"편의점","coordinates":[127.41442544007,36.3592804485624],"sales":{"202602":2227}},{"id":"MA010120220808343117","name":"폰질러","industry":"핸드폰 소매업","coordinates":[127.411939719273,36.3590637511203],"sales":{"202602":546}},{"id":"MA010120220808345492","name":"두꺼비식당","industry":"기타 한식 음식점","coordinates":[127.41138487075,36.3531359437981],"sales":{"202602":387}},{"id":"MA010120220808385729","name":"겟세마네유통","industry":"곡물/곡분 소매업","coordinates":[127.408483960876,36.3587061344688],"sales":{"202602":378}},{"id":"MA010120220808403323","name":"정한에너지","industry":"주유소","coordinates":[127.410299429819,36.3585917734236],"sales":{"202602":21230}},{"id":"MA010120220808438512","name":"에스더공인중개사사무소","industry":"부동산 중개/대리업","coordinates":[127.412948730825,36.3560323274869],"sales":{"202602":1428}},{"id":"MA010120220808461785","name":"유명부동산매니지먼트","industry":"건축물 일반 청소업","coordinates":[127.41555319224,36.3576454093056],"sales":{"202602":289}},{"id":"MA010120220808555075","name":"카페이오사","industry":"카페","coordinates":[127.408180424562,36.3496503782158],"sales":{"202602":1555}},{"id":"MA010120220808599859","name":"겸이네옷가게","industry":"여성 의류 소매업","coordinates":[127.413586291273,36.3565077440898],"sales":{"202602":329}},{"id":"MA010120220808610644","name":"미가갈비","industry":"돼지고기 구이/찜","coordinates":[127.408453279321,36.3549663710733],"sales":{"202602":1951}},{"id":"MA010120220808645739","name":"천하명당복권방","industry":"복권 발행/판매업","coordinates":[127.419016742922,36.3511448672824],"sales":{"202602":571}},{"id":"MA010120220808693746","name":"이마트24대덕","industry":"편의점","coordinates":[127.416439040604,36.3461613741679],"sales":{"202602":2317}},{"id":"MA010120220808709062","name":"금산인삼약초","industry":"그 외 기타 상품 전문 소매업","coordinates":[127.408513994127,36.3580571873418],"sales":{"202602":6252}},{"id":"MA010120220808711867","name":"태일기업","industry":"임시/일용 인력 공급업","coordinates":[127.412101519066,36.3580538797642],"sales":{"202602":25305}},{"id":"MA010120220808717767","name":"시나브로","industry":"경양식","coordinates":[127.424649461019,36.3523956374069],"sales":{"202602":3125}},{"id":"MA010120220809040523","name":"대전중고금호양지타이어","industry":"자동차 정비소","coordinates":[127.415218054746,36.3490854273433],"sales":{"202602":9179}},{"id":"MA010120220809083379","name":"대전바른자동차배터리","industry":"자동차 부품 소매업","coordinates":[127.415948047416,36.3501913325222],"sales":{"202602":2137}},{"id":"MA010120220809234346","name":"포트레이리포트","industry":"인테리어 디자인업","coordinates":[127.415533834671,36.3477145450438],"sales":{"202602":391}},{"id":"MA010120220809238322","name":"씨유대전오정","industry":"편의점","coordinates":[127.410977692141,36.3540925888114],"sales":{"202602":1935}},{"id":"MA010120220809321456","name":"박준뷰티랩","industry":"미용실","coordinates":[127.425134102172,36.3513755883583],"sales":{"202602":403}},{"id":"MA010120220809333464","name":"빚다테크","industry":"예식장업","coordinates":[127.416662791462,36.3463408291103],"sales":{}},{"id":"MA010120220809410708","name":"바이크샵","industry":"모터사이클 수리업","coordinates":[127.417447535614,36.3493570237048],"sales":{"202602":460}},{"id":"MA010120220809458213","name":"형제유통","industry":"건어물/젓갈 소매업","coordinates":[127.417110512071,36.3509172312353],"sales":{"202602":1288}},{"id":"MA010120220809461171","name":"나눔","industry":"백반/한정식","coordinates":[127.410765072514,36.3539130852183],"sales":{"202602":821}},{"id":"MA010120220809511447","name":"스마트시스템","industry":"가전제품 수리업","coordinates":[127.415044407271,36.349951157587],"sales":{"202602":1053}},{"id":"MA010120220809617268","name":"파리바게트","industry":"빵/도넛","coordinates":[127.412684811756,36.3587998399372],"sales":{"202602":191}},{"id":"MA010120220809663297","name":"강남마트","industry":"슈퍼마켓","coordinates":[127.409754780935,36.3588369590842],"sales":{"202602":2925}},{"id":"MA010120220809664852","name":"리노인테리어디자인","industry":"인테리어 디자인업","coordinates":[127.416136814443,36.3563547010537],"sales":{"202602":707}},{"id":"MA010120220809701764","name":"지에스25한남대","industry":"편의점","coordinates":[127.424527405817,36.3524861884166],"sales":{"202602":1294}},{"id":"MA010120220809707987","name":"사회적협동조합한남교육사랑","industry":"기타 교육지원 서비스업","coordinates":[127.422469651632,36.3551519418453],"sales":{"202602":1069}},{"id":"MA010120220809714424","name":"어부가","industry":"백반/한정식","coordinates":[127.41555319224,36.3576454093056],"sales":{"202602":1639}},{"id":"MA010120220809718799","name":"에스디크린텍","industry":"사업시설 유지·관리 서비스업","coordinates":[127.415788612779,36.3516337653373],"sales":{"202602":970}},{"id":"MA010120220809727300","name":"가월칼국수","industry":"국수/칼국수","coordinates":[127.414182303081,36.3575510401354],"sales":{"202602":3275}},{"id":"MA010120220809758399","name":"씨에스와이","industry":"실/섬유제품 소매업","coordinates":[127.412928971662,36.3565100174693],"sales":{"202602":755}},{"id":"MA010120220809804618","name":"양지뜸맛고을","industry":"백반/한정식","coordinates":[127.413347154083,36.3597437816454],"sales":{"202602":577}},{"id":"MA010120220809812976","name":"한국지속가능문화교육개발원","industry":"기타 교육지원 서비스업","coordinates":[127.421401530397,36.3512806688473],"sales":{"202602":835}},{"id":"MA010120220809814127","name":"진인테리어","industry":"인테리어 디자인업","coordinates":[127.418895117576,36.3513165166846],"sales":{"202602":748}},{"id":"MA010120220809852477","name":"신사","industry":"기타 의류 소매업","coordinates":[127.424310113942,36.3514506109394],"sales":{"202602":1145}},{"id":"MA010120220809857742","name":"한국인테리어필름래핑협회대전지부","industry":"여성 의류 소매업","coordinates":[127.415533834671,36.3477145450438],"sales":{"202602":329}},{"id":"MA010120220809867543","name":"새미래환경","industry":"건축물 일반 청소업","coordinates":[127.413991376256,36.3572633265017],"sales":{"202602":305}},{"id":"MA010120220809915166","name":"디케이샵(SHOP)","industry":"주방/가정용품 소매업","coordinates":[127.419016742922,36.3511448672824],"sales":{"202602":853}},{"id":"MA010120220809971251","name":"인형공조시스템에어컨","industry":"가전제품 수리업","coordinates":[127.415361844635,36.3593763260043],"sales":{"202602":884}},{"id":"MA010120220809989344","name":"대길수산,대길태양광발전소","industry":"수산물 소매업","coordinates":[127.406046585808,36.3549205032164],"sales":{"202602":5227}},{"id":"MA010120220810002773","name":"드림토토","industry":"복권 발행/판매업","coordinates":[127.414208472086,36.3498729524378],"sales":{"202602":410}},{"id":"MA010120220810021838","name":"엽기떡볶이","industry":"김밥/만두/분식","coordinates":[127.425792996996,36.3516706295343],"sales":{"202602":1299}},{"id":"MA010120220810022802","name":"베스트공인중개사","industry":"부동산 중개/대리업","coordinates":[127.424398344335,36.3492334107786],"sales":{"202602":1376}},{"id":"MA010120220810024265","name":"홍스족발","industry":"족발/보쌈","coordinates":[127.426059087564,36.3514353760308],"sales":{"202602":1118}},{"id":"MA010120220810076311","name":"크린세탁소","industry":"의류/이불 수선업","coordinates":[127.414170142721,36.3594615682736],"sales":{"202602":315}},{"id":"MA010120220810078854","name":"신탄진석유","industry":"가정용 연료 소매업","coordinates":[127.414910486302,36.3457070921007],"sales":{"202602":7665}},{"id":"MA010120220810111830","name":"동구이용원","industry":"미용실","coordinates":[127.419096703798,36.345277944036],"sales":{"202602":383}},{"id":"MA010120220810112736","name":"이지워시대전","industry":"세탁소","coordinates":[127.42430277889,36.3500988768132],"sales":{"202602":193}},{"id":"MA010120220810125419","name":"대화막창","industry":"곱창 전골/구이","coordinates":[127.41590399949,36.3628529647233],"sales":{"202602":1185}},{"id":"MA010120220810148765","name":"룩웨어","industry":"여성 의류 소매업","coordinates":[127.422469651632,36.3551519418453],"sales":{"202602":614}},{"id":"MA010120220810175204","name":"라온홈인테리어","industry":"인테리어 디자인업","coordinates":[127.41239483536,36.3608555144137],"sales":{"202602":348}},{"id":"MA010120220810209488","name":"에이스마트","industry":"슈퍼마켓","coordinates":[127.418002270817,36.3489315327898],"sales":{"202602":11001}},{"id":"MA010120220810212976","name":"씨빈","industry":"카페","coordinates":[127.419016742922,36.3511448672824],"sales":{"202602":934}},{"id":"MA010120220810221607","name":"클린앤클린","industry":"세탁소","coordinates":[127.412938394883,36.3604030509022],"sales":{"202602":446}},{"id":"MA010120220810227480","name":"동의침구학회협동조합","industry":"직원 훈련기관","coordinates":[127.416120486524,36.3491003117445],"sales":{"202602":430}},{"id":"MA010120220810231226","name":"머리하는날","industry":"미용실","coordinates":[127.417618319035,36.3521320419228],"sales":{"202602":387}},{"id":"MA010120220810233265","name":"노랑통닭","industry":"치킨","coordinates":[127.427142583816,36.3539998511179],"sales":{"202602":539}},{"id":"MA010120220810250225","name":"상아꽃배달","industry":"꽃집","coordinates":[127.409798664064,36.3523303379153],"sales":{"202602":260}},{"id":"MA010120220810268277","name":"금산유통","industry":"액세서리/잡화 소매업","coordinates":[127.412389907528,36.3578095681299],"sales":{"202602":1277}},{"id":"MA010120220810333257","name":"금빛종합모터스","industry":"자동차 정비소","coordinates":[127.405421899633,36.3612128118765],"sales":{"202602":1525}},{"id":"MA010120220810336578","name":"정글","industry":"애완동물/애완용품 소매업","coordinates":[127.416694341573,36.3543521539688],"sales":{"202602":1146}},{"id":"MA010120220810354800","name":"삼삼철거인테리어","industry":"인테리어 디자인업","coordinates":[127.410898333995,36.353831521434],"sales":{"202602":687}},{"id":"MA010120220810361553","name":"우리식당","industry":"백반/한정식","coordinates":[127.418807202167,36.3515421182289],"sales":{"202602":1022}},{"id":"MA010120220810370066","name":"유성대한지게차","industry":"건설기계/장비 대여업","coordinates":[127.414174169844,36.3581188071515],"sales":{"202602":426}},{"id":"MA010120220810384004","name":"신도조각","industry":"명함/간판/광고물 제작","coordinates":[127.407561365176,36.3527074709318],"sales":{"202602":971}},{"id":"MA010120220810412634","name":"씨멘트","industry":"일반 유흥 주점","coordinates":[127.425792996996,36.3516706295343],"sales":{"202602":471}},{"id":"MA010120220810420538","name":"토종오리마을","industry":"백반/한정식","coordinates":[127.418143218096,36.3523735231332],"sales":{"202602":668}},{"id":"MA010120220810438906","name":"문화창고컴퍼니","industry":"전시/컨벤션/행사 대행 서비스업","coordinates":[127.41484622832,36.3524931556067],"sales":{"202602":4170}},{"id":"MA010120220810441580","name":"정광택","industry":"자동차 세차장","coordinates":[127.41124464036,36.3561283219091],"sales":{"202602":643}},{"id":"MA010120220810479759","name":"영진테크","industry":"명함/간판/광고물 제작","coordinates":[127.413054950604,36.3529409360058],"sales":{"202602":728}},{"id":"MA010120220810483686","name":"청와대경호무술","industry":"레크리에이션 교육기관","coordinates":[127.415599625372,36.3579967051597],"sales":{"202602":566}},{"id":"MA010120220810491362","name":"브이아이피","industry":"마사지/안마","coordinates":[127.409738018659,36.3577646209147],"sales":{"202602":348}},{"id":"MA010120220810541263","name":"황고물","industry":"중고 상품 소매업","coordinates":[127.416650939822,36.3629314677998],"sales":{"202602":959}},{"id":"MA010120220810578328","name":"팡팡노래연습장","industry":"노래방","coordinates":[127.419280001316,36.3503779462808],"sales":{"202602":673}},{"id":"MA010120220810665838","name":"사회적협동조합도원참사랑나눔","industry":"고용 알선업","coordinates":[127.418929286318,36.3472971615052],"sales":{"202602":2077}},{"id":"MA010120220810963269","name":"다해인테리어","industry":"인테리어 디자인업","coordinates":[127.427170034937,36.354945984417],"sales":{"202602":339}},{"id":"MA010120220811074284","name":"달떡","industry":"김밥/만두/분식","coordinates":[127.42457767624,36.3514857074946],"sales":{"202602":2042}},{"id":"MA010120220811074550","name":"샐러드스튜디오","industry":"그 외 기타 간이 음식점","coordinates":[127.410619534216,36.3537784094141],"sales":{"202602":706}},{"id":"MA010120220811151543","name":"디자인맑음","industry":"광고 대행업","coordinates":[127.417819392383,36.3501487570647],"sales":{"202602":3161}},{"id":"MA010120220811227283","name":"처갓집양념치킨","industry":"치킨","coordinates":[127.425134102172,36.3513755883583],"sales":{"202602":421}},{"id":"MA010120220811515410","name":"필헤어","industry":"미용실","coordinates":[127.413826809827,36.3598502620415],"sales":{"202602":268}},{"id":"MA010120220811674319","name":"종현상사","industry":"그 외 기타 상품 전문 소매업","coordinates":[127.417170011318,36.3516289506927],"sales":{"202602":4288}},{"id":"MA010120220811768892","name":"까날드레스업","industry":"자동차 정비소","coordinates":[127.411563316189,36.3552891336733],"sales":{"202602":1210}},{"id":"MA010120220811773597","name":"조은미소","industry":"액세서리/잡화 소매업","coordinates":[127.415906712629,36.3445140786008],"sales":{"202602":929}},{"id":"MA010120220811778992","name":"오광시스템","industry":"가전제품 수리업","coordinates":[127.413092229806,36.3557795030167],"sales":{"202602":325}},{"id":"MA010120220811792615","name":"사또","industry":"돼지고기 구이/찜","coordinates":[127.424164605989,36.35132496326],"sales":{"202602":1986}},{"id":"MA010120220811831579","name":"가온시스","industry":"컴퓨터/소프트웨어 소매업","coordinates":[127.405738031903,36.35128080945],"sales":{"202602":775}},{"id":"MA010120220811857394","name":"플랜다","industry":"전시/컨벤션/행사 대행 서비스업","coordinates":[127.422469651632,36.3551519418453],"sales":{"202602":1132}},{"id":"MA010120220811866494","name":"소망글로벌축산직영","industry":"정육점","coordinates":[127.414313240259,36.3549281728446],"sales":{"202602":10208}},{"id":"MA010120220811887501","name":"원라이프장례토탈의전서비스","industry":"장례식장","coordinates":[127.414145230913,36.3484493166468],"sales":{"202602":17203}},{"id":"MA010120220811933366","name":"연우네보리밥집","industry":"백반/한정식","coordinates":[127.416778651207,36.345087792576],"sales":{"202602":659}},{"id":"MA010120220811939384","name":"블랙야크","industry":"기타 의류 소매업","coordinates":[127.410053517354,36.3584394182327],"sales":{"202602":867}},{"id":"MA010120220811978816","name":"만복식당","industry":"백반/한정식","coordinates":[127.406451224885,36.3577488114262],"sales":{"202602":1258}},{"id":"MA010120220812017557","name":"달콤한피아노음악학원","industry":"음악학원","coordinates":[127.411438309885,36.3590564670133],"sales":{"202602":278}},{"id":"MA010120220812022320","name":"아임헤어","industry":"미용실","coordinates":[127.409397880251,36.358766088661],"sales":{"202602":973}},{"id":"MA010120220812022443","name":"오거리마트","industry":"슈퍼마켓","coordinates":[127.41485521794,36.3478881259605],"sales":{"202602":5719}},{"id":"MA010120220812051304","name":"해다람","industry":"건어물/젓갈 소매업","coordinates":[127.411966019636,36.3577119013515],"sales":{"202602":1105}},{"id":"MA010120220812063004","name":"오정식당","industry":"백반/한정식","coordinates":[127.408415747502,36.3584450275319],"sales":{"202602":527}},{"id":"MA010120220812069934","name":"봉주르베이킹","industry":"그 외 기타 교육기관","coordinates":[127.413826809827,36.3598502620415],"sales":{"202602":3696}},{"id":"MA010120220812071386","name":"웰스터디카페","industry":"독서실/스터디 카페","coordinates":[127.424641728332,36.3509718110736],"sales":{"202602":276}},{"id":"MA010120220812077436","name":"송정식당","industry":"백반/한정식","coordinates":[127.416014216844,36.3500649378421],"sales":{"202602":3111}},{"id":"MA010120220812081979","name":"롱다리치킨","industry":"치킨","coordinates":[127.418592256051,36.3509300733507],"sales":{"202602":537}},{"id":"MA010120220812103852","name":"위드몽","industry":"백반/한정식","coordinates":[127.413220125886,36.3610058623643],"sales":{"202602":1541}},{"id":"MA010120220812121118","name":"소담분식","industry":"김밥/만두/분식","coordinates":[127.41590399949,36.3628529647233],"sales":{"202602":574}},{"id":"MA010120220812163282","name":"지호카레","industry":"빵/도넛","coordinates":[127.425027010225,36.3521690017979],"sales":{"202602":4140}},{"id":"MA010120220812175773","name":"어반도트","industry":"명함/간판/광고물 제작","coordinates":[127.414002726621,36.346782638022],"sales":{"202602":316}},{"id":"MA010120220812183898","name":"몽심","industry":"빵/도넛","coordinates":[127.42494731342,36.3518538746107],"sales":{"202602":743}},{"id":"MA010120220812192684","name":"엄마네한식뷔페","industry":"뷔페","coordinates":[127.41040696357,36.3536079167361],"sales":{"202602":2051}},{"id":"MA010120220812261868","name":"태성에스아이","industry":"명함/간판/광고물 제작","coordinates":[127.416790039896,36.3514049832156],"sales":{"202602":1487}},{"id":"MA010120220812278798","name":"이에스피","industry":"전시/컨벤션/행사 대행 서비스업","coordinates":[127.420799471689,36.3511926731532],"sales":{"202602":3144}},{"id":"MA010120220812288435","name":"통영통큰돼지국밥","industry":"백반/한정식","coordinates":[127.424445069086,36.3516844367193],"sales":{"202602":346}},{"id":"MA010120220812305467","name":"가야소리가야금교습소","industry":"음악학원","coordinates":[127.41239483536,36.3608555144137],"sales":{"202602":460}},{"id":"MA010120220812374212","name":"하경","industry":"건강보조식품 소매업","coordinates":[127.415315507446,36.3590430532548],"sales":{"202602":2088}},{"id":"MA010120220812392075","name":"재벌공인중개사사무소","industry":"부동산 중개/대리업","coordinates":[127.424392877724,36.3502787915668],"sales":{"202602":845}},{"id":"MA010120220812408382","name":"대전변기막힘하수구막힘24시","industry":"건축물 일반 청소업","coordinates":[127.420799471689,36.3511926731532],"sales":{"202602":322}},{"id":"MA010120220812434974","name":"두리건설","industry":"사업시설 유지·관리 서비스업","coordinates":[127.419540256996,36.3490523073839],"sales":{"202602":402}},{"id":"MA010120220812453023","name":"에스티랩","industry":"광고물 설계/제작업","coordinates":[127.412674293549,36.3483642879837],"sales":{"202602":679}},{"id":"MA010120220812461879","name":"글라스스토리","industry":"안경렌즈 소매업","coordinates":[127.42548190214,36.351824937104],"sales":{"202602":518}},{"id":"MA010120220812497418","name":"인투더씨","industry":"그 외 기타 교육기관","coordinates":[127.416312224534,36.3600038391086],"sales":{"202602":1583}},{"id":"MA010120220812499340","name":"국제음악교육협회","industry":"기타 교육지원 서비스업","coordinates":[127.41044800211,36.355058664935],"sales":{"202602":839}},{"id":"MA010120220812513727","name":"사회적협동조합이웃사랑","industry":"임시/일용 인력 공급업","coordinates":[127.412263876872,36.3486991390558],"sales":{"202602":13367}},{"id":"MA010120220812559469","name":"아이엠일리터","industry":"카페","coordinates":[127.425027010225,36.3521690017979],"sales":{"202602":1758}},{"id":"MA010120220812575997","name":"태기보드게임카페","industry":"카페","coordinates":[127.425369322294,36.3516090563283],"sales":{"202602":711}},{"id":"MA010120220812627450","name":"꽃분이네","industry":"백반/한정식","coordinates":[127.407940904393,36.3592577051682],"sales":{"202602":1345}},{"id":"MA010120220812678575","name":"미래자동차정비공업사","industry":"기타 산업용 기계/장비 대여업","coordinates":[127.405421899633,36.3612128118765],"sales":{"202602":1303}},{"id":"MA010120220812697110","name":"낙원","industry":"백반/한정식","coordinates":[127.41239483536,36.3608555144137],"sales":{"202602":548}},{"id":"MA010120220812706416","name":"네이처백","industry":"가방 소매업","coordinates":[127.422469651632,36.3551519418453],"sales":{"202602":231}},{"id":"MA010120220812734055","name":"창조ITP","industry":"명함/간판/광고물 제작","coordinates":[127.413912444148,36.3444579203447],"sales":{"202602":1176}},{"id":"MA010120220812780654","name":"이슬이네","industry":"꽃집","coordinates":[127.423438697565,36.348939427801],"sales":{"202602":702}},{"id":"MA010120220812813251","name":"더프라임","industry":"문구/회화용품 소매업","coordinates":[127.415906527368,36.3591401264536],"sales":{"202602":11153}},{"id":"MA010120220812822515","name":"평우서비스","industry":"자동차 정비소","coordinates":[127.413555378456,36.3464507524484],"sales":{"202602":1160}},{"id":"MA010120220812832646","name":"휴하리","industry":"기타 엔지니어링 서비스업","coordinates":[127.422469651632,36.3551519418453],"sales":{"202602":10568}},{"id":"MA010120220812895675","name":"채움","industry":"헬스장","coordinates":[127.41455932808,36.3593160310054],"sales":{"202602":1536}},{"id":"MA010120220812909513","name":"뉴-한남헬스","industry":"헬스장","coordinates":[127.425644395762,36.3509772554957],"sales":{"202602":1248}},{"id":"MA010120220812984361","name":"세탁풍경","industry":"셀프 빨래방","coordinates":[127.425519009183,36.3504550214789],"sales":{"202602":207}},{"id":"MA010120220813001080","name":"제이케이민턴","industry":"테니스장","coordinates":[127.412917159053,36.3606013822152],"sales":{"202602":376}},{"id":"MA010120220813004684","name":"피자2001","industry":"피자","coordinates":[127.417594584532,36.3622883413449],"sales":{"202602":973}},