[{"id":"MA010120220700030452","name":"파랑새유소년스포츠클럽","industry":"종합 스포츠시설","coordinates":[127.435545698375,36.3625216388523],"sales":{"202602":5495}},{"id":"MA010120220800048697","name":"야숯불치킨","industry":"치킨","coordinates":[127.427252787001,36.3578564757255],"sales":{"202602":391}},{"id":"MA010120220800094297","name":"황금노래연습장","industry":"노래방","coordinates":[127.423989216705,36.3662309748096],"sales":{"202602":713}},{"id":"MA010120220800111689","name":"드슈커피","industry":"카페","coordinates":[127.430559537406,36.361494352038],"sales":{"202602":1622}},{"id":"MA010120220800143347","name":"크리스마스호텔","industry":"여관/모텔","coordinates":[127.42588031377,36.3595195323063],"sales":{"202602":2466}},{"id":"MA010120220800211782","name":"피에이치코퍼레이션","industry":"자전거 소매업","coordinates":[127.420322340864,36.3598366002651],"sales":{"202602":138}},{"id":"MA010120220800221432","name":"살롱드어썸","industry":"미용실","coordinates":[127.431119455382,36.3620060008168],"sales":{"202602":269}},{"id":"MA010120220800377871","name":"지리산왕족발보쌈","industry":"돼지고기 구이/찜","coordinates":[127.426456736741,36.3610224335088],"sales":{"202602":1812}},{"id":"MA010120220800459291","name":"장수막걸리마을","industry":"백반/한정식","coordinates":[127.433561851505,36.3624207135995],"sales":{"202602":1219}},{"id":"MA010120220800651217","name":"만미당","industry":"백반/한정식","coordinates":[127.429308697556,36.360958149945],"sales":{"202602":791}},{"id":"MA010120220800693023","name":"토속집","industry":"백반/한정식","coordinates":[127.434736655042,36.3632995926237],"sales":{"202602":1296}},{"id":"MA010120220800755492","name":"김수연뷰티","industry":"미용실","coordinates":[127.428282340637,36.3668194469952],"sales":{"202602":343}},{"id":"MA010120220800758966","name":"중국전통킹아로마","industry":"마사지/안마","coordinates":[127.425356255633,36.3635406252688],"sales":{"202602":382}},{"id":"MA010120220800805362","name":"석정당구클럽","industry":"당구장","coordinates":[127.425356255633,36.3635406252688],"sales":{"202602":256}},{"id":"MA010120220800863815","name":"함지박떡방","industry":"떡/한과","coordinates":[127.426181513259,36.3657185189749],"sales":{"202602":1347}},{"id":"MA010120220800893991","name":"큰손부대찌개칼국수","industry":"국수/칼국수","coordinates":[127.429275157908,36.3670231532085],"sales":{"202602":639}},{"id":"MA010120220800931836","name":"장성유통","industry":"반찬/식료품 소매업","coordinates":[127.426124365402,36.3634117242559],"sales":{"202602":1558}},{"id":"MA010120220800996668","name":"고운스킨앤바디","industry":"피부 관리실","coordinates":[127.43545792374,36.3647658748732],"sales":{"202602":99}},{"id":"MA010120220801049873","name":"한민중리","industry":"핸드폰 소매업","coordinates":[127.425236084456,36.3660282858413],"sales":{"202602":184}},{"id":"MA010120220801147217","name":"캐리어냉동공조","industry":"가전제품 수리업","coordinates":[127.42179047558,36.3634901845311],"sales":{"202602":2793}},{"id":"MA010120220801150466","name":"아트빈","industry":"여관/모텔","coordinates":[127.426150999517,36.360122352445],"sales":{"202602":561}},{"id":"MA010120220801165417","name":"삼복세계주류","industry":"주류 소매업","coordinates":[127.436045692611,36.3642680871632],"sales":{"202602":1430}},{"id":"MA010120220801303087","name":"비타민","industry":"노래방","coordinates":[127.425040261154,36.3628027891408],"sales":{"202602":577}},{"id":"MA010120220801438454","name":"카스식당","industry":"요리 주점","coordinates":[127.427199286084,36.3602988434051],"sales":{"202602":454}},{"id":"MA010120220801494307","name":"휠가요주점","industry":"일반 유흥 주점","coordinates":[127.424004452237,36.3608238914947],"sales":{"202602":945}},{"id":"MA010120220801506011","name":"웰빙포샵안마의자","industry":"의료기기 소매업","coordinates":[127.431539954015,36.3594631786242],"sales":{"202602":1707}},{"id":"MA010120220801725306","name":"안녕이네","industry":"채소/과일 소매업","coordinates":[127.433055968364,36.363621106065],"sales":{"202602":1245}},{"id":"MA010120220801743885","name":"이아이씨유영어교습소","industry":"입시·교과학원","coordinates":[127.423311051802,36.3582850446329],"sales":{"202602":334}},{"id":"MA010120220802282888","name":"4J필리핀스토어","industry":"슈퍼마켓","coordinates":[127.429916084154,36.3599736887641],"sales":{"202602":4816}},{"id":"MA010120220802283399","name":"맥주꾼들","industry":"요리 주점","coordinates":[127.427178135739,36.3605061885608],"sales":{"202602":1149}},{"id":"MA010120220802374243","name":"세탁풍경","industry":"셀프 빨래방","coordinates":[127.425792656757,36.3618358565127],"sales":{"202602":378}},{"id":"MA010120220802475753","name":"유람선","industry":"요리 주점","coordinates":[127.425147430568,36.3599727283229],"sales":{"202602":499}},{"id":"MA010120220802524425","name":"현대건축자재","industry":"기타 건설/건축자재 소매업","coordinates":[127.430715105903,36.3634403217],"sales":{"202602":68}},{"id":"MA010120220802527823","name":"머리하는풍경","industry":"미용실","coordinates":[127.424613287926,36.366246781931],"sales":{"202602":361}},{"id":"MA010120220802670231","name":"종열가구A/S","industry":"그 외 기타 개인/가정용품 수리업","coordinates":[127.429493401096,36.3601013729407],"sales":{"202602":644}},{"id":"MA010120220802682909","name":"마마운동화이불빨래방","industry":"셀프 빨래방","coordinates":[127.421698179205,36.3629047487376],"sales":{"202602":319}},{"id":"MA010120220802729764","name":"동욱인테리어","industry":"인테리어 디자인업","coordinates":[127.428380654139,36.3623943438131],"sales":{"202602":2263}},{"id":"MA010120220802739335","name":"수연정보통신","industry":"핸드폰 소매업","coordinates":[127.427025680688,36.3570732676417],"sales":{"202602":124}},{"id":"MA010120220802833092","name":"낭만카페","industry":"카페","coordinates":[127.42542286985,36.3614496698773],"sales":{"202602":743}},{"id":"MA010120220802837977","name":"루비식당","industry":"백반/한정식","coordinates":[127.425365239649,36.3631440778152],"sales":{"202602":2270}},{"id":"MA010120220802902978","name":"또또포차","industry":"돼지고기 구이/찜","coordinates":[127.425496986286,36.3607374801927],"sales":{"202602":2916}},{"id":"MA010120220802911133","name":"중리보쌈","industry":"족발/보쌈","coordinates":[127.426744697254,36.3607059952268],"sales":{"202602":4568}},{"id":"MA010120220802915441","name":"복수한우정육","industry":"정육점","coordinates":[127.437036688531,36.3621557258913],"sales":{"202602":3972}},{"id":"MA010120220802919088","name":"엘림구제","industry":"중고 상품 소매업","coordinates":[127.427479409409,36.3565129183316],"sales":{"202602":427}},{"id":"MA010120220802938607","name":"유정사무용가구","industry":"주방/가정용품 소매업","coordinates":[127.42815202802,36.3593041440325],"sales":{"202602":783}},{"id":"MA010120220802959750","name":"충일공조","industry":"가전제품 소매업","coordinates":[127.424014180477,36.3626171888788],"sales":{"202602":468}},{"id":"MA010120220802967083","name":"카페생각","industry":"카페","coordinates":[127.434980524044,36.3630734122341],"sales":{"202602":444}},{"id":"MA010120220802972561","name":"디자인숲","industry":"조경 유지·관리 서비스업","coordinates":[127.427382645507,36.3551164469713],"sales":{}},{"id":"MA010120220803011776","name":"승신유통","industry":"입시·교과학원","coordinates":[127.424537994983,36.3626423639578],"sales":{"202602":453}},{"id":"MA010120220803014376","name":"디지털오에이기획","industry":"컴퓨터/소프트웨어 소매업","coordinates":[127.427123437689,36.3647689256115],"sales":{"202602":642}},{"id":"MA010120220803050864","name":"뻑가네통닭떡볶이","industry":"김밥/만두/분식","coordinates":[127.434710662127,36.3626328204755],"sales":{"202602":933}},{"id":"MA010120220803094182","name":"맥주창고","industry":"생맥주 전문","coordinates":[127.428773504232,36.3608879779916],"sales":{"202602":563}},{"id":"MA010120220803109659","name":"오렌지","industry":"요리 주점","coordinates":[127.436383600078,36.362924108535],"sales":{"202602":581}},{"id":"MA010120220803117998","name":"영스타일","industry":"여성 의류 소매업","coordinates":[127.425356893209,36.3636577752918],"sales":{"202602":341}},{"id":"MA010120220803128252","name":"미손네일","industry":"네일숍","coordinates":[127.424658388449,36.3560904146285],"sales":{"202602":120}},{"id":"MA010120220803142608","name":"제이제이모터스","industry":"자동차 세차장","coordinates":[127.422161666028,36.3641377170883],"sales":{"202602":327}},{"id":"MA010120220803150103","name":"에덴제일테크","industry":"기타 의류 소매업","coordinates":[127.432891245793,36.362044653163],"sales":{"202602":1087}},{"id":"MA010120220803159371","name":"캐논케쥬얼","industry":"남성 의류 소매업","coordinates":[127.426032438495,36.3649440434119],"sales":{"202602":917}},{"id":"MA010120220803180838","name":"감동유리막스팀출장세차","industry":"자동차 세차장","coordinates":[127.425417483136,36.3584127393078],"sales":{"202602":791}},{"id":"MA010120220803226212","name":"경성생활용품","industry":"주방/가정용품 소매업","coordinates":[127.423911508776,36.3621759790579],"sales":{"202602":309}},{"id":"MA010120220803243558","name":"해물칼국수","industry":"국수/칼국수","coordinates":[127.427306334602,36.3554231185967],"sales":{"202602":349}},{"id":"MA010120220803259780","name":"태산장묘","industry":"장례식장","coordinates":[127.423605412284,36.3591491268065],"sales":{"202602":10265}},{"id":"MA010120220803269514","name":"에이치아이엘","industry":"상용 인력 공급 및 인사관리 서비스업","coordinates":[127.425830691697,36.3585915018509],"sales":{}},{"id":"MA010120220803287056","name":"백합식당","industry":"요리 주점","coordinates":[127.433016850701,36.3625939125753],"sales":{"202602":813}},{"id":"MA010120220803300632","name":"장수건강원","industry":"건강보조식품 소매업","coordinates":[127.428785103717,36.3650333250749],"sales":{"202602":1093}},{"id":"MA010120220803321065","name":"폭스","industry":"생맥주 전문","coordinates":[127.424997261644,36.3630913170101],"sales":{"202602":1826}},{"id":"MA010120220803326587","name":"소문난건어물","industry":"건어물/젓갈 소매업","coordinates":[127.432290337738,36.3621820045187],"sales":{"202602":1690}},{"id":"MA010120220803335748","name":"라하뷰티","industry":"피부 관리실","coordinates":[127.436367454516,36.3640235962595],"sales":{"202602":250}},{"id":"MA010120220803353495","name":"리취8로마청풍면옥","industry":"중국집","coordinates":[127.425561628042,36.3603317226042],"sales":{"202602":1101}},{"id":"MA010120220803365368","name":"에이스모텔","industry":"여관/모텔","coordinates":[127.42574985617,36.3601147707726],"sales":{"202602":843}},{"id":"MA010120220803369693","name":"몽플디자인센터","industry":"시각 디자인업","coordinates":[127.431016794165,36.3615738088549],"sales":{"202602":1814}},{"id":"MA010120220803395157","name":"해바라기국시","industry":"김밥/만두/분식","coordinates":[127.42410090708,36.3580659623858],"sales":{"202602":560}},{"id":"MA010120220803425432","name":"국가대표대전","industry":"돼지고기 구이/찜","coordinates":[127.426854509221,36.3583715673858],"sales":{"202602":2877}},{"id":"MA010120220803431618","name":"에스엔에스솔루션","industry":"철물/공구 소매업","coordinates":[127.421912891564,36.3634627171621],"sales":{"202602":738}},{"id":"MA010120220803444875","name":"금성삼겹살","industry":"돼지고기 구이/찜","coordinates":[127.428384930676,36.3611416998839],"sales":{"202602":1819}},{"id":"MA010120220803505241","name":"힐링호프","industry":"생맥주 전문","coordinates":[127.428160271262,36.3608090715957],"sales":{"202602":599}},{"id":"MA010120220803515221","name":"제이제이클린카","industry":"자동차 세차장","coordinates":[127.428630192338,36.3571035695406],"sales":{"202602":460}},{"id":"MA010120220803571979","name":"쓱앤싹","industry":"건축물 일반 청소업","coordinates":[127.421990400775,36.357181273942],"sales":{"202602":139}},{"id":"MA010120220803578772","name":"세븐노래연습장","industry":"노래방","coordinates":[127.424909967484,36.3654797316873],"sales":{"202602":639}},{"id":"MA010120220803590935","name":"피앤쓰리헤어칼라","industry":"미용실","coordinates":[127.429736042749,36.3616775510378],"sales":{"202602":64}},{"id":"MA010120220803812010","name":"영화막창","industry":"곱창 전골/구이","coordinates":[127.424442872986,36.3656436027805],"sales":{"202602":514}},{"id":"MA010120220803819882","name":"기은전기","industry":"전기용품/조명장치 소매업","coordinates":[127.429178404113,36.3636080623742],"sales":{"202602":194}},{"id":"MA010120220803826522","name":"꽃보다옷","industry":"여성 의류 소매업","coordinates":[127.425466259367,36.3612332341418],"sales":{"202602":620}},{"id":"MA010120220803848328","name":"바운스호프","industry":"생맥주 전문","coordinates":[127.427433307499,36.3603070181776],"sales":{"202602":393}},{"id":"MA010120220803864687","name":"3돈한마리","industry":"돼지고기 구이/찜","coordinates":[127.426311895487,36.3610229503885],"sales":{"202602":524}},{"id":"MA010120220803920602","name":"춘세흑돼지","industry":"돼지고기 구이/찜","coordinates":[127.425365239649,36.3631440778152],"sales":{"202602":1178}},{"id":"MA010120220804041067","name":"추억만들기","industry":"생맥주 전문","coordinates":[127.425454185727,36.3610620544833],"sales":{"202602":221}},{"id":"MA010120220804047013","name":"시온","industry":"구내식당","coordinates":[127.429484833878,36.3625976492787],"sales":{"202602":22183}},{"id":"MA010120220804200295","name":"윙크식당","industry":"요리 주점","coordinates":[127.426415593563,36.3596077404046],"sales":{"202602":811}},{"id":"MA010120220804200342","name":"공예노리터","industry":"기념품점","coordinates":[127.428861615612,36.3647626991118],"sales":{"202602":281}},{"id":"MA010120220804327467","name":"강순네호떡","industry":"그 외 기타 간이 음식점","coordinates":[127.426261917876,36.3661598059771],"sales":{"202602":906}},{"id":"MA010120220804340482","name":"조이축산","industry":"정육점","coordinates":[127.431959520419,36.3628050092589],"sales":{"202602":2171}},{"id":"MA010120220804395190","name":"한성사진관","industry":"사진촬영업","coordinates":[127.425236084456,36.3660282858413],"sales":{"202602":134}},{"id":"MA010120220804407717","name":"립스모텔","industry":"여관/모텔","coordinates":[127.424259241881,36.3605526354713],"sales":{"202602":1151}},{"id":"MA010120220804420735","name":"국민서적","industry":"중고 상품 소매업","coordinates":[127.421735703504,36.3595342331349],"sales":{"202602":303}},{"id":"MA010120220804435106","name":"스마트홈크린","industry":"건축물 일반 청소업","coordinates":[127.427828390774,36.3612428228681],"sales":{"202602":291}},{"id":"MA010120220804501057","name":"가람유통","industry":"채소/과일 소매업","coordinates":[127.423595931253,36.3594555589637],"sales":{"202602":2514}},{"id":"MA010120220804581478","name":"마이데스크스터디카페","industry":"독서실/스터디 카페","coordinates":[127.425830691697,36.3585915018509],"sales":{"202602":220}},{"id":"MA010120220804587003","name":"세이프티","industry":"소독, 구충 및 방제 서비스업","coordinates":[127.430432736959,36.3587011762285],"sales":{"202602":93}},{"id":"MA010120220804589601","name":"뷰티아카데미요람학원","industry":"기타 기술/직업 훈련학원","coordinates":[127.430845630279,36.3628631014281],"sales":{"202602":233}},{"id":"MA010120220804598782","name":"그린케어설비","industry":"산업설비, 운송장비 및 공공장소 청소업","coordinates":[127.421436455262,36.3577599794386],"sales":{"202602":430}},{"id":"MA010120220804657047","name":"만나숯불구이","industry":"돼지고기 구이/찜","coordinates":[127.423953638533,36.3658345857491],"sales":{"202602":1009}},{"id":"MA010120220804690437","name":"고미할미","industry":"그 외 기타 간이 음식점","coordinates":[127.425850470582,36.3581318335108],"sales":{"202602":2635}},{"id":"MA010120220804691253","name":"카페에셀","industry":"카페","coordinates":[127.425561628042,36.3603317226042],"sales":{"202602":567}},{"id":"MA010120220804707764","name":"이름없는가게","industry":"백반/한정식","coordinates":[127.426743664076,36.3605167528213],"sales":{"202602":1103}},{"id":"MA010120220804808025","name":"세도나모텔","industry":"여관/모텔","coordinates":[127.424046574273,36.3603731560202],"sales":{"202602":1474}},{"id":"MA010120220804808608","name":"에바다공인중개사사무소","industry":"부동산 중개/대리업","coordinates":[127.424836184556,36.3662550012658],"sales":{"202602":121}},{"id":"MA010120220804865113","name":"황진이노래연습장","industry":"노래방","coordinates":[127.427167929886,36.3606774477042],"sales":{"202602":573}},{"id":"MA010120220804897021","name":"민성커뮤니티","industry":"컴퓨터/소프트웨어 소매업","coordinates":[127.429402484141,36.3618049143004],"sales":{"202602":902}},{"id":"MA010120220804899344","name":"퀸","industry":"마사지/안마","coordinates":[127.426033403722,36.3610329554379],"sales":{"202602":338}},{"id":"MA010120220804909244","name":"현공방","industry":"예술품 소매업","coordinates":[127.431855470971,36.3641391188704],"sales":{"202602":98}},{"id":"MA010120220804910312","name":"땅스부대찌개중리","industry":"국/탕/찌개류","coordinates":[127.426082313419,36.3659171304345],"sales":{"202602":1839}},{"id":"MA010120220804910838","name":"대찬유통","industry":"신발 소매업","coordinates":[127.425570992906,36.366144245617],"sales":{"202602":244}},{"id":"MA010120220804914918","name":"노리터","industry":"유아용 의류 소매업","coordinates":[127.425868836499,36.3635478110517],"sales":{"202602":227}},{"id":"MA010120220804921910","name":"큐사랑헤어","industry":"미용실","coordinates":[127.425304321628,36.3642347121571],"sales":{"202602":170}},{"id":"MA010120220804930361","name":"기프트스토리","industry":"가방 소매업","coordinates":[127.432746253087,36.3620181432538],"sales":{"202602":279}},{"id":"MA010120220804932267","name":"부자언니네일","industry":"네일숍","coordinates":[127.425663666263,36.3647471001282],"sales":{"202602":223}},{"id":"MA010120220804950547","name":"민이네축산","industry":"정육점","coordinates":[127.425749270763,36.3661436104612],"sales":{"202602":23267}},{"id":"MA010120220804981315","name":"도미노피자","industry":"피자","coordinates":[127.434396135944,36.362174367032],"sales":{"202602":4200}},{"id":"MA010120220804984741","name":"9시그린공인중개사사무소","industry":"부동산 중개/대리업","coordinates":[127.435315736057,36.3652440136051],"sales":{"202602":157}},{"id":"MA010120220804994069","name":"강남인테리어","industry":"인테리어 디자인업","coordinates":[127.423013363387,36.3629812050791],"sales":{"202602":957}},{"id":"MA010120220804999626","name":"크린토피아코인워시대전","industry":"셀프 빨래방","coordinates":[127.431177196652,36.3643938965029],"sales":{"202602":234}},{"id":"MA010120220805000391","name":"양푼이동태찌개","industry":"백반/한정식","coordinates":[127.431220720928,36.3642044934768],"sales":{"202602":341}},{"id":"MA010120220805001153","name":"소문난국","industry":"반찬/식료품 소매업","coordinates":[127.425569569781,36.3658829110635],"sales":{"202602":2686}},{"id":"MA010120220805051335","name":"세이프존","industry":"미용실","coordinates":[127.435736377127,36.3647468362549],"sales":{"202602":233}},{"id":"MA010120220805057891","name":"황실민물장어","industry":"수산물 소매업","coordinates":[127.426006232906,36.3662688584561],"sales":{"202602":1470}},{"id":"MA010120220805067704","name":"더펫센터","industry":"애완동물/애완용품 소매업","coordinates":[127.43202794986,36.3610745125698],"sales":{"202602":612}},{"id":"MA010120220805102016","name":"효건강원","industry":"건강보조식품 소매업","coordinates":[127.426599657394,36.3647527735134],"sales":{"202602":1102}},{"id":"MA010120220805107133","name":"더원인터내셔널","industry":"임시/일용 인력 공급업","coordinates":[127.430903240859,36.3611867146348],"sales":{"202602":31317}},{"id":"MA010120220805114696","name":"똥광노래연습장","industry":"노래방","coordinates":[127.426167103363,36.3610324786359],"sales":{"202602":414}},{"id":"MA010120220805153409","name":"오병이어베이커리","industry":"빵/도넛","coordinates":[127.425703326815,36.3658914462624],"sales":{"202602":3640}},{"id":"MA010120220805155009","name":"더웰스토리","industry":"카페","coordinates":[127.428369751397,36.3665037238006],"sales":{"202602":243}},{"id":"MA010120220805155359","name":"오렌지식당","industry":"요리 주점","coordinates":[127.432907578482,36.3629818122219],"sales":{"202602":163}},{"id":"MA010120220805164636","name":"무대조명인테리어,문구","industry":"인테리어 디자인업","coordinates":[127.424952615847,36.3610277925511],"sales":{"202602":613}},{"id":"MA010120220805179305","name":"재팬스포츠","industry":"운동용품 소매업","coordinates":[127.427278615797,36.3585052273714],"sales":{"202602":6704}},{"id":"MA010120220805184832","name":"초원공인중개사사무소","industry":"부동산 중개/대리업","coordinates":[127.428940757896,36.3568501268047],"sales":{"202602":122}},{"id":"MA010120220805186984","name":"양평칼국수","industry":"국수/칼국수","coordinates":[127.42854106198,36.3611681751495],"sales":{"202602":1337}},{"id":"MA010120220805196013","name":"삼익가구","industry":"가구 소매업","coordinates":[127.4307707004,36.3593758372582],"sales":{"202602":1479}},{"id":"MA010120220805203058","name":"지에스25뉴중리사랑","industry":"편의점","coordinates":[127.426385216941,36.3601665754521],"sales":{"202602":637}},{"id":"MA010120220805210327","name":"화장품","industry":"화장품 소매업","coordinates":[127.425819656597,36.3647465442787],"sales":{"202602":556}},{"id":"MA010120220805224918","name":"이쌤수학교습소","industry":"입시·교과학원","coordinates":[127.42771943294,36.3555838516741],"sales":{"202602":246}},{"id":"MA010120220805232108","name":"썸노래연습장","industry":"노래방","coordinates":[127.427994676884,36.3610890281348],"sales":{"202602":362}},{"id":"MA010120220805246151","name":"서진상사","industry":"자동차 부품 소매업","coordinates":[127.421421654393,36.3591478371277],"sales":{"202602":744}},{"id":"MA010120220805257397","name":"임영미노래교실","industry":"레크리에이션 교육기관","coordinates":[127.429500927626,36.3614711269612],"sales":{"202602":424}},{"id":"MA010120220805273110","name":"중리BYC","industry":"기타 의류 소매업","coordinates":[127.425793152838,36.3660172901271],"sales":{"202602":1163}},{"id":"MA010120220805277842","name":"착한한돈","industry":"돼지고기 구이/찜","coordinates":[127.428251181513,36.3611331676283],"sales":{"202602":421}},{"id":"MA010120220805279067","name":"연화네","industry":"돼지고기 구이/찜","coordinates":[127.424438810823,36.3648956450622],"sales":{"202602":1503}},{"id":"MA010120220805282336","name":"웅진건강원","industry":"건강보조식품 소매업","coordinates":[127.425147430568,36.3599727283229],"sales":{"202602":851}},{"id":"MA010120220805314001","name":"카이져노래연습장","industry":"노래방","coordinates":[127.425086658559,36.3610903977691],"sales":{"202602":212}},{"id":"MA010120220805323759","name":"엘르골프대전","industry":"기타 의류 소매업","coordinates":[127.425225628577,36.366154487011],"sales":{"202602":699}},{"id":"MA010120220805325141","name":"반석컴퍼니","industry":"경영 컨설팅업","coordinates":[127.42758810535,36.3621268312728],"sales":{"202602":715}},{"id":"MA010120220805330051","name":"별식당","industry":"생맥주 전문","coordinates":[127.435602864043,36.362782770117],"sales":{"202602":351}},{"id":"MA010120220805341595","name":"바람의딸","industry":"요리 주점","coordinates":[127.427715938579,36.3610539794002],"sales":{"202602":1401}},{"id":"MA010120220805379619","name":"란모텔","industry":"여관/모텔","coordinates":[127.42464679797,36.3601096844326],"sales":{"202602":493}},{"id":"MA010120220805389153","name":"흑추관합기도주짓수","industry":"태권도/무술학원","coordinates":[127.425426878,36.3662799345282],"sales":{"202602":429}},{"id":"MA010120220805413059","name":"무주산지직매장건강원홍삼더덕","industry":"건강보조식품 소매업","coordinates":[127.426114697373,36.363682110176],"sales":{"202602":1195}},{"id":"MA010120220805441106","name":"페로스터리","industry":"카페","coordinates":[127.426985645265,36.3640214459455],"sales":{"202602":679}},{"id":"MA010120220805455422","name":"박홍근홈패션","industry":"침구류/커튼 소매업","coordinates":[127.430954962279,36.3624842151277],"sales":{"202602":802}},{"id":"MA010120220805492866","name":"서현에어컨","industry":"가전제품 소매업","coordinates":[127.429566048532,36.3652107540551],"sales":{"202602":333}},{"id":"MA010120220805493036","name":"비와이씨이불침구","industry":"기타 의류 소매업","coordinates":[127.424987638745,36.3633707144199],"sales":{"202602":1594}},{"id":"MA010120220805511000","name":"씨유대전","industry":"편의점","coordinates":[127.425830691697,36.3585915018509],"sales":{"202602":2131}},{"id":"MA010120220805514225","name":"보람노래연습장","industry":"노래방","coordinates":[127.425356255633,36.3635406252688],"sales":{"202602":1285}},{"id":"MA010120220805523295","name":"아우토스트라세","industry":"자동차 부품 소매업","coordinates":[127.422814277338,36.3591339055254],"sales":{"202602":1304}},{"id":"MA010120220805525741","name":"나라보청기","industry":"의료기기 소매업","coordinates":[127.424836184556,36.3662550012658],"sales":{"202602":10552}},{"id":"MA010120220805565063","name":"제주똥도야지식당","industry":"돼지고기 구이/찜","coordinates":[127.427023187747,36.3606959885272],"sales":{"202602":839}},{"id":"MA010120220805570102","name":"미래테크","industry":"임시/일용 인력 공급업","coordinates":[127.431539954015,36.3594631786242],"sales":{"202602":29731}},{"id":"MA010120220805576505","name":"영광당","industry":"시계/귀금속 소매업","coordinates":[127.425057203084,36.3618204517312],"sales":{"202602":306}},{"id":"MA010120220805585425","name":"쿨노래연습장","industry":"노래방","coordinates":[127.42855052376,36.3608617428149],"sales":{"202602":984}},{"id":"MA010120220805626293","name":"이노센트대전중리동점,장수.돌.흙침대","industry":"가구 소매업","coordinates":[127.429979562246,36.359360663446],"sales":{"202602":2485}},{"id":"MA010120220805626451","name":"중리한밭도매","industry":"슈퍼마켓","coordinates":[127.425624250763,36.365693470339],"sales":{"202602":4713}},{"id":"MA010120220805635052","name":"선식품홍비비엣","industry":"베트남식 전문","coordinates":[127.427688920099,36.3581523022701],"sales":{"202602":1173}},{"id":"MA010120220805637461","name":"모아","industry":"핸드폰 소매업","coordinates":[127.432040336757,36.3612997606827],"sales":{"202602":232}},{"id":"MA010120220805666968","name":"사랑의뜰안","industry":"화장품 소매업","coordinates":[127.434892792731,36.3633260595361],"sales":{"202602":1116}},{"id":"MA010120220805683091","name":"경희조형디자인","industry":"인테리어 디자인업","coordinates":[127.427278615797,36.3585052273714],"sales":{"202602":1101}},{"id":"MA010120220805688711","name":"에이비커피","industry":"카페","coordinates":[127.429174899137,36.3609406071821],"sales":{"202602":1588}},{"id":"MA010120220805695355","name":"투다리중리식당","industry":"요리 주점","coordinates":[127.424401533721,36.3662385226005],"sales":{"202602":410}},{"id":"MA010120220805738369","name":"셈마트","industry":"중고 상품 소매업","coordinates":[127.42679625934,36.3660677812707],"sales":{"202602":2175}},{"id":"MA010120220805738994","name":"만수산","industry":"국수/칼국수","coordinates":[127.432587545221,36.3595134607721],"sales":{"202602":526}},{"id":"MA010120220805739618","name":"호텔나인","industry":"여관/모텔","coordinates":[127.426149967798,36.3599331100064],"sales":{"202602":1145}},{"id":"MA010120220805740143","name":"팬텀골프","industry":"기타 의류 소매업","coordinates":[127.430146882714,36.3654700039249],"sales":{"202602":656}},{"id":"MA010120220805741200","name":"썬팅랜드","industry":"자동차 세차장","coordinates":[127.423449384258,36.3591406681431],"sales":{"202602":603}},{"id":"MA010120220805742786","name":"크린월드","industry":"세탁소","coordinates":[127.42216014507,36.3576673075024],"sales":{"202602":201}},{"id":"MA010120220805743123","name":"참치랑육회","industry":"횟집","coordinates":[127.427582091039,36.3610274233112],"sales":{"202602":2444}},{"id":"MA010120220805743136","name":"소망열쇠보안공사","industry":"철물/공구 소매업","coordinates":[127.426792532584,36.3592639492068],"sales":{"202602":512}},{"id":"MA010120220805743268","name":"아카데미","industry":"문구/회화용품 소매업","coordinates":[127.428998215934,36.361229616643],"sales":{"202602":3840}},{"id":"MA010120220805743294","name":"로얄도매마트","industry":"슈퍼마켓","coordinates":[127.428805890892,36.3606986156903],"sales":{"202602":2991}},{"id":"MA010120220805743355","name":"하나도시락식당","industry":"백반/한정식","coordinates":[127.427349814239,36.3552247051168],"sales":{"202602":1854}},{"id":"MA010120220805743374","name":"일미반찬","industry":"반찬/식료품 소매업","coordinates":[127.426013592706,36.3655749304581],"sales":{"202602":614}},{"id":"MA010120220805743597","name":"소리전자음향","industry":"가전제품 수리업","coordinates":[127.428637289583,36.3644931527496],"sales":{"202602":792}},{"id":"MA010120220805743677","name":"ALLPAR골프클리닉","industry":"골프 연습장","coordinates":[127.431016794165,36.3615738088549],"sales":{"202602":656}},{"id":"MA010120220805744322","name":"클래스","industry":"여관/모텔","coordinates":[127.425926941781,36.3598978583603],"sales":{"202602":1261}},{"id":"MA010120220805744349","name":"예전미용실","industry":"미용실","coordinates":[127.420918662178,36.360915907577],"sales":{"202602":401}},{"id":"MA010120220805744526","name":"짱구애견","industry":"애완동물/애완용품 소매업","coordinates":[127.425265588486,36.3653072438874],"sales":{"202602":326}},{"id":"MA010120220805744746","name":"연예인식당","industry":"일반 유흥 주점","coordinates":[127.424988373768,36.3635058875335],"sales":{"202602":1573}},{"id":"MA010120220805744945","name":"슈즈닥터","industry":"신발 소매업","coordinates":[127.425356893209,36.3636577752918],"sales":{"202602":186}},{"id":"MA010120220805745559","name":"연화미용실","industry":"미용실","coordinates":[127.430411840912,36.3629998405986],"sales":{"202602":260}},{"id":"MA010120220805745581","name":"사진사랑스튜디오","industry":"사진촬영업","coordinates":[127.427262411502,36.3555404281046],"sales":{"202602":185}},{"id":"MA010120220805745670","name":"선비마을세탁","industry":"세탁소","coordinates":[127.434006523647,36.3622388649061],"sales":{"202602":115}},{"id":"MA010120220805745882","name":"김영성헤어바버샵","industry":"미용실","coordinates":[127.421698179205,36.3629047487376],"sales":{"202602":264}},{"id":"MA010120220805746092","name":"오토카쎈타","industry":"자동차 정비소","coordinates":[127.425073409613,36.360702940988],"sales":{"202602":1610}},{"id":"MA010120220805746497","name":"아이엔씨","industry":"핸드폰 소매업","coordinates":[127.424929214147,36.3649209370569],"sales":{"202602":456}},{"id":"MA010120220805746835","name":"청솔마트","industry":"슈퍼마켓","coordinates":[127.424617289709,36.3608307268853],"sales":{"202602":6049}},{"id":"MA010120220805746857","name":"간이역영진역점식당","industry":"요리 주점","coordinates":[127.421184070345,36.3605454917459],"sales":{"202602":640}},{"id":"MA010120220805746878","name":"태영생막창","industry":"곱창 전골/구이","coordinates":[127.422816828798,36.3657845439609],"sales":{"202602":1262}},{"id":"MA010120220805747756","name":"장금이떡집","industry":"떡/한과","coordinates":[127.425849694998,36.364124628993],"sales":{"202602":1224}},{"id":"MA010120220805747789","name":"필스킨케어","industry":"피부 관리실","coordinates":[127.436359834459,36.364654443777],"sales":{"202602":150}},{"id":"MA010120220805747912","name":"중소기업가구","industry":"가구 소매업","coordinates":[127.427227145034,36.3592804194464],"sales":{"202602":1483}},{"id":"MA010120220805748197","name":"든든공인중개사사무소","industry":"부동산 중개/대리업","coordinates":[127.433014054896,36.3620892667228],"sales":{"202602":194}},{"id":"MA010120220805748331","name":"아롱미용실","industry":"미용실","coordinates":[127.436327112402,36.3647807272107],"sales":{"202602":267}},{"id":"MA010120220805748350","name":"새한슈퍼","industry":"슈퍼마켓","coordinates":[127.430972388223,36.3595823794922],"sales":{"202602":3922}},{"id":"MA010120220805748557","name":"유진식당","industry":"일식 회/초밥","coordinates":[127.426590387175,36.3610129446905],"sales":{"202602":873}},{"id":"MA010120220805748567","name":"오문창순대국밥식당","industry":"백반/한정식","coordinates":[127.426614122898,36.3592375511803],"sales":{"202602":1068}},{"id":"MA010120220805748754","name":"모터스NO1","industry":"자동차 정비소","coordinates":[127.427802600909,36.3585664345116],"sales":{"202602":1534}},{"id":"MA010120220805748777","name":"국제미용실","industry":"미용실","coordinates":[127.426411273094,36.3649426919629],"sales":{"202602":594}},{"id":"MA010120220805748904","name":"낙원떡집","industry":"떡/한과","coordinates":[127.425749270763,36.3661436104612],"sales":{"202602":499}},{"id":"MA010120220805749339","name":"정충량공인회계사무소","industry":"공인회계사","coordinates":[127.427624734757,36.3586391649784],"sales":{"202602":567}},{"id":"MA010120220805749662","name":"디바노래연습장","industry":"노래방","coordinates":[127.427607975071,36.3555752388662],"sales":{"202602":240}},{"id":"MA010120220805749880","name":"한빛공인중개사","industry":"부동산 중개/대리업","coordinates":[127.427468958271,36.3566391198661],"sales":{"202602":376}},{"id":"MA010120220805749901","name":"그린공인중개사","industry":"부동산 중개/대리업","coordinates":[127.425086658559,36.3610903977691],"sales":{"202602":305}},{"id":"MA010120220805750070","name":"식당이야기","industry":"백반/한정식","coordinates":[127.425012176892,36.3637851660246],"sales":{"202602":932}},{"id":"MA010120220805750413","name":"수헤어","industry":"미용실","coordinates":[127.431543891039,36.3642123383666],"sales":{"202602":195}},{"id":"MA010120220805750434","name":"양지마을생연탄구이식당","industry":"돼지고기 구이/찜","coordinates":[127.429925689137,36.3596942909185],"sales":{"202602":1558}},{"id":"MA010120220805750592","name":"노다지복권방","industry":"복권 발행/판매업","coordinates":[127.433615660842,36.3620780731984],"sales":{"202602":104}},{"id":"MA010120220805750664","name":"행복헤어","industry":"미용실","coordinates":[127.429500927626,36.3614711269612],"sales":{"202602":362}},{"id":"MA010120220805750962","name":"초원세탁소","industry":"세탁소","coordinates":[127.428681166079,36.3643668313571],"sales":{"202602":209}},{"id":"MA010120220805751004","name":"도움마당","industry":"광고물 설계/제작업","coordinates":[127.436175776542,36.3636187691855],"sales":{"202602":3917}},{"id":"MA010120220805751713","name":"우리물서비스","industry":"기타 개인/가정용품 대여업","coordinates":[127.428861615612,36.3647626991118],"sales":{"202602":204}},{"id":"MA010120220805752127","name":"강남숯불갈비식당","industry":"돼지고기 구이/찜","coordinates":[127.425305008182,36.3643608737063],"sales":{"202602":2395}},{"id":"MA010120220805752146","name":"옥천해장국식당","industry":"국/탕/찌개류","coordinates":[127.420353536101,36.3594219512852],"sales":{"202602":4181}},{"id":"MA010120220805752580","name":"토지공인중개사무소","industry":"부동산 중개/대리업","coordinates":[127.421330853808,36.3609054430586],"sales":{"202602":156}},{"id":"MA010120220805752649","name":"시크헤어","industry":"미용실","coordinates":[127.433082153871,36.3623143127592],"sales":{"202602":108}},{"id":"MA010120220805752973","name":"모든열쇠·엠디유통","industry":"그 외 기타 개인/가정용품 수리업","coordinates":[127.4303768009,36.3647302156525],"sales":{"202602":1511}},{"id":"MA010120220805753246","name":"원마트편의점","industry":"슈퍼마켓","coordinates":[127.427607975071,36.3555752388662],"sales":{"202602":2465}},{"id":"MA010120220805753994","name":"대원상사","industry":"가전제품 소매업","coordinates":[127.432691891207,36.3622616564234],"sales":{"202602":458}},{"id":"MA010120220805754002","name":"황궁라이브","industry":"요리 주점","coordinates":[127.425057203084,36.3618204517312],"sales":{"202602":172}},{"id":"MA010120220805754037","name":"도림공인중개사무소","industry":"부동산 중개/대리업","coordinates":[127.435272070729,36.3634057838056],"sales":{"202602":262}},{"id":"MA010120220805754043","name":"스마일자동차유리","industry":"자동차 정비소","coordinates":[127.43325247798,36.3628904449299],"sales":{"202602":1620}},{"id":"MA010120220805754324","name":"본가떡방앗간","industry":"떡/한과","coordinates":[127.42613427904,36.3631863960232],"sales":{"202602":754}},{"id":"MA010120220805754343","name":"별노래방","industry":"노래방","coordinates":[127.428773504232,36.3608879779916],"sales":{"202602":702}},{"id":"MA010120220805754845","name":"십자수나라","industry":"침구류/커튼 소매업","coordinates":[127.426220823726,36.3647541255537],"sales":{"202602":492}},{"id":"MA010120220805755404","name":"청수건강원","industry":"건강보조식품 소매업","coordinates":[127.426261917876,36.3661598059771],"sales":{"202602":1549}},{"id":"MA010120220805755825","name":"부광시공기획","industry":"광고물 설계/제작업","coordinates":[127.420913081614,36.3598795792993],"sales":{"202602":687}},{"id":"MA010120220805756281","name":"자연산형제횟집","industry":"횟집","coordinates":[127.426393167876,36.3657087520877],"sales":{"202602":2008}},{"id":"MA010120220805756387","name":"칸사운드","industry":"자동차 정비소","coordinates":[127.421607585604,36.3626347169269],"sales":{"202602":7934}},{"id":"MA010120220805756631","name":"솔브","industry":"기타 의류 소매업","coordinates":[127.426007018893,36.3664130430212],"sales":{"202602":222}},{"id":"MA010120220805756827","name":"중리","industry":"가구 소매업","coordinates":[127.4307707004,36.3593758372582],"sales":{"202602":986}},{"id":"MA010120220805758010","name":"한진마트","industry":"슈퍼마켓","coordinates":[127.423653244652,36.3618074146534],"sales":{"202602":4858}},{"id":"MA010120220805758045","name":"맥스산업","industry":"가전제품 소매업","coordinates":[127.433610168365,36.3630964167496],"sales":{"202602":421}},{"id":"MA010120220805758086","name":"돈찌랑","industry":"백반/한정식","coordinates":[127.42792511357,36.3605936328015],"sales":{"202602":1717}},{"id":"MA010120220805758238","name":"별과달식당","industry":"요리 주점","coordinates":[127.425040261154,36.3628027891408],"sales":{"202602":365}},{"id":"MA010120220805758707","name":"건희헤어샵","industry":"미용실","coordinates":[127.429565202468,36.3610022866164],"sales":{"202602":131}},{"id":"MA010120220805758785","name":"KS컴퓨터","industry":"컴퓨터/소프트웨어 소매업","coordinates":[127.424613287926,36.366246781931],"sales":{"202602":324}},{"id":"MA010120220805759342","name":"에덴떡방앗간","industry":"떡/한과","coordinates":[127.426930086427,36.3579297229667],"sales":{"202602":2759}},{"id":"MA010120220805759640","name":"상아동물병원","industry":"동물병원","coordinates":[127.429851543482,36.3664713666324],"sales":{"202602":1460}},{"id":"MA010120220805759834","name":"그린２４시","industry":"슈퍼마켓","coordinates":[127.436239383593,36.3650333754129],"sales":{"202602":6261}},{"id":"MA010120220805759865","name":"가위손","industry":"미용실","coordinates":[127.424199640086,36.3639412527828],"sales":{"202602":300}},{"id":"MA010120220805760011","name":"약초건강원","industry":"건강보조식품 소매업","coordinates":[127.426272273773,36.3660155816569],"sales":{"202602":2164}},{"id":"MA010120220805760137","name":"GS25대전","industry":"편의점","coordinates":[127.425107618555,36.3608470067876],"sales":{"202602":688}},{"id":"MA010120220805760258","name":"올리비아로렌","industry":"기타 의류 소매업","coordinates":[127.425288461455,36.3654153030177],"sales":{"202602":318}},{"id":"MA010120220805760278","name":"좋은친구들","industry":"핸드폰 소매업","coordinates":[127.425047433492,36.3620728145741],"sales":{"202602":237}},{"id":"MA010120220805760381","name":"주영명상요가","industry":"요가/필라테스 학원","coordinates":[127.423547435566,36.3648988083114],"sales":{"202602":482}},{"id":"MA010120220805760457","name":"일성슈퍼","industry":"슈퍼마켓","coordinates":[127.423547435566,36.3648988083114],"sales":{"202602":2724}},{"id":"MA010120220805760499","name":"봉황공인중개사사무소","industry":"부동산 중개/대리업","coordinates":[127.425386836869,36.3630178369056],"sales":{"202602":272}},{"id":"MA010120220805761178","name":"센스인테리어","industry":"인테리어 디자인업","coordinates":[127.431577955656,36.3602921194455],"sales":{"202602":468}},{"id":"MA010120220805761657","name":"광고기획미건사","industry":"명함/간판/광고물 제작","coordinates":[127.428815895407,36.3604913102682],"sales":{"202602":581}},{"id":"MA010120220805761758","name":"월드","industry":"액세서리/잡화 소매업","coordinates":[127.427278615797,36.3585052273714],"sales":{"202602":104}},{"id":"MA010120220805761872","name":"제일카센타","industry":"자동차 정비소","coordinates":[127.421698859905,36.3630309103739],"sales":{"202602":2688}},{"id":"MA010120220805761979","name":"동서가구","industry":"가구 소매업","coordinates":[127.429154901221,36.3593275813638],"sales":{"202602":2223}},{"id":"MA010120220805761984","name":"세종문고","industry":"서점","coordinates":[127.4244648148,36.3594254402767],"sales":{"202602":671}},{"id":"MA010120220805762004","name":"포도공인중개사사무소","industry":"부동산 중개/대리업","coordinates":[127.431010025439,36.3623668642175],"sales":{"202602":151}},{"id":"MA010120220805762069","name":"성심공인중개사","industry":"부동산 중개/대리업","coordinates":[127.425426878,36.3662799345282],"sales":{"202602":215}},{"id":"MA010120220805762815","name":"W헤어샵더불유","industry":"미용실","coordinates":[127.4275122903,36.35641367172],"sales":{"202602":145}},{"id":"MA010120220805762856","name":"중리카서비스","industry":"자동차 정비소","coordinates":[127.434914424738,36.3632088285405],"sales":{"202602":4595}},{"id":"MA010120220805762863","name":"드림스포츠","industry":"운동용품 소매업","coordinates":[127.419750205973,36.3591086619972],"sales":{"202602":5170}},{"id":"MA010120220805763155","name":"본만쥬","industry":"김밥/만두/분식","coordinates":[127.425562609288,36.3605119535],"sales":{"202602":1556}},{"id":"MA010120220805763636","name":"예쁜걸","industry":"여성 의류 소매업","coordinates":[127.42565350571,36.3649273705841],"sales":{"202602":273}},{"id":"MA010120220805763696","name":"세레느","industry":"화장품 소매업","coordinates":[127.435779840277,36.3645484201259],"sales":{"202602":171}},{"id":"MA010120220805764127","name":"백록담숯불바베큐치킨식당","industry":"치킨","coordinates":[127.426931021526,36.3581009423563],"sales":{"202602":607}},{"id":"MA010120220805764189","name":"원호공인중개사사무소","industry":"부동산 중개/대리업","coordinates":[127.425057203084,36.3618204517312],"sales":{"202602":171}},{"id":"MA010120220805764192","name":"대왕마스타카","industry":"자동차 정비소","coordinates":[127.422799982398,36.3647302331298],"sales":{"202602":1384}},{"id":"MA010120220805764223","name":"장안외과의원","industry":"건강보조식품 소매업","coordinates":[127.431184516315,36.3616813442871],"sales":{"202602":4036}},{"id":"MA010120220805765223","name":"아이리스가발","industry":"미용실","coordinates":[127.425341916669,36.3650005739558],"sales":{"202602":277}},{"id":"MA010120220805765243","name":"통쿨","industry":"슈퍼마켓","coordinates":[127.426559662989,36.3655910055286],"sales":{"202602":3391}},{"id":"MA010120220805765274","name":"어가갈치조림","industry":"백반/한정식","coordinates":[127.42387705972,36.3660961971013],"sales":{"202602":642}},{"id":"MA010120220805765383","name":"아프로디테헤어삽","industry":"미용실","coordinates":[127.435045920881,36.3628118344717],"sales":{"202602":223}},{"id":"MA010120220805765835","name":"보령당약국","industry":"약국","coordinates":[127.425279869221,36.3658839426145],"sales":{"202602":3583}},{"id":"MA010120220805766277","name":"아프리칸리더십","industry":"기타 엔지니어링 서비스업","coordinates":[127.426343370641,36.3627080291775],"sales":{"202602":6992}},{"id":"MA010120220805766639","name":"고모네삼겹돌구이식당","industry":"백반/한정식","coordinates":[127.425562609288,36.3605119535],"sales":{"202602":1826}},{"id":"MA010120220805766669","name":"대덕엔지니어링","industry":"가전제품 소매업","coordinates":[127.435340428356,36.3636758860955],"sales":{"202602":212}},{"id":"MA010120220805766699","name":"소망세탁소","industry":"세탁소","coordinates":[127.423397240596,36.3597987086126],"sales":{"202602":232}},{"id":"MA010120220805766968","name":"떡마루","industry":"떡/한과","coordinates":[127.425789470475,36.365341424884],"sales":{"202602":1149}},{"id":"MA010120220805767196","name":"중리서점문구","industry":"문구/회화용품 소매업","coordinates":[127.428369751397,36.3665037238006],"sales":{"202602":1867}},{"id":"MA010120220805767288","name":"푸른상사","industry":"문구/회화용품 소매업","coordinates":[127.427015770217,36.3572985961567],"sales":{"202602":3102}},{"id":"MA010120220805767447","name":"은하수","industry":"일반 유흥 주점","coordinates":[127.432972932274,36.3627112240114],"sales":{"202602":941}},{"id":"MA010120220805767697","name":"부부카서비스","industry":"자동차 정비소","coordinates":[127.423307041997,36.3657737964191],"sales":{"202602":2577}},{"id":"MA010120220805767705","name":"센추리ENG","industry":"가전제품 수리업","coordinates":[127.42261756564,36.3639648827691],"sales":{"202602":717}},{"id":"MA010120220805767752","name":"내츄럴비타민","industry":"건강보조식품 소매업","coordinates":[127.43209868543,36.361777170607],"sales":{"202602":883}},{"id":"MA010120220805767763","name":"삼순이시골감자탕","industry":"국/탕/찌개류","coordinates":[127.425144048674,36.3593509316194],"sales":{"202602":3151}},{"id":"MA010120220805767999","name":"가자주류","industry":"슈퍼마켓","coordinates":[127.429764981248,36.3669402868845],"sales":{"202602":10561}},{"id":"MA010120220805768228","name":"백두에서한라까지식당","industry":"요리 주점","coordinates":[127.425306332263,36.3646041852581],"sales":{"202602":1002}},{"id":"MA010120220805768405","name":"삼천리자전거중리，","industry":"자전거 소매업","coordinates":[127.429431301273,36.3670496272046],"sales":{"202602":151}},{"id":"MA010120220805768426","name":"양지카크리닉","industry":"자동차 정비소","coordinates":[127.435184992309,36.3637755811731],"sales":{"202602":3873}},{"id":"MA010120220805768439","name":"우당공인중개사사무소","industry":"부동산 중개/대리업","coordinates":[127.427953637597,36.3556280717246],"sales":{"202602":155}},{"id":"MA010120220805768531","name":"네이쳐팜스","industry":"우유 소매업","coordinates":[127.423552905563,36.365908100748],"sales":{"202602":325}},{"id":"MA010120220805768807","name":"나라촌식당","industry":"돼지고기 구이/찜","coordinates":[127.429318787215,36.3668517739795],"sales":{"202602":691}},{"id":"MA010120220805768932","name":"럭키카맨샵","industry":"자동차 정비소","coordinates":[127.422720622434,36.3644781859387],"sales":{"202602":972}},{"id":"MA010120220805768966","name":"소망편의점","industry":"담배/전자담배 소매업","coordinates":[127.430007721377,36.3644792166368],"sales":{"202602":2643}},{"id":"MA010120220805769269","name":"황금공인중개사사무소","industry":"부동산 중개/대리업","coordinates":[127.427180795206,36.3609928118503],"sales":{"202602":452}},{"id":"MA010120220805769386","name":"스마일카써비스","industry":"자동차 정비소","coordinates":[127.425038741966,36.3625234313384],"sales":{"202602":2638}},{"id":"MA010120220805769399","name":"번영카센타","industry":"자동차 정비소","coordinates":[127.425427480469,36.3622967548965],"sales":{"202602":887}},{"id":"MA010120220805769429","name":"가방악세사리","industry":"가방 소매업","coordinates":[127.425799630758,36.3651611544307],"sales":{"202602":321}},{"id":"MA010120220805769607","name":"은혜식당","industry":"백반/한정식","coordinates":[127.427240207323,36.3596318298359],"sales":{"202602":554}},{"id":"MA010120220805769937","name":"크레이지돈","industry":"돼지고기 구이/찜","coordinates":[127.426033403722,36.3610329554379],"sales":{"202602":560}},{"id":"MA010120220805769939","name":"진수성찬","industry":"반찬/식료품 소매업","coordinates":[127.426064096466,36.3646195088608],"sales":{"202602":1483}},{"id":"MA010120220805769960","name":"윤이네집밥","industry":"백반/한정식","coordinates":[127.43147823258,36.3644288565787],"sales":{"202602":1532}},{"id":"MA010120220805770158","name":"까치이코노미","industry":"핸드폰 소매업","coordinates":[127.421735703504,36.3595342331349],"sales":{"202602":173}},{"id":"MA010120220805770645","name":"현대종합장식","industry":"벽지/장판/마루 소매업","coordinates":[127.430824290294,36.3630344009421],"sales":{"202602":242}},{"id":"MA010120220805770715","name":"여리향식당","industry":"중국집","coordinates":[127.433460125776,36.3621597429866],"sales":{"202602":879}},{"id":"MA010120220805771656","name":"동래아구찜","industry":"해산물 구이/찜","coordinates":[127.427849687554,36.3610625122564],"sales":{"202602":1021}},{"id":"MA010120220805771706","name":"한양모텔","industry":"여관/모텔","coordinates":[127.424638006326,36.360542278238],"sales":{"202602":1022}},{"id":"MA010120220805771897","name":"한우리","industry":"화장품 소매업","coordinates":[127.437036688531,36.3621557258913],"sales":{"202602":2338}},{"id":"MA010120220805771922","name":"천지건강원","industry":"건강보조식품 소매업","coordinates":[127.427360060601,36.3570991073349],"sales":{"202602":1605}},{"id":"MA010120220805772153","name":"고래고래노래연습장","industry":"노래방","coordinates":[127.426456736741,36.3610224335088],"sales":{"202602":381}},{"id":"MA010120220805772738","name":"중리쌍방울","industry":"기타 의류 소매업","coordinates":[127.426272273773,36.3660155816569],"sales":{"202602":532}},{"id":"MA010120220805773012","name":"정든장충동왕족발보쌈식당","industry":"족발/보쌈","coordinates":[127.426897148669,36.3641389144532],"sales":{"202602":586}},{"id":"MA010120220805773144","name":"오성칼국수","industry":"국수/칼국수","coordinates":[127.435570292176,36.3629360879732],"sales":{"202602":440}},{"id":"MA010120220805773169","name":"서광씽크산업","industry":"가구 소매업","coordinates":[127.421856452011,36.3633277407063],"sales":{"202602":12402}},{"id":"MA010120220805773398","name":"청수네김밥천국분식","industry":"김밥/만두/분식","coordinates":[127.425086658559,36.3610903977691],"sales":{"202602":232}},{"id":"MA010120220805773524","name":"꺼먹돼지","industry":"돼지고기 구이/찜","coordinates":[127.428352493437,36.3613220505249],"sales":{"202602":1078}},{"id":"MA010120220805773701","name":"일공공일안경콘택트","industry":"안경렌즈 소매업","coordinates":[127.424920374796,36.3653445189902],"sales":{"202602":827}},{"id":"MA010120220805774061","name":"헤라식당","industry":"백반/한정식","coordinates":[127.433285204254,36.3627641622703],"sales":{"202602":1566}},{"id":"MA010120220805774420","name":"대전미래","industry":"운동용품 소매업","coordinates":[127.421003426851,36.3601045540449],"sales":{"202602":13165}},{"id":"MA010120220805774798","name":"스피드메이트한밭로점","industry":"자동차 정비소","coordinates":[127.430432736959,36.3587011762285],"sales":{"202602":400}},{"id":"MA010120220805775084","name":"유수희헤어","industry":"미용실","coordinates":[127.428806580092,36.3669166953975],"sales":{"202602":352}},{"id":"MA010120220805775327","name":"유리미용실","industry":"미용실","coordinates":[127.423649815843,36.3652859489965],"sales":{"202602":294}},{"id":"MA010120220805775337","name":"오선인테리어","industry":"인테리어 디자인업","coordinates":[127.426609965327,36.3605172302627],"sales":{"202602":900}},{"id":"MA010120220805775410","name":"종합신문중리.송촌지국","industry":"광고 대행업","coordinates":[127.423909407164,36.3617884826503],"sales":{"202602":643}},{"id":"MA010120220805775555","name":"올리비아하슬러","industry":"기타 의류 소매업","coordinates":[127.429698869673,36.3670757003001],"sales":{"202602":1078}},{"id":"MA010120220805775777","name":"작품하나","industry":"요리 주점","coordinates":[127.433460125776,36.3621597429866],"sales":{"202602":924}},{"id":"MA010120220805776277","name":"둥지발관리","industry":"마사지/안마","coordinates":[127.433470717814,36.3620605757035],"sales":{"202602":526}},{"id":"MA010120220805776280","name":"우성종합공조","industry":"가전제품 수리업","coordinates":[127.421811154606,36.3631927248844],"sales":{"202602":380}},{"id":"MA010120220805776330","name":"스마일동물병원","industry":"동물병원","coordinates":[127.425304321628,36.3642347121571],"sales":{"202602":2479}},{"id":"MA010120220805776395","name":"신불닭식당","industry":"닭/오리고기 구이/찜","coordinates":[127.424395680721,36.3610568072123],"sales":{"202602":756}},{"id":"MA010120220805776878","name":"중리셀프주유소","industry":"주유소","coordinates":[127.430432736959,36.3587011762285],"sales":{"202602":17978}},{"id":"MA010120220805777104","name":"영동떡집","industry":"떡/한과","coordinates":[127.426272273773,36.3660155816569],"sales":{"202602":1110}},{"id":"MA010120220805777257","name":"무지개한복","industry":"의류 대여업","coordinates":[127.430911090492,36.3626105373635],"sales":{"202602":2847}},{"id":"MA010120220805777302","name":"솔솔미용실","industry":"미용실","coordinates":[127.429106882509,36.3668164884113],"sales":{"202602":230}},{"id":"MA010120220805777432","name":"유성잔치집","industry":"백반/한정식","coordinates":[127.426261917876,36.3661598059771],"sales":{"202602":1803}},{"id":"MA010120220805777984","name":"태성기획","industry":"화장품 소매업","coordinates":[127.432957737164,36.3639909422524],"sales":{"202602":273}},{"id":"MA010120220805778157","name":"아띠-홈","industry":"가구 소매업","coordinates":[127.424626698068,36.3584606108186],"sales":{"202602":897}},{"id":"MA010120220805778316","name":"립스틱식당","industry":"일반 유흥 주점","coordinates":[127.428384930676,36.3611416998839],"sales":{"202602":215}},{"id":"MA010120220805778533","name":"에덴미용실","industry":"미용실","coordinates":[127.430207188265,36.3642802409149],"sales":{"202602":218}},{"id":"MA010120220805778601","name":"즐거운생1955","industry":"요리 주점","coordinates":[127.426744697254,36.3607059952268],"sales":{"202602":1108}},{"id":"MA010120220805778827","name":"대덕공인중개사무소","industry":"부동산 중개/대리업","coordinates":[127.430691400507,36.3611604432832],"sales":{"202602":213}},{"id":"MA010120220805778864","name":"건강약국","industry":"약국","coordinates":[127.425305008182,36.3643608737063],"sales":{"202602":4884}},{"id":"MA010120220805779183","name":"상해동인당","industry":"태권도/무술학원","coordinates":[127.43275433612,36.3634780115645],"sales":{"202602":154}},{"id":"MA010120220805779517","name":"도도노래연습장","industry":"노래방","coordinates":[127.435545698375,36.3625216388523],"sales":{"202602":702}},{"id":"MA010120220805779692","name":"정우화장품","industry":"화장품 소매업","coordinates":[127.426507984409,36.3663301503141],"sales":{"202602":433}},{"id":"MA010120220805779715","name":"피엠푸드중리.","industry":"피자","coordinates":[127.425236084456,36.3660282858413],"sales":{"202602":4690}},{"id":"MA010120220805780126","name":"카119모터스","industry":"자동차 정비소","coordinates":[127.425115721466,36.3602882513506],"sales":{"202602":539}},{"id":"MA010120220805780334","name":"타임단란주점","industry":"일반 유흥 주점","coordinates":[127.425652919548,36.360727913069],"sales":{"202602":318}},{"id":"MA010120220805780369","name":"건강마을웰빙건강원","industry":"건강보조식품 소매업","coordinates":[127.435695023801,36.3653237364406],"sales":{"202602":1108}},{"id":"MA010120220805780669","name":"스칼렛식당","industry":"일반 유흥 주점","coordinates":[127.427024910855,36.361011392512],"sales":{"202602":2066}},{"id":"MA010120220805780721","name":"오성카센타","industry":"자동차 정비소","coordinates":[127.429373967047,36.3586419035932],"sales":{"202602":1661}},{"id":"MA010120220805781263","name":"수잔나헤어살롱","industry":"미용실","coordinates":[127.435695023801,36.3653237364406],"sales":{"202602":170}},{"id":"MA010120220805781328","name":"예다헤어","industry":"미용실","coordinates":[127.425423689326,36.3656941846532],"sales":{"202602":492}},{"id":"MA010120220805781348","name":"상주카센타","industry":"자동차 정비소","coordinates":[127.427970460199,36.3587010092158],"sales":{"202602":381}},{"id":"MA010120220805781533","name":"조경숙헤어샵","industry":"미용실","coordinates":[127.42383097491,36.363762326831],"sales":{"202602":180}},{"id":"MA010120220805781903","name":"고향건강원","industry":"건강보조식품 소매업","coordinates":[127.432677938719,36.3637666630427],"sales":{"202602":1955}},{"id":"MA010120220805781942","name":"꿀꿀이족발집","industry":"족발/보쌈","coordinates":[127.427360060601,36.3570991073349],"sales":{"202602":1242}},{"id":"MA010120220805782270","name":"영광카복원","industry":"자동차 정비소","coordinates":[127.423751911069,36.3594550058827],"sales":{"202602":1955}},{"id":"MA010120220805782498","name":"전주항아리반찬","industry":"반찬/식료품 소매업","coordinates":[127.426035189511,36.3654486894851],"sales":{"202602":2896}},{"id":"MA010120220805782658","name":"꼼빠니아","industry":"여성 의류 소매업","coordinates":[127.425341916669,36.3650005739558],"sales":{"202602":542}},{"id":"MA010120220805782685","name":"컴퓨터119，대전컴퓨터수리","industry":"사무기기 소매업","coordinates":[127.425744702847,36.3612142188661],"sales":{"202602":335}},{"id":"MA010120220805782733","name":"기태인테리어","industry":"인테리어 디자인업","coordinates":[127.424294830688,36.3630036963773],"sales":{"202602":1218}},{"id":"MA010120220805782929","name":"피부향기","industry":"피부 관리실","coordinates":[127.425383648875,36.362432086707],"sales":{"202602":533}},{"id":"MA010120220805783165","name":"생태나라","industry":"백반/한정식","coordinates":[127.426889537912,36.3607054778262],"sales":{"202602":1518}},{"id":"MA010120220805783514","name":"제이짱미용실","industry":"미용실","coordinates":[127.432590168589,36.362000685042],"sales":{"202602":649}},{"id":"MA010120220805783667","name":"다인카마트","industry":"자동차 부품 소매업","coordinates":[127.42285652213,36.3648832321733],"sales":{"202602":4248}},{"id":"MA010120220805783974","name":"자미온，알레르망","industry":"침구류/커튼 소매업","coordinates":[127.431348409602,36.3610949911743],"sales":{"202602":425}},{"id":"MA010120220805784120","name":"더김도연","industry":"미용실","coordinates":[127.427118318916,36.3556761191478],"sales":{"202602":391}},{"id":"MA010120220805784262","name":"P.A.T대전","industry":"여성 의류 소매업","coordinates":[127.426341389327,36.366429873728],"sales":{"202602":534}},{"id":"MA010120220805784510","name":"머리하는날","industry":"미용실","coordinates":[127.427016262461,36.3573887116341],"sales":{"202602":204}},{"id":"MA010120220805784770","name":"네오시스","industry":"시장 조사 및 여론 조사업","coordinates":[127.437036688531,36.3621557258913],"sales":{}},{"id":"MA010120220805784778","name":"웅진한약국","industry":"약국","coordinates":[127.425147430568,36.3599727283229],"sales":{"202602":4672}},{"id":"MA010120220805785215","name":"우리임대","industry":"스포츠/레크리에이션 용품 대여업","coordinates":[127.43553461311,36.3645312908891],"sales":{}},{"id":"MA010120220805785545","name":"청실모텔","industry":"여관/모텔","coordinates":[127.423989937807,36.3602021343243],"sales":{"202602":796}},{"id":"MA010120220805785566","name":"지에스25","industry":"편의점","coordinates":[127.423741502416,36.3595902186194],"sales":{"202602":3242}},{"id":"MA010120220805785673","name":"이삭토스트","industry":"토스트/샌드위치/샐러드","coordinates":[127.426956255937,36.3647605114443],"sales":{"202602":985}},{"id":"MA010120220805785860","name":"해바라기유통","industry":"슈퍼마켓","coordinates":[127.423821298913,36.3640327126021],"sales":{"202602":1814}},{"id":"MA010120220805786058","name":"엘리트학생복","industry":"기타 의류 소매업","coordinates":[127.430845630279,36.3628631014281],"sales":{"202602":866}},{"id":"MA010120220805786120","name":"대가떡","industry":"떡/한과","coordinates":[127.426833593666,36.3647429262929],"sales":{"202602":1598}},{"id":"MA010120220805786562","name":"천앤디씨마트","industry":"핸드폰 소매업","coordinates":[127.425047433492,36.3620728145741],"sales":{"202602":255}},{"id":"MA010120220805786667","name":"아하에어로빅","industry":"요가/필라테스 학원","coordinates":[127.42763124263,36.3557553901172],"sales":{"202602":737}},{"id":"MA010120220805786977","name":"이원올갱이해장국","industry":"국/탕/찌개류","coordinates":[127.420421402422,36.3596109586846],"sales":{"202602":961}},{"id":"MA010120220805787044","name":"정수건강관리센타","industry":"피부 관리실","coordinates":[127.424103322568,36.3646715435624],"sales":{"202602":230}},{"id":"MA010120220805787064","name":"수피부비뇨기과의원","industry":"피부/비뇨기과 의원","coordinates":[127.432040336757,36.3612997606827],"sales":{"202602":3391}},{"id":"MA010120220805787107","name":"부강기획","industry":"명함/간판/광고물 제작","coordinates":[127.420391946853,36.3582773272379],"sales":{"202602":538}},{"id":"MA010120220805787291","name":"맛대맛식당대전중리동점","industry":"일반 유흥 주점","coordinates":[127.426167103363,36.3610324786359],"sales":{"202602":389}},{"id":"MA010120220805787555","name":"유니온공조","industry":"가전제품 소매업","coordinates":[127.427025680688,36.3570732676417],"sales":{"202602":516}},{"id":"MA010120220805787790","name":"뉴행복공인중개사사무소","industry":"부동산 중개/대리업","coordinates":[127.429437690521,36.3641568452064],"sales":{"202602":93}},{"id":"MA010120220805788026","name":"세븐일레븐","industry":"편의점","coordinates":[127.427024302395,36.3568209442886],"sales":{"202602":2139}},{"id":"MA010120220805788042","name":"수정반찬앤식당","industry":"백반/한정식","coordinates":[127.424170997995,36.3627698314414],"sales":{"202602":1250}},{"id":"MA010120220805788146","name":"친절한공인중개사사무소","industry":"부동산 중개/대리업","coordinates":[127.424989108796,36.3636410606439],"sales":{"202602":94}},{"id":"MA010120220805788399","name":"업소명없음","industry":"예술품 소매업","coordinates":[127.42410090708,36.3580659623858],"sales":{"202602":144}},{"id":"MA010120220805788495","name":"비즈공예","industry":"예술품 소매업","coordinates":[127.427306334602,36.3554231185967],"sales":{"202602":61}},{"id":"MA010120220805788737","name":"벨라헤어","industry":"미용실","coordinates":[127.42605219136,36.3583473957479],"sales":{"202602":130}},{"id":"MA010120220805788883","name":"샤프렛드레스","industry":"의류 대여업","coordinates":[127.427624734757,36.3586391649784],"sales":{"202602":1123}},{"id":"MA010120220805788974","name":"텔미노래연습장","industry":"노래방","coordinates":[127.425610070573,36.3610434758679],"sales":{"202602":441}},{"id":"MA010120220805789314","name":"메리퀸","industry":"침구류/커튼 소매업","coordinates":[127.430042642784,36.3586755457011],"sales":{"202602":622}},{"id":"MA010120220805789486","name":"현앤미","industry":"슈퍼마켓","coordinates":[127.436067423693,36.3641688790407],"sales":{"202602":3595}},{"id":"MA010120220805789523","name":"꼬마해설사","industry":"기타 오락관련 서비스업","coordinates":[127.425502475283,36.3637924326357],"sales":{"202602":360}},{"id":"MA010120220805789664","name":"한양바이오","industry":"가전제품 소매업","coordinates":[127.42963789723,36.3620654077795],"sales":{"202602":266}},{"id":"MA010120220805789705","name":"대전대덕우유","industry":"우유 소매업","coordinates":[127.434736655042,36.3632995926237],"sales":{"202602":637}},{"id":"MA010120220805789731","name":"한밭공인중개사사무소","industry":"부동산 중개/대리업","coordinates":[127.427278615797,36.3585052273714],"sales":{"202602":298}},{"id":"MA010120220805789838","name":"버터박스멋부리는사람들","industry":"여성 의류 소매업","coordinates":[127.426064096466,36.3646195088608],"sales":{"202602":272}},{"id":"MA010120220805789872","name":"오레시피대전","industry":"반찬/식료품 소매업","coordinates":[127.427118318916,36.3556761191478],"sales":{"202602":664}},{"id":"MA010120220805789885","name":"럭키모터스","industry":"모터사이클 수리업","coordinates":[127.428571919329,36.3647637386177],"sales":{"202602":674}},{"id":"MA010120220805790024","name":"KCC자동차유리","industry":"자동차 정비소","coordinates":[127.424061186979,36.3610129362541],"sales":{"202602":551}},{"id":"MA010120220805790097","name":"정호헤어아트","industry":"미용실","coordinates":[127.429802612427,36.3656785122278],"sales":{"202602":379}},{"id":"MA010120220805790112","name":"신바람공인중개사사무소","industry":"부동산 중개/대리업","coordinates":[127.429533461313,36.3613087991077],"sales":{"202602":134}},{"id":"MA010120220805790122","name":"방자전","industry":"백반/한정식","coordinates":[127.428037614943,36.3607914876295],"sales":{"202602":631}},{"id":"MA010120220805790235","name":"엔에스모터스","industry":"자동차 정비소","coordinates":[127.42984209947,36.358676267313],"sales":{"202602":872}},{"id":"MA010120220805790387","name":"제이의원","industry":"피부/비뇨기과 의원","coordinates":[127.432421620496,36.3597303426196],"sales":{"202602":3530}},{"id":"MA010120220805790485","name":"제이드","industry":"여성 의류 소매업","coordinates":[127.425714222955,36.3638006900613],"sales":{"202602":381}},{"id":"MA010120220805790527","name":"쏘아","industry":"백반/한정식","coordinates":[127.429102092314,36.3639147347191],"sales":{"202602":952}},{"id":"MA010120220805790924","name":"진성아구찜","industry":"해산물 구이/찜","coordinates":[127.425127500155,36.3604053617995],"sales":{"202602":2352}},{"id":"MA010120220805790990","name":"알파문구동부지부","industry":"문구/회화용품 소매업","coordinates":[127.429939195402,36.3662006999708],"sales":{"202602":4594}},{"id":"MA010120220805790996","name":"레이디가구","industry":"가구 소매업","coordinates":[127.430146732724,36.3593690734652],"sales":{"202602":2586}},{"id":"MA010120220805791033","name":"세븐케어","industry":"건축물 일반 청소업","coordinates":[127.431042804828,36.3622495936738],"sales":{"202602":978}},{"id":"MA010120220805791132","name":"에스헤어","industry":"미용실","coordinates":[127.426507984409,36.3663301503141],"sales":{"202602":451}},{"id":"MA010120220805791828","name":"진명피부관리","industry":"피부 관리실","coordinates":[127.427016262461,36.3573887116341],"sales":{"202602":118}},{"id":"MA010120220805792031","name":"엠제이샵","industry":"미용실","coordinates":[127.422778533807,36.360765153544],"sales":{"202602":155}},{"id":"MA010120220805792298","name":"수니헤어","industry":"미용실","coordinates":[127.435632380676,36.3640803489488],"sales":{"202602":209}},{"id":"MA010120220805793311","name":"커피크레마","industry":"카페","coordinates":[127.423868163097,36.3582920813412],"sales":{"202602":287}},{"id":"MA010120220805793502","name":"한아름생활용품","industry":"주방/가정용품 소매업","coordinates":[127.426074010396,36.3643941806764],"sales":{"202602":231}},{"id":"MA010120220805793590","name":"아이비클럽","industry":"기타 의류 소매업","coordinates":[127.430889551991,36.3627457907551],"sales":{"202602":1048}},{"id":"MA010120220805793625","name":"두루감자탕매운등갈비찜","industry":"백반/한정식","coordinates":[127.423907065115,36.3654652708003],"sales":{"202602":451}},{"id":"MA010120220805793723","name":"이어참치대가","industry":"일식 회/초밥","coordinates":[127.426109577505,36.3606992502129],"sales":{"202602":722}},{"id":"MA010120220805793803","name":"미래통신자전거컴퓨터악기","industry":"자전거 소매업","coordinates":[127.425542823758,36.3630172814401],"sales":{"202602":168}},{"id":"MA010120220805794195","name":"클린케이","industry":"세탁소","coordinates":[127.428806580092,36.3669166953975],"sales":{"202602":132}},{"id":"MA010120220805794226","name":"수노래연습장","industry":"노래방","coordinates":[127.425305008182,36.3643608737063],"sales":{"202602":566}},{"id":"MA010120220805794349","name":"쿵푸차이","industry":"중국집","coordinates":[127.430167346258,36.361090237431],"sales":{"202602":670}},{"id":"MA010120220805794685","name":"잉어","industry":"기타 의류 소매업","coordinates":[127.429576203174,36.3670581179996],"sales":{"202602":852}},{"id":"MA010120220805794753","name":"해피헤어","industry":"미용실","coordinates":[127.424539806082,36.3629757910258],"sales":{"202602":194}},{"id":"MA010120220805794800","name":"유정사무용가구","industry":"가구 소매업","coordinates":[127.42815202802,36.3593041440325],"sales":{"202602":509}},{"id":"MA010120220805794815","name":"모아25시식당","industry":"백반/한정식","coordinates":[127.42502686505,36.3623882978386],"sales":{"202602":481}},{"id":"MA010120220805795011","name":"하나로피부과의원","industry":"피부/비뇨기과 의원","coordinates":[127.431864957966,36.3618230742187],"sales":{"202602":5532}},{"id":"MA010120220805795371","name":"마코","industry":"기타 의류 소매업","coordinates":[127.429775082968,36.3667510046707],"sales":{"202602":788}},{"id":"MA010120220805795503","name":"큰소리","industry":"핸드폰 소매업","coordinates":[127.425314139631,36.3639913609278],"sales":{"202602":1000}},{"id":"MA010120220805795651","name":"카카오독","industry":"애완동물/애완용품 소매업","coordinates":[127.427328115182,36.3573695732982],"sales":{"202602":507}},{"id":"MA010120220805795872","name":"바람테크","industry":"가전제품 소매업","coordinates":[127.428571919329,36.3647637386177],"sales":{"202602":308}},{"id":"MA010120220805795910","name":"J노래연습장제이","industry":"노래방","coordinates":[127.42763124263,36.3557553901172],"sales":{"202602":718}},{"id":"MA010120220805798061","name":"한울","industry":"정육점","coordinates":[127.42326948111,36.3629532628817],"sales":{"202602":7204}},{"id":"MA010120220805806844","name":"끼","industry":"기타 의류 소매업","coordinates":[127.425663666263,36.3647471001282],"sales":{"202602":448}},{"id":"MA010120220805811040","name":"다한이엔지주","industry":"기타 엔지니어링 서비스업","coordinates":[127.433561851505,36.3624207135995],"sales":{"202602":7944}},{"id":"MA010120220805812077","name":"대전수질주","industry":"산업설비, 운송장비 및 공공장소 청소업","coordinates":[127.425423507477,36.3615668199404],"sales":{"202602":570}},{"id":"MA010120220805812184","name":"라인에프에스","industry":"가구 소매업","coordinates":[127.432093604071,36.3608579939632],"sales":{"202602":724}},{"id":"MA010120220805812297","name":"운성모터스주","industry":"자동차 정비소","coordinates":[127.419312163707,36.3584523441705],"sales":{"202602":1779}},{"id":"MA010120220805813553","name":"세기공조시설관리","industry":"사업시설 유지·관리 서비스업","coordinates":[127.429145769816,36.3637523670087],"sales":{"202602":809}},{"id":"MA010120220805815474","name":"세븐(중리２호점)주","industry":"편의점","coordinates":[127.426109577505,36.3606992502129],"sales":{"202602":4455}},{"id":"MA010120220805815751","name":"에이치모터스","industry":"자동차 정비소","coordinates":[127.422108818637,36.3584785440179],"sales":{"202602":3072}},{"id":"MA010120220805816300","name":"대전위니아주","industry":"가전제품 소매업","coordinates":[127.431435901267,36.3607972886342],"sales":{"202602":1352}},{"id":"MA010120220805816719","name":"세인안전산업주","industry":"사업시설 유지·관리 서비스업","coordinates":[127.421330853808,36.3609054430586],"sales":{"202602":615}},{"id":"MA010120220805817578","name":"지산씨엔씨","industry":"자동차 대여업","coordinates":[127.423989155719,36.3600579495712],"sales":{"202602":1918}},{"id":"MA010120220805817665","name":"타이어몰주","industry":"자동차 정비소","coordinates":[127.419946732446,36.3583599983444],"sales":{"202602":1317}},{"id":"MA010120220805817720","name":"후생사","industry":"슈퍼마켓","coordinates":[127.425712358309,36.3655039104854],"sales":{"202602":8416}},{"id":"MA010120220805817899","name":"케이엘그룹한남주","industry":"피자","coordinates":[127.421228269096,36.3584095577104],"sales":{"202602":7735}},{"id":"MA010120220805818341","name":"대전카센타협동조합","industry":"자동차 정비소","coordinates":[127.422498130198,36.3583600156504],"sales":{"202602":1091}},{"id":"MA010120220805824458","name":"자갈치꼼장어","industry":"횟집","coordinates":[127.426599807409,36.3606975009086],"sales":{"202602":1220}},{"id":"MA010120220805824767","name":"보금당","industry":"시계/귀금속 소매업","coordinates":[127.425236084456,36.3660282858413],"sales":{"202602":501}},{"id":"MA010120220805824807","name":"송촌맛집","industry":"백반/한정식","coordinates":[127.436828167667,36.3627242263241],"sales":{"202602":1257}},{"id":"MA010120220805824842","name":"벧엘쇼파","industry":"그 외 기타 개인/가정용품 수리업","coordinates":[127.42324708442,36.3649899898137],"sales":{"202602":1415}},{"id":"MA010120220805825002","name":"크로커다일레이디","industry":"기타 의류 소매업","coordinates":[127.429698869673,36.3670757003001],"sales":{"202602":206}},{"id":"MA010120220805825003","name":"대림공인중개사무소","industry":"부동산 중개/대리업","coordinates":[127.428768523144,36.3640420962345],"sales":{"202602":76}},{"id":"MA010120220805825024","name":"제일크린카","industry":"자동차 정비소","coordinates":[127.421935905289,36.3635978116342],"sales":{"202602":1345}},{"id":"MA010120220805825191","name":"대우유통","industry":"가전제품 소매업","coordinates":[127.431577955656,36.3602921194455],"sales":{"202602":646}},{"id":"MA010120220805825223","name":"대전의류","industry":"여성 의류 소매업","coordinates":[127.426210566168,36.3649163729739],"sales":{"202602":136}},{"id":"MA010120220805825422","name":"가마솥보리밥","industry":"백반/한정식","coordinates":[127.434922557898,36.3626680961886],"sales":{"202602":608}},{"id":"MA010120220805825769","name":"동아카센타","industry":"자동차 정비소","coordinates":[127.425390956875,36.3637748063074],"sales":{"202602":4902}},{"id":"MA010120220805825903","name":"하이파가구","industry":"가구 소매업","coordinates":[127.430302960269,36.3594135695376],"sales":{"202602":1294}},{"id":"MA010120220805825905","name":"청미이용원","industry":"미용실","coordinates":[127.430691400507,36.3611604432832],"sales":{"202602":277}},{"id":"MA010120220805825953","name":"광인슈퍼","industry":"슈퍼마켓","coordinates":[127.422363607337,36.3582072919374],"sales":{"202602":5922}},{"id":"MA010120220805826858","name":"작은열매장식","industry":"벽지/장판/마루 소매업","coordinates":[127.435086470012,36.3640913498673],"sales":{"202602":511}},{"id":"MA010120220805826914","name":"우진인테리어","industry":"인테리어 디자인업","coordinates":[127.421912891564,36.3634627171621],"sales":{"202602":678}},{"id":"MA010120220805826985","name":"아씨헤어라인","industry":"미용실","coordinates":[127.427209760358,36.3560993433638],"sales":{"202602":306}},{"id":"MA010120220805826988","name":"대전아줌마집식당","industry":"백반/한정식","coordinates":[127.426227163747,36.3659166137735],"sales":{"202602":622}},{"id":"MA010120220805827110","name":"세탁더에코","industry":"세탁소","coordinates":[127.433782637422,36.3620504319544],"sales":{"202602":194}},{"id":"MA010120220805827143","name":"선비카크리닉","industry":"자동차 정비소","coordinates":[127.434920552093,36.3623076349653],"sales":{"202602":2444}},{"id":"MA010120220805827182","name":"프로방송","industry":"전시/컨벤션/행사 대행 서비스업","coordinates":[127.433023291303,36.3637564001795],"sales":{"202602":1954}},{"id":"MA010120220805827358","name":"코코마트","industry":"슈퍼마켓","coordinates":[127.42396482591,36.3637888870877],"sales":{"202602":5966}},{"id":"MA010120220805827376","name":"쌍용종합카","industry":"자동차 정비소","coordinates":[127.424303747904,36.3584887932467],"sales":{"202602":655}},{"id":"MA010120220805827712","name":"송촌모터스","industry":"모터사이클 수리업","coordinates":[127.434652948297,36.3622725619139],"sales":{"202602":246}},{"id":"MA010120220805827972","name":"제일오토밋션","industry":"자동차 정비소","coordinates":[127.4274797501,36.3586126486092],"sales":{"202602":430}},{"id":"MA010120220805828017","name":"천리광고사","industry":"명함/간판/광고물 제작","coordinates":[127.429172664002,36.3625627241386],"sales":{"202602":409}},{"id":"MA010120220805828198","name":"온고을콩나물국밥식당","industry":"국/탕/찌개류","coordinates":[127.426446953031,36.3592291362139],"sales":{"202602":1860}},{"id":"MA010120220805828252","name":"캐리어에어컨서비스센터선진공조","industry":"가전제품 수리업","coordinates":[127.429926482165,36.3598384755688],"sales":{"202602":928}},{"id":"MA010120220805828301","name":"진미정식","industry":"돼지고기 구이/찜","coordinates":[127.427178135739,36.3605061885608],"sales":{"202602":937}},{"id":"MA010120220805828360","name":"종합서점","industry":"문구/회화용품 소매업","coordinates":[127.42859914574,36.3656648120785],"sales":{"202602":1390}},{"id":"MA010120220805828470","name":"대전지물포","industry":"벽지/장판/마루 소매업","coordinates":[127.429058365161,36.3640680908751],"sales":{"202602":190}},{"id":"MA010120220805828519","name":"잉꼬떡집","industry":"떡/한과","coordinates":[127.426006232906,36.3662688584561],"sales":{"202602":1330}},{"id":"MA010120220805828549","name":"정선이용원","industry":"미용실","coordinates":[127.428489995645,36.3660797422584],"sales":{"202602":130}},{"id":"MA010120220805828672","name":"드림아트","industry":"명함/간판/광고물 제작","coordinates":[127.429275157908,36.3670231532085],"sales":{"202602":292}},{"id":"MA010120220805828806","name":"피쉬랜드수족관","industry":"애완동물/애완용품 소매업","coordinates":[127.434518845898,36.362200955974],"sales":{"202602":835}},{"id":"MA010120220805828809","name":"홍가네차림상","industry":"백반/한정식","coordinates":[127.426123824946,36.3633125973194],"sales":{"202602":2117}},{"id":"MA010120220805828977","name":"광성차유리","industry":"자동차 정비소","coordinates":[127.430527926179,36.3638465234068],"sales":{"202602":4281}},{"id":"MA010120220805829062","name":"거성카센타","industry":"자동차 세차장","coordinates":[127.422343981351,36.364885045066],"sales":{"202602":1061}},{"id":"MA010120220805829233","name":"개미카센타","industry":"자동차 정비소","coordinates":[127.425437101703,36.3620173574123],"sales":{"202602":667}},{"id":"MA010120220805829241","name":"디자인수，바로이카드","industry":"광고물 설계/제작업","coordinates":[127.435736377127,36.3647468362549],"sales":{"202602":551}},{"id":"MA010120220805829347","name":"현대자동차","industry":"자동차 정비소","coordinates":[127.436616220578,36.3626799424695],"sales":{"202602":533}},{"id":"MA010120220805829526","name":"청솔카클리닉","industry":"자동차 정비소","coordinates":[127.427687637228,36.3558813524372],"sales":{"202602":665}},{"id":"MA010120220805829830","name":"보람세탁","industry":"세탁소","coordinates":[127.428249964225,36.3568435929162],"sales":{"202602":75}},{"id":"MA010120220805830060","name":"한우식당","industry":"소고기 구이/찜","coordinates":[127.423139565697,36.3657113076868],"sales":{"202602":1078}},{"id":"MA010120220805832072","name":"백조씽크","industry":"가구 소매업","coordinates":[127.431545973897,36.3605535747657],"sales":{"202602":844}},{"id":"MA010120220805832973","name":"한샘리하우스다올디자인","industry":"가구 소매업","coordinates":[127.431696829507,36.3596248228727],"sales":{"202602":740}},{"id":"MA010120220805838592","name":"이불마트","industry":"침구류/커튼 소매업","coordinates":[127.422268746306,36.3612716125995],"sales":{"202602":600}},{"id":"MA010120220805839816","name":"코코노래연습장","industry":"노래방","coordinates":[127.423252501751,36.365990270735],"sales":{"202602":396}},{"id":"MA010120220805841440","name":"대운공예사","industry":"가구 소매업","coordinates":[127.428842793997,36.3593016667974],"sales":{"202602":2334}},{"id":"MA010120220805841532","name":"제이헤어비스","industry":"미용실","coordinates":[127.42557870641,36.3614220797556],"sales":{"202602":153}},{"id":"MA010120220805841547","name":"동아리꼬치","industry":"요리 주점","coordinates":[127.426167103363,36.3610324786359],"sales":{"202602":407}},{"id":"MA010120220805846424","name":"일정식품","industry":"슈퍼마켓","coordinates":[127.421507648951,36.3626981515522],"sales":{"202602":7112}},{"id":"MA010120220805846520","name":"일미구이식당","industry":"돼지고기 구이/찜","coordinates":[127.425482558114,36.3601337463634],"sales":{"202602":885}},{"id":"MA010120220805849005","name":"피아노식당","industry":"백반/한정식","coordinates":[127.433329022317,36.3626288276589],"sales":{"202602":1144}},{"id":"MA010120220805851307","name":"곰바우민물바다낚시프라자","industry":"장난감 소매업","coordinates":[127.420403669672,36.3583854266862],"sales":{"202602":727}},{"id":"MA010120220805852091","name":"큰통치킨","industry":"치킨","coordinates":[127.427830940148,36.3556014759273],"sales":{"202602":904}},{"id":"MA010120220805855908","name":"광성세탁소","industry":"세탁소","coordinates":[127.423602810562,36.3627808589501],"sales":{"202602":196}},{"id":"MA010120220805855930","name":"진미집","industry":"백반/한정식","coordinates":[127.424467751705,36.3661211351163],"sales":{"202602":769}},{"id":"MA010120220805855931","name":"대한철물","industry":"철물/공구 소매업","coordinates":[127.42495916169,36.3642809988868],"sales":{"202602":278}},{"id":"MA010120220805855932","name":"동양철물","industry":"철물/공구 소매업","coordinates":[127.425868247261,36.3634396725742],"sales":{"202602":2114}},{"id":"MA010120220805855941","name":"이미지안경콘택트","industry":"안경렌즈 소매업","coordinates":[127.424790978234,36.366138009759],"sales":{"202602":1317}},{"id":"MA010120220805855986","name":"골든앵글공업","industry":"철물/공구 소매업","coordinates":[127.430715105903,36.3634403217],"sales":{"202602":3048}},{"id":"MA010120220805856001","name":"영광식당","industry":"횟집","coordinates":[127.424752164305,36.3610465287491],"sales":{"202602":761}},{"id":"MA010120220805856036","name":"통일면옥식당","industry":"냉면/밀면","coordinates":[127.422539006755,36.3597386646714],"sales":{"202602":3530}},{"id":"MA010120220805856109","name":"베비라중리","industry":"유아용 의류 소매업","coordinates":[127.425423689326,36.3656941846532],"sales":{"202602":177}},{"id":"MA010120220805856123","name":"에이스침대용전","industry":"가구 소매업","coordinates":[127.429322022058,36.3593269809959],"sales":{"202602":3603}},{"id":"MA010120220805856800","name":"삼성이용원","industry":"미용실","coordinates":[127.434175302542,36.3625356382546],"sales":{"202602":418}},{"id":"MA010120220805859117","name":"중리건강원","industry":"건강보조식품 소매업","coordinates":[127.426272273773,36.3660155816569],"sales":{"202602":1112}},{"id":"MA010120220805859130","name":"청학동식당","industry":"백반/한정식","coordinates":[127.425127500155,36.3604053617995],"sales":{"202602":1058}},{"id":"MA010120220805859167","name":"고향만두식당","industry":"김밥/만두/분식","coordinates":[127.425789470475,36.365341424884],"sales":{"202602":961}},{"id":"MA010120220805859233","name":"반도세탁소","industry":"세탁소","coordinates":[127.429129036673,36.3627341034234],"sales":{"202602":107}},{"id":"MA010120220805859289","name":"로얄컴퓨터세탁","industry":"세탁소","coordinates":[127.427252787001,36.3578564757255],"sales":{"202602":212}},{"id":"MA010120220805859296","name":"동일서적","industry":"서점","coordinates":[127.425898812261,36.356779902629],"sales":{"202602":1828}},{"id":"MA010120220805859306","name":"한진공인중개사사무소","industry":"부동산 중개/대리업","coordinates":[127.429410803914,36.3612912165599],"sales":{"202602":181}},{"id":"MA010120220805859341","name":"튜브락","industry":"신발 소매업","coordinates":[127.430911090492,36.3626105373635],"sales":{"202602":237}},{"id":"MA010120220805859370","name":"한가족미용실","industry":"미용실","coordinates":[127.422031657082,36.3606957002001],"sales":{"202602":260}},{"id":"MA010120220805859521","name":"태양이용원","industry":"미용실","coordinates":[127.425086658559,36.3610903977691],"sales":{"202602":125}},{"id":"MA010120220805859562","name":"수림미용실","industry":"미용실","coordinates":[127.427426995176,36.361190189161],"sales":{"202602":249}},{"id":"MA010120220805859614","name":"옥금당","industry":"시계/귀금속 소매업","coordinates":[127.424918855895,36.3650651613025],"sales":{"202602":866}},{"id":"MA010120220805859617","name":"중리신발","industry":"신발 소매업","coordinates":[127.425791483485,36.3657108978931],"sales":{"202602":97}},{"id":"MA010120220805859618","name":"로얄카오디오","industry":"자동차 정비소","coordinates":[127.421833739357,36.3591193478301],"sales":{"202602":2416}},{"id":"MA010120220805859625","name":"마스터스포츠사","industry":"운동용품 소매업","coordinates":[127.430244831363,36.3650461008453],"sales":{"202602":18623}},{"id":"MA010120220805859626","name":"세미약국","industry":"약국","coordinates":[127.425594259166,36.3663243969564],"sales":{"202602":4439}},{"id":"MA010120220805859627","name":"명문안경원","industry":"안경렌즈 소매업","coordinates":[127.427468958271,36.3566391198661],"sales":{"202602":1248}},{"id":"MA010120220805859636","name":"우리냉난방설비쌍용석유","industry":"가정용 연료 소매업","coordinates":[127.424276020099,36.3636435949849],"sales":{"202602":177660}},{"id":"MA010120220805859641","name":"비앤비","industry":"가구 소매업","coordinates":[127.431194321897,36.3594193678438],"sales":{"202602":3192}},{"id":"MA010120220805859682","name":"한아름그릇","industry":"주방/가정용품 소매업","coordinates":[127.425839927752,36.3643769917885],"sales":{"202602":537}},{"id":"MA010120220805859684","name":"동양목욕탕","industry":"목욕탕/사우나","coordinates":[127.423647676493,36.3607800984428],"sales":{"202602":2791}},{"id":"MA010120220805859700","name":"럭키덴트칼라","industry":"자동차 정비소","coordinates":[127.422743735359,36.3646313033047],"sales":{"202602":1299}},{"id":"MA010120220805859719","name":"하나카센타","industry":"자동차 정비소","coordinates":[127.421362998828,36.3627347086376],"sales":{"202602":471}},{"id":"MA010120220805859740","name":"성산포민물장어구이","industry":"해산물 구이/찜","coordinates":[127.433230943463,36.3630256987106],"sales":{"202602":993}},{"id":"MA010120220805859797","name":"거산전기","industry":"전기용품/조명장치 소매업","coordinates":[127.432459785605,36.3646145537332],"sales":{"202602":903}},{"id":"MA010120220805859865","name":"신도리코창신","industry":"사무기기 소매업","coordinates":[127.425048413615,36.3622530454293],"sales":{"202602":743}},{"id":"MA010120220805859868","name":"에스비앤가구","industry":"가구 소매업","coordinates":[127.429622790023,36.359316888203],"sales":{"202602":1334}},{"id":"MA010120220805859869","name":"미전광고기획","industry":"광고물 설계/제작업","coordinates":[127.42970336071,36.3618128443213],"sales":{"202602":445}},{"id":"MA010120220805859893","name":"한밭카서비스","industry":"자동차 정비소","coordinates":[127.425134426625,36.3596303292094],"sales":{"202602":849}},{"id":"MA010120220805859947","name":"올투게더","industry":"주방/가정용품 소매업","coordinates":[127.423607841265,36.3637090478596],"sales":{"202602":509}},{"id":"MA010120220805859954","name":"대양유리","industry":"주방/가정용품 소매업","coordinates":[127.429331471465,36.3630758213304],"sales":{"202602":344}},{"id":"MA010120220805860054","name":"범양에어컨대덕냉동","industry":"가전제품 수리업","coordinates":[127.429594023538,36.3621917295531],"sales":{"202602":494}},{"id":"MA010120220805860166","name":"카프로","industry":"자동차 부품 소매업","coordinates":[127.421997648407,36.3626513633197],"sales":{"202602":695}},{"id":"MA010120220805860198","name":"먹태비어","industry":"생맥주 전문","coordinates":[127.430290053112,36.3611168307419],"sales":{"202602":1127}},{"id":"MA010120220805860338","name":"그린유리선비","industry":"주방/가정용품 소매업","coordinates":[127.429178404113,36.3636080623742],"sales":{"202602":355}},{"id":"MA010120220805862943","name":"혜성자","industry":"백반/한정식","coordinates":[127.425923848307,36.3593301309884],"sales":{"202602":1041}},{"id":"MA010120220805875016","name":"헤라클레스정헤어샵","industry":"미용실","coordinates":[127.425659057939,36.3577630349031],"sales":{"202602":305}},{"id":"MA010120220805886473","name":"호야축산","industry":"정육점","coordinates":[127.425819656597,36.3647465442787],"sales":{"202602":1599}},{"id":"MA010120220805915625","name":"왕가장충동왕족발","industry":"족발/보쌈","coordinates":[127.435414104844,36.3629006104114],"sales":{"202602":325}},{"id":"MA010120220805921249","name":"헤라가구","industry":"가구 소매업","coordinates":[127.430603629132,36.3593854511934],"sales":{"202602":588}},{"id":"MA010120220805926329","name":"대전블랙라벨","industry":"자동차 세차장","coordinates":[127.427679060738,36.358386642333],"sales":{"202602":823}},{"id":"MA010120220805937011","name":"유케이모터스","industry":"자동차 정비소","coordinates":[127.434920552093,36.3623076349653],"sales":{"202602":1242}},{"id":"MA010120220805966439","name":"네오오피스","industry":"가구 소매업","coordinates":[127.431696829507,36.3596248228727],"sales":{"202602":1669}},{"id":"MA010120220805974088","name":"엔투아이","industry":"자동차 부품 소매업","coordinates":[127.421699994299,36.3591108082107],"sales":{"202602":794}},{"id":"MA010120220806023166","name":"김복남맥주","industry":"생맥주 전문","coordinates":[127.428730568928,36.3611855187384],"sales":{"202602":411}},{"id":"MA010120220806026585","name":"신흥건축설비","industry":"철물/공구 소매업","coordinates":[127.427328115182,36.3573695732982],"sales":{"202602":629}},{"id":"MA010120220806050679","name":"승화텔레콤","industry":"핸드폰/통신장비 수리업","coordinates":[127.431696829507,36.3596248228727],"sales":{"202602":181}},{"id":"MA010120220806070912","name":"동해야양푼이동태찌개","industry":"백반/한정식","coordinates":[127.424538778158,36.3627865486382],"sales":{"202602":708}},{"id":"MA010120220806118849","name":"더섬세뷰티살롱","industry":"미용실","coordinates":[127.425354784317,36.3632702790531],"sales":{"202602":500}},{"id":"MA010120220806126323","name":"한마음배움터","industry":"사업시설 유지·관리 서비스업","coordinates":[127.422031657082,36.3606957002001],"sales":{"202602":364}},{"id":"MA010120220806154641","name":"디테일러명","industry":"자동차 세차장","coordinates":[127.425194363747,36.358359463158],"sales":{"202602":764}},{"id":"MA010120220806158153","name":"횡재한방오리","industry":"닭/오리고기 구이/찜","coordinates":[127.424794430234,36.3647231586585],"sales":{"202602":561}},{"id":"MA010120220806158337","name":"유가네곰탕","industry":"국/탕/찌개류","coordinates":[127.429041100777,36.3609230642689],"sales":{"202602":4686}},{"id":"MA010120220806170697","name":"삼성냉열","industry":"가전제품 소매업","coordinates":[127.421811154606,36.3631927248844],"sales":{"202602":467}},{"id":"MA010120220806171438","name":"금강통상","industry":"자동차 부품 소매업","coordinates":[127.421930213396,36.3625434608669],"sales":{"202602":1133}},{"id":"MA010120220806173650","name":"행복세상","industry":"복권 발행/판매업","coordinates":[127.425356893209,36.3636577752918],"sales":{"202602":228}},{"id":"MA010120220806174035","name":"유끼헤어","industry":"미용실","coordinates":[127.436110131423,36.3638352898746],"sales":{"202602":135}},{"id":"MA010120220806175230","name":"중리에어컨","industry":"가전제품 수리업","coordinates":[127.422754077189,36.3624233963296],"sales":{"202602":341}},{"id":"MA010120220806177626","name":"중부회수산","industry":"횟집","coordinates":[127.432301855583,36.3602354321955],"sales":{"202602":2389}},{"id":"MA010120220806180071","name":"꼬치야","industry":"그 외 기타 간이 음식점","coordinates":[127.428037614943,36.3607914876295],"sales":{"202602":235}},{"id":"MA010120220806181598","name":"드림결혼정보","industry":"결혼 상담 서비스업","coordinates":[127.425423689326,36.3656941846532],"sales":{}},{"id":"MA010120220806181871","name":"운동화빨래터","industry":"세탁소","coordinates":[127.430141625234,36.3645147814815],"sales":{"202602":124}},{"id":"MA010120220806182334","name":"이마트24","industry":"편의점","coordinates":[127.425135602909,36.3598466063211],"sales":{"202602":3170}},{"id":"MA010120220806183110","name":"지오건축사사무소","industry":"건축 설계 및 관련 서비스업","coordinates":[127.425265588486,36.3653072438874],"sales":{"202602":88}},{"id":"MA010120220806183318","name":"전주식당","industry":"백반/한정식","coordinates":[127.427197759318,36.3600194855638],"sales":{"202602":1840}},{"id":"MA010120220806183835","name":"피카소광고기획","industry":"명함/간판/광고물 제작","coordinates":[127.430141625234,36.3645147814815],"sales":{"202602":574}},{"id":"MA010120220806183884","name":"명성생오리","industry":"닭/오리고기 구이/찜","coordinates":[127.430546459801,36.3611429422224],"sales":{"202602":1783}},{"id":"MA010120220806183935","name":"한국정수기종합관리센터육각수월드","industry":"가전제품 수리업","coordinates":[127.431589793778,36.3604182407303],"sales":{"202602":803}},{"id":"MA010120220806185527","name":"더뷰티헤어","industry":"미용실","coordinates":[127.427468958271,36.3566391198661],"sales":{"202602":228}},{"id":"MA010120220806186791","name":"안경타임","industry":"안경렌즈 소매업","coordinates":[127.425265588486,36.3653072438874],"sales":{"202602":843}},{"id":"MA010120220806191029","name":"행복세상","industry":"복권 발행/판매업","coordinates":[127.425356893209,36.3636577752918],"sales":{"202602":328}},{"id":"MA010120220806192495","name":"귀빈모텔","industry":"여관/모텔","coordinates":[127.425003424187,36.3601264398849],"sales":{"202602":467}},{"id":"MA010120220806192993","name":"CNC미라클，텐툴","industry":"철물/공구 소매업","coordinates":[127.423049061339,36.36545930023],"sales":{"202602":453}},{"id":"MA010120220806193193","name":"자전거나라","industry":"자전거 소매업","coordinates":[127.434710662127,36.3626328204755],"sales":{"202602":251}},{"id":"MA010120220806194187","name":"쇼파사랑","industry":"그 외 기타 개인/가정용품 수리업","coordinates":[127.429906429549,36.3602440750564],"sales":{"202602":4063}},{"id":"MA010120220806194383","name":"문화목욕탕이용원","industry":"미용실","coordinates":[127.427549311005,36.3570713951384],"sales":{"202602":260}},{"id":"MA010120220806196977","name":"참좋은마트","industry":"슈퍼마켓","coordinates":[127.423284605983,36.3595738146496],"sales":{"202602":2857}},{"id":"MA010120220806197740","name":"뱅뱅대전","industry":"기타 의류 소매업","coordinates":[127.426007018893,36.3664130430212],"sales":{"202602":866}},{"id":"MA010120220806199121","name":"가구프라자","industry":"가구 소매업","coordinates":[127.427817737068,36.3592963297172],"sales":{"202602":290}},{"id":"MA010120220806199452","name":"버팔로","industry":"신발 소매업","coordinates":[127.427624734757,36.3586391649784],"sales":{"202602":228}},{"id":"MA010120220806201571","name":"한스헤어","industry":"미용실","coordinates":[127.427025680688,36.3570732676417],"sales":{"202602":151}},{"id":"MA010120220806201648","name":"뉴장원공인중개사사무소","industry":"부동산 중개/대리업","coordinates":[127.433361848292,36.3625205680392],"sales":{"202602":385}},{"id":"MA010120220806202915","name":"누리컴퍼니","industry":"가구 소매업","coordinates":[127.432093604071,36.3608579939632],"sales":{"202602":558}},{"id":"MA010120220806202976","name":"궁노래연습장","industry":"노래방","coordinates":[127.4253056457,36.364478023714],"sales":{"202602":546}},{"id":"MA010120220806203035","name":"이미자통신","industry":"핸드폰 소매업","coordinates":[127.425248599824,36.366280569205],"sales":{"202602":401}},{"id":"MA010120220806203135","name":"미센스","industry":"기타 의류 소매업","coordinates":[127.430244831363,36.3650461008453],"sales":{"202602":1350}},{"id":"MA010120220806206044","name":"헬리아","industry":"장난감 소매업","coordinates":[127.420319578837,36.3593229417917],"sales":{"202602":974}},{"id":"MA010120220806206961","name":"아트전자","industry":"가전제품 수리업","coordinates":[127.429311856445,36.3655901595543],"sales":{"202602":1142}},{"id":"MA010120220806207791","name":"창조기획인쇄","industry":"광고물 설계/제작업","coordinates":[127.427278615797,36.3585052273714],"sales":{"202602":1264}},{"id":"MA010120220806209156","name":"럭키노래연습장","industry":"노래방","coordinates":[127.423353905688,36.3661971808322],"sales":{"202602":853}},{"id":"MA010120220806210215","name":"큐모탤","industry":"여관/모텔","coordinates":[127.424790951944,36.3599830079347],"sales":{"202602":159}},{"id":"MA010120220806212985","name":"콩&낙지","industry":"해산물 구이/찜","coordinates":[127.426432524897,36.3647533701498],"sales":{"202602":586}},{"id":"MA010120220806214805","name":"신기료","industry":"의류/이불 수선업","coordinates":[127.429034707712,36.3617882120485],"sales":{"202602":183}},{"id":"MA010120220806214970","name":"나래애드","industry":"옥외/전시 광고 대행업","coordinates":[127.431904906571,36.3630034643918],"sales":{"202602":1447}},{"id":"MA010120220806228064","name":"스마트학생복","industry":"기타 의류 소매업","coordinates":[127.431086676206,36.3621232713849],"sales":{"202602":212}},{"id":"MA010120220806229822","name":"탑월드홈파티스스튜디오","industry":"주방/가정용품 소매업","coordinates":[127.426567263803,36.3649421351348],"sales":{"202602":383}},{"id":"MA010120220806230279","name":"지오에어컨","industry":"가전제품 소매업","coordinates":[127.428940757896,36.3568501268047],"sales":{"202602":565}},{"id":"MA010120220806235041","name":"나노정보기술","industry":"컴퓨터/소프트웨어 소매업","coordinates":[127.435472023512,36.3632969146555],"sales":{"202602":780}},{"id":"MA010120220806245044","name":"대광기획","industry":"옥외/전시 광고 대행업","coordinates":[127.419594226767,36.3591092098498],"sales":{"202602":1657}},{"id":"MA010120220806245926","name":"원클릭정보통신주","industry":"컴퓨터/노트북/프린터 수리업","coordinates":[127.428642347875,36.3593204094917],"sales":{"202602":699}},{"id":"MA010120220806253461","name":"애플커뮤니케이션","industry":"광고물 설계/제작업","coordinates":[127.423595931253,36.3594555589637],"sales":{"202602":1026}},{"id":"MA010120220806254908","name":"에스앤디","industry":"명함/간판/광고물 제작","coordinates":[127.422025771261,36.3637326699807],"sales":{"202602":1134}},{"id":"MA010120220806274657","name":"은혜세탁소","industry":"세탁소","coordinates":[127.427134432584,36.3565862458167],"sales":{"202602":149}},{"id":"MA010120220806349847","name":"피자2001송촌동중리동법동","industry":"피자","coordinates":[127.429764981248,36.3669402868845],"sales":{"202602":1835}},{"id":"MA010120220806349879","name":"갤러리","industry":"액세서리/잡화 소매업","coordinates":[127.436327112402,36.3647807272107],"sales":{"202602":67}},{"id":"MA010120220806349884","name":"바비","industry":"피부 관리실","coordinates":[127.42568187667,36.3639990630235],"sales":{"202602":244}},{"id":"MA010120220806350037","name":"동구.대덕롯데","industry":"철물/공구 소매업","coordinates":[127.422618881459,36.3580261548321],"sales":{"202602":809}},{"id":"MA010120220806350513","name":"스위티","industry":"카페","coordinates":[127.430945770415,36.3608170808602],"sales":{"202602":1907}},{"id":"MA010120220806350594","name":"계동치킨용전","industry":"치킨","coordinates":[127.429431354409,36.3609757326023],"sales":{"202602":592}},{"id":"MA010120220806350689","name":"이엘카센터","industry":"자동차 정비소","coordinates":[127.422110478527,36.3629123045557],"sales":{"202602":122}},{"id":"MA010120220806350736","name":"아이빅미디어","industry":"입시·교과학원","coordinates":[127.432421620496,36.3597303426196],"sales":{"202602":595}},{"id":"MA010120220806350764","name":"둥지모델","industry":"여관/모텔","coordinates":[127.425001856282,36.3598380704094],"sales":{"202602":269}},{"id":"MA010120220806351053","name":"제일문구","industry":"문구/회화용품 소매업","coordinates":[127.428282340637,36.3668194469952],"sales":{"202602":3943}},{"id":"MA010120220806351103","name":"소미가감자탕","industry":"국/탕/찌개류","coordinates":[127.435458019701,36.3627832981057],"sales":{"202602":1827}},{"id":"MA010120220806351115","name":"대전전자담배아메리퀴드","industry":"담배/전자담배 소매업","coordinates":[127.432040336757,36.3612997606827],"sales":{"202602":737}},{"id":"MA010120220806351126","name":"호산활법","industry":"헬스장","coordinates":[127.422616866839,36.3617750380383],"sales":{"202602":669}},{"id":"MA010120220806351211","name":"엄마족발순대","industry":"백반/한정식","coordinates":[127.426227163747,36.3659166137735],"sales":{"202602":616}},{"id":"MA010120220806351227","name":"진진바라","industry":"백반/한정식","coordinates":[127.422618881459,36.3580261548321],"sales":{"202602":547}},{"id":"MA010120220806351321","name":"송담추어탕대전","industry":"국/탕/찌개류","coordinates":[127.427661708349,36.3592878765597],"sales":{"202602":1175}},{"id":"MA010120220806351590","name":"대한정육점","industry":"정육점","coordinates":[127.425981983299,36.365908476484],"sales":{"202602":5165}},{"id":"MA010120220806351679","name":"순봉홍두깨손칼국수","industry":"국수/칼국수","coordinates":[127.426064096466,36.3646195088608],"sales":{"202602":1236}},{"id":"MA010120220806351713","name":"천기종합화장품","industry":"피부 관리실","coordinates":[127.427437151238,36.3610099184718],"sales":{"202602":121}},{"id":"MA010120220806351730","name":"자매옷장","industry":"여성 의류 소매업","coordinates":[127.424773076508,36.3648944571293],"sales":{"202602":268}},{"id":"MA010120220806351911","name":"불티나만두찐빵","industry":"김밥/만두/분식","coordinates":[127.426181513259,36.3657185189749],"sales":{"202602":540}},{"id":"MA010120220806351970","name":"후생사정육코너","industry":"정육점","coordinates":[127.425712358309,36.3655039104854],"sales":{"202602":7283}},{"id":"MA010120220806352056","name":"샵노래연습장","industry":"노래방","coordinates":[127.425424194157,36.3616929815442],"sales":{"202602":376}},{"id":"MA010120220806352063","name":"떡볶킹스","industry":"김밥/만두/분식","coordinates":[127.427360060601,36.3570991073349],"sales":{"202602":1298}},{"id":"MA010120220806352084","name":"에스엔케이","industry":"침구류/커튼 소매업","coordinates":[127.432421620496,36.3597303426196],"sales":{"202602":598}},{"id":"MA010120220806352284","name":"태양공인중개사사무소","industry":"부동산 중개/대리업","coordinates":[127.427830940148,36.3556014759273],"sales":{"202602":347}},{"id":"MA010120220806352348","name":"도도헤어","industry":"미용실","coordinates":[127.425869474843,36.3636649610667],"sales":{"202602":252}},{"id":"MA010120220806352351","name":"땡글","industry":"일반 유흥 주점","coordinates":[127.424058302486,36.3604812550368],"sales":{"202602":461}},{"id":"MA010120220806352445","name":"중리공주칼국수","industry":"국수/칼국수","coordinates":[127.423989216705,36.3662309748096],"sales":{"202602":790}},{"id":"MA010120220806352471","name":"해그린","industry":"채소/과일 소매업","coordinates":[127.431384768259,36.3636451751274],"sales":{"202602":3676}},{"id":"MA010120220806352581","name":"명인각","industry":"중국집","coordinates":[127.427561782823,36.3573146670507],"sales":{"202602":646}},{"id":"MA010120220806352586","name":"킴스헤어","industry":"미용실","coordinates":[127.426115385221,36.3638082717237],"sales":{"202602":352}},{"id":"MA010120220806352769","name":"대풍상회","industry":"슈퍼마켓","coordinates":[127.425789470475,36.365341424884],"sales":{"202602":4542}},{"id":"MA010120220806353032","name":"PLAN엔지니어링","industry":"건축 설계 및 관련 서비스업","coordinates":[127.43572759637,36.3651704186065],"sales":{"202602":53}},{"id":"MA010120220806353045","name":"열림열쇠키매니아","industry":"철물/공구 소매업","coordinates":[127.420760399448,36.3604929141304],"sales":{"202602":1107}},{"id":"MA010120220806353081","name":"페리","industry":"일반 유흥 주점","coordinates":[127.424617289709,36.3608307268853],"sales":{"202602":244}},{"id":"MA010120220806353148","name":"똘비식당","industry":"백반/한정식","coordinates":[127.423989155719,36.3600579495712],"sales":{"202602":2311}},{"id":"MA010120220806377529","name":"노라조7080","industry":"일반 유흥 주점","coordinates":[127.425561628042,36.3603317226042],"sales":{"202602":241}},{"id":"MA010120220806383086","name":"컴퓨터수리","industry":"컴퓨터/노트북/프린터 수리업","coordinates":[127.426962835922,36.3618857509465],"sales":{"202602":627}},{"id":"MA010120220806385521","name":"윤스카롱","industry":"카페","coordinates":[127.435133149442,36.3624690717398],"sales":{"202602":211}},{"id":"MA010120220806399957","name":"펫아일랜드","industry":"애완동물/애완용품 소매업","coordinates":[127.434028256783,36.3621396571071],"sales":{"202602":2967}},{"id":"MA010120220806419758","name":"라온향기","industry":"화장품 소매업","coordinates":[127.428512036857,36.357906036671],"sales":{"202602":1007}},{"id":"MA010120220806420000","name":"아줌마김밥","industry":"김밥/만두/분식","coordinates":[127.427566368743,36.3561160912951],"sales":{"202602":284}},{"id":"MA010120220806436122","name":"향기정원","industry":"카페","coordinates":[127.436458000007,36.3642755934106],"sales":{"202602":394}},{"id":"MA010120220806440367","name":"홍연하이텍","industry":"가전제품 소매업","coordinates":[127.421093772614,36.3603295287104],"sales":{"202602":796}},{"id":"MA010120220806478718","name":"넘버원공인중개사사무소","industry":"부동산 중개/대리업","coordinates":[127.425454185727,36.3610620544833],"sales":{"202602":117}},{"id":"MA010120220806488601","name":"딜리버리팩토리대전","industry":"백반/한정식","coordinates":[127.436828167667,36.3627242263241],"sales":{"202602":639}},{"id":"MA010120220806492220","name":"차마고원","industry":"그 외 기타 종합 소매업","coordinates":[127.428630192338,36.3571035695406],"sales":{"202602":2903}},{"id":"MA010120220806504385","name":"이가네정육","industry":"정육점","coordinates":[127.42414188425,36.3656176365339],"sales":{"202602":4122}},{"id":"MA010120220806516747","name":"한길시스템","industry":"기타 엔지니어링 서비스업","coordinates":[127.427278615797,36.3585052273714],"sales":{"202602":13675}},{"id":"MA010120220806517590","name":"등뼈감자탕","industry":"국/탕/찌개류","coordinates":[127.426185002484,36.3663583380005],"sales":{"202602":2225}},{"id":"MA010120220806520651","name":"피자스쿨대전","industry":"피자","coordinates":[127.427241853456,36.3558559120246],"sales":{"202602":2278}},{"id":"MA010120220806549316","name":"엘스케이중원팜","industry":"건강보조식품 소매업","coordinates":[127.436170971335,36.364754262202],"sales":{"202602":2752}},{"id":"MA010120220806589555","name":"케이에스주택관리","industry":"건축물 일반 청소업","coordinates":[127.427966069303,36.3578989816955],"sales":{"202602":228}},{"id":"MA010120220806603778","name":"히든통신","industry":"핸드폰 소매업","coordinates":[127.42528718643,36.3651810030364],"sales":{"202602":978}},{"id":"MA010120220806608049","name":"투다리식당","industry":"요리 주점","coordinates":[127.426889537912,36.3607054778262],"sales":{"202602":378}},{"id":"MA010120220806620603","name":"왔다삼겹살","industry":"돼지고기 구이/찜","coordinates":[127.425610070573,36.3610434758679],"sales":{"202602":915}},{"id":"MA010120220806622729","name":"블랙독건축인테리어","industry":"인테리어 디자인업","coordinates":[127.422841990192,36.3663161459235],"sales":{"202602":774}},{"id":"MA010120220806626077","name":"캐슬","industry":"여관/모텔","coordinates":[127.42589803461,36.3607270396044],"sales":{"202602":1802}},{"id":"MA010120220806634530","name":"만월호텔","industry":"여관/모텔","coordinates":[127.424325406428,36.3604262364384],"sales":{"202602":1238}},{"id":"MA010120220806636696","name":"부산회수산","industry":"횟집","coordinates":[127.426374861919,36.3603107999167],"sales":{"202602":917}},{"id":"MA010120220806649664","name":"인디플레이스","industry":"미용실","coordinates":[127.423311051802,36.3582850446329],"sales":{"202602":171}},{"id":"MA010120220806661785","name":"갤로퍼노래연습장","industry":"노래방","coordinates":[127.42233711497,36.3636144175362],"sales":{"202602":554}},{"id":"MA010120220806665228","name":"어떤날라이프","industry":"카페","coordinates":[127.435315736057,36.3652440136051],"sales":{"202602":694}},{"id":"MA010120220806671342","name":"모아인테리어","industry":"인테리어 디자인업","coordinates":[127.430146882714,36.3654700039249],"sales":{"202602":1077}},{"id":"MA010120220806671388","name":"우성비즈넷","industry":"컴퓨터/사무기기 대여업","coordinates":[127.428346283438,36.3561223097063],"sales":{"202602":356}},{"id":"MA010120220806678329","name":"김종환행정사사무소","industry":"행정사","coordinates":[127.434608982398,36.3623808624088],"sales":{}},{"id":"MA010120220806701533","name":"중리회관","industry":"백반/한정식","coordinates":[127.42224661569,36.3633624093502],"sales":{"202602":1363}},{"id":"MA010120220806702749","name":"리본헤어","industry":"미용실","coordinates":[127.429886376746,36.3606496745145],"sales":{"202602":232}},{"id":"MA010120220806712485","name":"153모든보험서비스센터","industry":"경영 컨설팅업","coordinates":[127.424929214147,36.3649209370569],"sales":{"202602":2037}},{"id":"MA010120220806736910","name":"더덤불백칼국수","industry":"국수/칼국수","coordinates":[127.419895043803,36.3591081530945],"sales":{"202602":410}},{"id":"MA010120220806772131","name":"쓰리고포차","industry":"요리 주점","coordinates":[127.426033403722,36.3610329554379],"sales":{"202602":371}},{"id":"MA010120220806793553","name":"모아마트","industry":"슈퍼마켓","coordinates":[127.422449691917,36.3617666175156],"sales":{"202602":4605}},{"id":"MA010120220806851573","name":"춘천골","industry":"백반/한정식","coordinates":[127.435414104844,36.3629006104114],"sales":{"202602":586}},{"id":"MA010120220806885453","name":"오티드림사회적협동조합","industry":"교육컨설팅업","coordinates":[127.435881979004,36.3648814807931],"sales":{"202602":4959}},{"id":"MA010120220806934939","name":"상추N쌈지","industry":"신발 소매업","coordinates":[127.425849694998,36.364124628993],"sales":{"202602":177}},