[{"id":"MA010120220800095251","name":"성일금속","industry":"기타 엔지니어링 서비스업","coordinates":[127.407682530375,36.3695319474676],"sales":{"202602":12753}},{"id":"MA010120220800400235","name":"알타코아","industry":"경영 컨설팅업","coordinates":[127.402936017244,36.3652945197826],"sales":{"202602":371}},{"id":"MA010120220800537968","name":"더리치컨설팅","industry":"경영 컨설팅업","coordinates":[127.407143696399,36.3666320129451],"sales":{"202602":485}},{"id":"MA010120220800756478","name":"대화공조시스템","industry":"사업시설 유지·관리 서비스업","coordinates":[127.407143696399,36.3666320129451],"sales":{"202602":528}},{"id":"MA010120220800756921","name":"무다리식당","industry":"백반/한정식","coordinates":[127.402460975727,36.3704147757292],"sales":{"202602":1983}},{"id":"MA010120220800808943","name":"한결커뮤니티","industry":"광고 대행업","coordinates":[127.407682530375,36.3695319474676],"sales":{"202602":2158}},{"id":"MA010120220801744027","name":"대화화원꽃","industry":"꽃집","coordinates":[127.413365274714,36.3652769154091],"sales":{"202602":340}},{"id":"MA010120220801758105","name":"에이티피이","industry":"자동차 부품 소매업","coordinates":[127.402936017244,36.3652945197826],"sales":{"202602":534}},{"id":"MA010120220802287400","name":"알루코노동조합새마을구판장","industry":"슈퍼마켓","coordinates":[127.40821147635,36.3641321235392],"sales":{"202602":11654}},{"id":"MA010120220802491571","name":"이안스케이프","industry":"도시 계획 및 조경 설계 서비스업","coordinates":[127.415731576847,36.3639529944445],"sales":{}},{"id":"MA010120220802862943","name":"라비에벨","industry":"가구 소매업","coordinates":[127.413223372238,36.3637273908399],"sales":{"202602":776}},{"id":"MA010120220802946797","name":"한국교육정책개발협회","industry":"사회교육시설","coordinates":[127.407682530375,36.3695319474676],"sales":{"202602":967}},{"id":"MA010120220802953411","name":"멀티퍼니처","industry":"가구 소매업","coordinates":[127.41363406272,36.3697457948027],"sales":{"202602":4709}},{"id":"MA010120220802956892","name":"한국탑비즈컴","industry":"경영 컨설팅업","coordinates":[127.407682530375,36.3695319474676],"sales":{"202602":1595}},{"id":"MA010120220803019484","name":"신진이앤지","industry":"가전제품 수리업","coordinates":[127.402936017244,36.3652945197826],"sales":{"202602":124}},{"id":"MA010120220803036017","name":"새길","industry":"부동산 중개/대리업","coordinates":[127.407682530375,36.3695319474676],"sales":{"202602":332}},{"id":"MA010120220803041679","name":"에스티랩스","industry":"사무기기 소매업","coordinates":[127.402936017244,36.3652945197826],"sales":{"202602":552}},{"id":"MA010120220803054812","name":"다인유통","industry":"유아용 의류 소매업","coordinates":[127.414930926723,36.3642531643423],"sales":{"202602":202}},{"id":"MA010120220803068815","name":"가온","industry":"경영 컨설팅업","coordinates":[127.407143696399,36.3666320129451],"sales":{"202602":1133}},{"id":"MA010120220803116787","name":"이지렌탈","industry":"컴퓨터/사무기기 대여업","coordinates":[127.402936017244,36.3652945197826],"sales":{"202602":132}},{"id":"MA010120220803155413","name":"워너비도원카서비스","industry":"자동차 정비소","coordinates":[127.401301953223,36.3682198161945],"sales":{"202602":700}},{"id":"MA010120220803177873","name":"성문개발","industry":"부동산 중개/대리업","coordinates":[127.415731576847,36.3639529944445],"sales":{"202602":151}},{"id":"MA010120220803187773","name":"네오로지스","industry":"포장/충전업","coordinates":[127.408913353109,36.3683742419045],"sales":{}},{"id":"MA010120220803189072","name":"씨유대전공구","industry":"편의점","coordinates":[127.403134021569,36.3647982072375],"sales":{"202602":6282}},{"id":"MA010120220803196274","name":"비비스커피","industry":"카페","coordinates":[127.416921470529,36.3635162857894],"sales":{"202602":561}},{"id":"MA010120220803211502","name":"스카이경영연구소","industry":"경영 컨설팅업","coordinates":[127.407682530375,36.3695319474676],"sales":{"202602":1461}},{"id":"MA010120220803226116","name":"스튜디오엘에스비","industry":"시각 디자인업","coordinates":[127.407143696399,36.3666320129451],"sales":{"202602":1034}},{"id":"MA010120220803330571","name":"케이파트너스","industry":"광고물 설계/제작업","coordinates":[127.412755725502,36.3701183126514],"sales":{"202602":905}},{"id":"MA010120220803334093","name":"제이스","industry":"광고 대행업","coordinates":[127.407682530375,36.3695319474676],"sales":{"202602":1802}},{"id":"MA010120220803445600","name":"대사모통신","industry":"핸드폰 소매업","coordinates":[127.417168361927,36.3680212812137],"sales":{"202602":196}},{"id":"MA010120220803531804","name":"행복공조","industry":"가전제품 수리업","coordinates":[127.413215374769,36.3643221919123],"sales":{"202602":83}},{"id":"MA010120220803697746","name":"신세계훼미리약국","industry":"약국","coordinates":[127.416292466598,36.366753684956],"sales":{"202602":3420}},{"id":"MA010120220803786516","name":"칠갑산식당","industry":"백반/한정식","coordinates":[127.415503795048,36.3672160277258],"sales":{"202602":242}},{"id":"MA010120220803877412","name":"제이에스허브","industry":"문구/회화용품 소매업","coordinates":[127.407682530375,36.3695319474676],"sales":{"202602":823}},{"id":"MA010120220803932053","name":"대한문화체육교육협회장애인자립지원단","industry":"명함/간판/광고물 제작","coordinates":[127.406593969319,36.3723382989672],"sales":{"202602":589}},{"id":"MA010120220804003671","name":"엔비스","industry":"중고 상품 소매업","coordinates":[127.402936017244,36.3652945197826],"sales":{"202602":242}},{"id":"MA010120220804186111","name":"그루브-네트워크","industry":"음반/비디오물 소매업","coordinates":[127.413078668613,36.3637549263724],"sales":{}},{"id":"MA010120220804397860","name":"캠토","industry":"카페","coordinates":[127.411947093099,36.3668047935646],"sales":{"202602":7359}},{"id":"MA010120220804598828","name":"한국경영컨설팅연구소2","industry":"경영 컨설팅업","coordinates":[127.407143696399,36.3666320129451],"sales":{"202602":1020}},{"id":"MA010120220804600909","name":"에스에이치","industry":"광고물 설계/제작업","coordinates":[127.407143696399,36.3666320129451],"sales":{"202602":315}},{"id":"MA010120220804692572","name":"투인시스템","industry":"화장품 소매업","coordinates":[127.402936017244,36.3652945197826],"sales":{"202602":101}},{"id":"MA010120220804906947","name":"에코인에너지","industry":"환경 관련 엔지니어링 서비스업","coordinates":[127.407682530375,36.3695319474676],"sales":{}},{"id":"MA010120220804971471","name":"경성인테리어","industry":"인테리어 디자인업","coordinates":[127.407232883053,36.3666407207014],"sales":{"202602":787}},{"id":"MA010120220805039888","name":"장앤장스","industry":"사업/무형 재산권 중개업","coordinates":[127.407143696399,36.3666320129451],"sales":{}},{"id":"MA010120220805076219","name":"나우에듀","industry":"교육컨설팅업","coordinates":[127.414569638833,36.3675617179327],"sales":{"202602":4959}},{"id":"MA010120220805153214","name":"에스피비즈토크","industry":"슈퍼마켓","coordinates":[127.416942047135,36.3673732279937],"sales":{"202602":10441}},{"id":"MA010120220805169419","name":"와이에이치테크","industry":"기타 엔지니어링 서비스업","coordinates":[127.407682530375,36.3695319474676],"sales":{"202602":15366}},{"id":"MA010120220805189448","name":"공단주유소","industry":"주유소","coordinates":[127.419936386509,36.3688767080796],"sales":{"202602":46092}},{"id":"MA010120220805234255","name":"에스피플러스","industry":"슈퍼마켓","coordinates":[127.416942047135,36.3673732279937],"sales":{"202602":7648}},{"id":"MA010120220805239397","name":"에스에이치이컨설팅","industry":"경영 컨설팅업","coordinates":[127.407682530375,36.3695319474676],"sales":{"202602":949}},{"id":"MA010120220805395120","name":"플러스마트","industry":"슈퍼마켓","coordinates":[127.416942047135,36.3673732279937],"sales":{"202602":8219}},{"id":"MA010120220805397735","name":"자기계발연구소","industry":"경영 컨설팅업","coordinates":[127.407232883053,36.3666407207014],"sales":{"202602":690}},{"id":"MA010120220805399592","name":"대복식당","industry":"백반/한정식","coordinates":[127.402936017244,36.3652945197826],"sales":{"202602":1465}},{"id":"MA010120220805409892","name":"디자인포맨","industry":"명함/간판/광고물 제작","coordinates":[127.417955239611,36.3693072055632],"sales":{"202602":458}},{"id":"MA010120220805536028","name":"한밭장례협동조합","industry":"장례식장","coordinates":[127.418417927068,36.3662325925807],"sales":{"202602":10648}},{"id":"MA010120220805552846","name":"제이알씨앤에스","industry":"컴퓨터/소프트웨어 소매업","coordinates":[127.402936017244,36.3652945197826],"sales":{"202602":618}},{"id":"MA010120220805639093","name":"이레종합유통","industry":"슈퍼마켓","coordinates":[127.417900644024,36.3674329608149],"sales":{"202602":9995}},{"id":"MA010120220805689211","name":"허니빈스","industry":"카페","coordinates":[127.419936386509,36.3688767080796],"sales":{"202602":543}},{"id":"MA010120220805695110","name":"아이세상","industry":"광고물 설계/제작업","coordinates":[127.407232883053,36.3666407207014],"sales":{"202602":896}},{"id":"MA010120220805740937","name":"투다리식당","industry":"요리 주점","coordinates":[127.416385111484,36.3674112171406],"sales":{"202602":327}},{"id":"MA010120220805741105","name":"모듬생찌개방식당","industry":"백반/한정식","coordinates":[127.402936017244,36.3652945197826],"sales":{"202602":1325}},{"id":"MA010120220805743001","name":"배연정헤어나라","industry":"미용실","coordinates":[127.415781015877,36.3669627353358],"sales":{"202602":521}},{"id":"MA010120220805743723","name":"옥미식당","industry":"백반/한정식","coordinates":[127.402936017244,36.3652945197826],"sales":{"202602":4509}},{"id":"MA010120220805744572","name":"조이헛치킨","industry":"치킨","coordinates":[127.412400050044,36.3639555284707],"sales":{"202602":808}},{"id":"MA010120220805745813","name":"대현카센터","industry":"자동차 정비소","coordinates":[127.402406792215,36.3707123447466],"sales":{"202602":296}},{"id":"MA010120220805746135","name":"지케이네트웍스","industry":"자동차 정비소","coordinates":[127.403914872072,36.3628129911878],"sales":{"202602":8130}},{"id":"MA010120220805748289","name":"중앙슈퍼","industry":"슈퍼마켓","coordinates":[127.412909395545,36.363349984122],"sales":{"202602":14689}},{"id":"MA010120220805748708","name":"송원기획","industry":"명함/간판/광고물 제작","coordinates":[127.417375934609,36.3630731248938],"sales":{"202602":760}},{"id":"MA010120220805748909","name":"카피플러스","industry":"전시/컨벤션/행사 대행 서비스업","coordinates":[127.402936017244,36.3652945197826],"sales":{"202602":2127}},{"id":"MA010120220805749113","name":"최미현부동산대화동","industry":"부동산 중개/대리업","coordinates":[127.403378777997,36.3647252873814],"sales":{"202602":151}},{"id":"MA010120220805749246","name":"누리정보","industry":"컴퓨터/소프트웨어 소매업","coordinates":[127.402936017244,36.3652945197826],"sales":{"202602":1273}},{"id":"MA010120220805749669","name":"씨티약국","industry":"약국","coordinates":[127.416194265004,36.3629600946007],"sales":{"202602":7136}},{"id":"MA010120220805750614","name":"풍년슈퍼","industry":"슈퍼마켓","coordinates":[127.411326003635,36.3652388948635],"sales":{"202602":4668}},{"id":"MA010120220805752695","name":"기아광택,세덴","industry":"자동차 세차장","coordinates":[127.419501673564,36.3688512001449],"sales":{"202602":2089}},{"id":"MA010120220805753363","name":"아이오티","industry":"사진촬영업","coordinates":[127.402936017244,36.3652945197826],"sales":{"202602":125}},{"id":"MA010120220805753621","name":"자동차정비마을","industry":"자동차 정비소","coordinates":[127.410798670157,36.3645468068819],"sales":{"202602":1707}},{"id":"MA010120220805755319","name":"한국유통컨설팅","industry":"컴퓨터/소프트웨어 소매업","coordinates":[127.402936017244,36.3652945197826],"sales":{"202602":4488}},{"id":"MA010120220805757488","name":"KPC치킨","industry":"요리 주점","coordinates":[127.412806019691,36.3648733217414],"sales":{"202602":383}},{"id":"MA010120220805758180","name":"KD시스템","industry":"가전제품 소매업","coordinates":[127.407682530375,36.3695319474676],"sales":{"202602":1231}},{"id":"MA010120220805759045","name":"대성모터스","industry":"자동차 정비소","coordinates":[127.417906282564,36.3684873112625],"sales":{"202602":364}},{"id":"MA010120220805759329","name":"조이헛닭갈비","industry":"닭/오리고기 구이/찜","coordinates":[127.407107076752,36.3660193409759],"sales":{"202602":1044}},{"id":"MA010120220805759700","name":"재순전자","industry":"자동차 정비소","coordinates":[127.410301770374,36.3738936592067],"sales":{"202602":506}},{"id":"MA010120220805760486","name":"제일식당","industry":"백반/한정식","coordinates":[127.41090952319,36.3644382850655],"sales":{"202602":1610}},{"id":"MA010120220805762275","name":"길림성","industry":"중국집","coordinates":[127.402936017244,36.3652945197826],"sales":{"202602":4735}},{"id":"MA010120220805763066","name":"씨네패스","industry":"광고 대행업","coordinates":[127.41811588247,36.3639266509238],"sales":{"202602":5396}},{"id":"MA010120220805764113","name":"머리하는날미용실","industry":"미용실","coordinates":[127.418325941911,36.3657012235789],"sales":{"202602":561}},{"id":"MA010120220805766633","name":"우리식당","industry":"돼지고기 구이/찜","coordinates":[127.416156501524,36.3663306080889],"sales":{"202602":1431}},{"id":"MA010120220805767774","name":"드림모터스","industry":"자동차 정비소","coordinates":[127.407134481627,36.3734178630357],"sales":{"202602":1382}},{"id":"MA010120220805767787","name":"21C교육시스템","industry":"컴퓨터/소프트웨어 소매업","coordinates":[127.407682530375,36.3695319474676],"sales":{"202602":2646}},{"id":"MA010120220805768870","name":"우성종합설비","industry":"그 외 기타 개인/가정용품 수리업","coordinates":[127.416597297817,36.3654098770247],"sales":{"202602":1163}},{"id":"MA010120220805769212","name":"공단식당","industry":"구내식당","coordinates":[127.41009922096,36.3756426251189],"sales":{"202602":4270}},{"id":"MA010120220805770728","name":"대화자동차공업사","industry":"자동차 정비소","coordinates":[127.409467330782,36.3741488498734],"sales":{"202602":1051}},{"id":"MA010120220805770878","name":"조은욕실인테리어","industry":"인테리어 디자인업","coordinates":[127.402936017244,36.3652945197826],"sales":{"202602":432}},{"id":"MA010120220805771521","name":"나주식당","industry":"백반/한정식","coordinates":[127.402936017244,36.3652945197826],"sales":{"202602":359}},{"id":"MA010120220805772106","name":"무다리식당","industry":"담배/전자담배 소매업","coordinates":[127.402460975727,36.3704147757292],"sales":{"202602":432}},{"id":"MA010120220805773602","name":"한민종합상사","industry":"철물/공구 소매업","coordinates":[127.402936017244,36.3652945197826],"sales":{"202602":444}},{"id":"MA010120220805773791","name":"안전자동차정비공업사","industry":"자동차 정비소","coordinates":[127.410706857745,36.3767579885725],"sales":{"202602":1198}},{"id":"MA010120220805775526","name":"평화사","industry":"철물/공구 소매업","coordinates":[127.402936017244,36.3652945197826],"sales":{"202602":1142}},{"id":"MA010120220805776896","name":"우리할인매장","industry":"슈퍼마켓","coordinates":[127.411936758164,36.3669580283455],"sales":{"202602":11411}},{"id":"MA010120220805777142","name":"바삭토스트","industry":"토스트/샌드위치/샐러드","coordinates":[127.402936017244,36.3652945197826],"sales":{"202602":985}},{"id":"MA010120220805777473","name":"대화동양","industry":"핸드폰 소매업","coordinates":[127.402936017244,36.3652945197826],"sales":{"202602":158}},{"id":"MA010120220805778552","name":"제이애드커뮤니케이션","industry":"광고 대행업","coordinates":[127.417351026254,36.364668285847],"sales":{"202602":6080}},{"id":"MA010120220805779101","name":"그린웨이브","industry":"화장품 소매업","coordinates":[127.402936017244,36.3652945197826],"sales":{"202602":685}},{"id":"MA010120220805780366","name":"대화인쇄마을","industry":"명함/간판/광고물 제작","coordinates":[127.402936017244,36.3652945197826],"sales":{"202602":652}},{"id":"MA010120220805780533","name":"필레아엔지니어링","industry":"가전제품 소매업","coordinates":[127.417611985826,36.3634598039438],"sales":{"202602":357}},{"id":"MA010120220805780790","name":"명품모터스","industry":"자동차 정비소","coordinates":[127.408719347007,36.3738900717957],"sales":{"202602":580}},{"id":"MA010120220805782805","name":"애드엠","industry":"옥외/전시 광고 대행업","coordinates":[127.41811588247,36.3639266509238],"sales":{"202602":1979}},{"id":"MA010120220805782840","name":"지인미용실","industry":"미용실","coordinates":[127.416732446707,36.3656797571519],"sales":{"202602":1009}},{"id":"MA010120220805783673","name":"SARISARISTORE","industry":"슈퍼마켓","coordinates":[127.414927636981,36.3678308265279],"sales":{"202602":19888}},{"id":"MA010120220805785593","name":"채움산업","industry":"옥외/전시 광고 대행업","coordinates":[127.414274300053,36.3749072837275],"sales":{"202602":1554}},{"id":"MA010120220805787934","name":"소호재","industry":"건축 설계 및 관련 서비스업","coordinates":[127.402936017244,36.3652945197826],"sales":{"202602":59}},{"id":"MA010120220805788315","name":"디에스푸드","industry":"백반/한정식","coordinates":[127.402936017244,36.3652945197826],"sales":{"202602":1234}},{"id":"MA010120220805788608","name":"휴먼파트너","industry":"사무기기 소매업","coordinates":[127.407682530375,36.3695319474676],"sales":{"202602":383}},{"id":"MA010120220805788874","name":"계룡유기","industry":"주방/가정용품 소매업","coordinates":[127.418017558368,36.3705415915113],"sales":{"202602":942}},{"id":"MA010120220805792737","name":"씨유대전","industry":"편의점","coordinates":[127.411848852964,36.3671926359715],"sales":{"202602":1799}},{"id":"MA010120220805792983","name":"일월칼국수","industry":"국수/칼국수","coordinates":[127.415884079932,36.3674850559554],"sales":{"202602":1093}},{"id":"MA010120220805793658","name":"삼성슈퍼","industry":"슈퍼마켓","coordinates":[127.41180013491,36.3642910312594],"sales":{"202602":4499}},{"id":"MA010120220805793775","name":"선우기업동부사업소","industry":"자동차 정비소","coordinates":[127.405449906132,36.3730541120859],"sales":{"202602":2553}},{"id":"MA010120220805793867","name":"김밥푸드","industry":"김밥/만두/분식","coordinates":[127.402936017244,36.3652945197826],"sales":{"202602":1459}},{"id":"MA010120220805795337","name":"대화뷰티샵","industry":"피부 관리실","coordinates":[127.413622291837,36.3633114714197],"sales":{"202602":218}},{"id":"MA010120220805796834","name":"방충방충","industry":"기타 의류 소매업","coordinates":[127.415003418622,36.3632165649728],"sales":{"202602":2687}},{"id":"MA010120220805806396","name":"꼴통식당","industry":"백반/한정식","coordinates":[127.402936017244,36.3652945197826],"sales":{"202602":1223}},{"id":"MA010120220805810477","name":"합동창업지원주","industry":"경영 컨설팅업","coordinates":[127.402936017244,36.3652945197826],"sales":{"202602":718}},{"id":"MA010120220805812007","name":"동아자동차기업주","industry":"자동차 정비소","coordinates":[127.419501673564,36.3688512001449],"sales":{"202602":461}},{"id":"MA010120220805812842","name":"한울경영연구소주","industry":"경영 컨설팅업","coordinates":[127.402936017244,36.3652945197826],"sales":{"202602":2343}},{"id":"MA010120220805813463","name":"대한산업안전본부","industry":"직원 훈련기관","coordinates":[127.407682530375,36.3695319474676],"sales":{"202602":547}},{"id":"MA010120220805815986","name":"삼성웰스토리아모레퍼시픽대전주","industry":"구내식당","coordinates":[127.408913353109,36.3683742419045],"sales":{"202602":3132}},{"id":"MA010120220805815987","name":"삼성웰스토리한국앤컴퍼니대전","industry":"구내식당","coordinates":[127.412755725502,36.3701183126514],"sales":{"202602":3828}},{"id":"MA010120220805817077","name":"케이디피플","industry":"자동차 대여업","coordinates":[127.407682530375,36.3695319474676],"sales":{"202602":2908}},{"id":"MA010120220805817122","name":"태경물류","industry":"포장/충전업","coordinates":[127.408913353109,36.3683742419045],"sales":{}},{"id":"MA010120220805817191","name":"우리아이비","industry":"동물병원","coordinates":[127.417244889489,36.3698323676121],"sales":{"202602":1607}},{"id":"MA010120220805817403","name":"알루코구내식당","industry":"구내식당","coordinates":[127.40821147635,36.3641321235392],"sales":{"202602":5448}},{"id":"MA010120220805817428","name":"정수","industry":"포장/충전업","coordinates":[127.408913353109,36.3683742419045],"sales":{}},{"id":"MA010120220805818010","name":"현대지앤지주","industry":"사업시설 유지·관리 서비스업","coordinates":[127.402936017244,36.3652945197826],"sales":{"202602":363}},{"id":"MA010120220805818933","name":"오성에프에스","industry":"그 외 기타 종합 소매업","coordinates":[127.41729307055,36.3705080774143],"sales":{"202602":2903}},{"id":"MA010120220805824802","name":"제일문구인쇄","industry":"문구/회화용품 소매업","coordinates":[127.402936017244,36.3652945197826],"sales":{"202602":3835}},{"id":"MA010120220805825756","name":"어메이징사운드","industry":"가전제품 소매업","coordinates":[127.407682530375,36.3695319474676],"sales":{"202602":491}},{"id":"MA010120220805825780","name":"계룡반점","industry":"중국집","coordinates":[127.402936017244,36.3652945197826],"sales":{"202602":3041}},{"id":"MA010120220805826338","name":"베리텍컴퓨터","industry":"컴퓨터/소프트웨어 소매업","coordinates":[127.402936017244,36.3652945197826],"sales":{"202602":2106}},{"id":"MA010120220805826713","name":"서광테크","industry":"문구/회화용품 소매업","coordinates":[127.402936017244,36.3652945197826],"sales":{"202602":7057}},{"id":"MA010120220805827102","name":"순이네분식까페","industry":"김밥/만두/분식","coordinates":[127.415594469781,36.3633136394467],"sales":{"202602":247}},{"id":"MA010120220805827312","name":"오토오아시스","industry":"자동차 정비소","coordinates":[127.419936386509,36.3688767080796],"sales":{"202602":3236}},{"id":"MA010120220805827573","name":"CNA시스템","industry":"컴퓨터/소프트웨어 소매업","coordinates":[127.402936017244,36.3652945197826],"sales":{"202602":1073}},{"id":"MA010120220805827635","name":"일신광고기획","industry":"명함/간판/광고물 제작","coordinates":[127.402936017244,36.3652945197826],"sales":{"202602":661}},{"id":"MA010120220805827648","name":"홍가네분식","industry":"김밥/만두/분식","coordinates":[127.402936017244,36.3652945197826],"sales":{"202602":422}},{"id":"MA010120220805827652","name":"행복분식식당","industry":"김밥/만두/분식","coordinates":[127.418577017421,36.3688904901342],"sales":{"202602":1091}},{"id":"MA010120220805827958","name":"중문공업사","industry":"자동차 정비소","coordinates":[127.406936468735,36.3653530550575],"sales":{"202602":873}},{"id":"MA010120220805828324","name":"투맨","industry":"명함/간판/광고물 제작","coordinates":[127.404688703968,36.3637836386811],"sales":{"202602":594}},{"id":"MA010120220805828375","name":"영광O.A","industry":"사무기기 소매업","coordinates":[127.402936017244,36.3652945197826],"sales":{"202602":100}},{"id":"MA010120220805828377","name":"충남공구","industry":"철물/공구 소매업","coordinates":[127.402936017244,36.3652945197826],"sales":{"202602":574}},{"id":"MA010120220805828822","name":"베스트전자","industry":"자동차 부품 소매업","coordinates":[127.419936386509,36.3688767080796],"sales":{"202602":2636}},{"id":"MA010120220805829318","name":"미니","industry":"명함/간판/광고물 제작","coordinates":[127.402936017244,36.3652945197826],"sales":{"202602":751}},{"id":"MA010120220805829490","name":"장미식당","industry":"백반/한정식","coordinates":[127.414067970997,36.3633099277072],"sales":{"202602":553}},{"id":"MA010120220805829820","name":"뭐라고하지식당","industry":"요리 주점","coordinates":[127.414135825622,36.3634989386303],"sales":{"202602":2571}},{"id":"MA010120220805848507","name":"모아안경원","industry":"안경렌즈 소매업","coordinates":[127.414881870396,36.3676056926582],"sales":{"202602":1194}},{"id":"MA010120220805851960","name":"삼우가스","industry":"가정용 연료 소매업","coordinates":[127.408089017364,36.3662863425515],"sales":{"202602":140761}},{"id":"MA010120220805852135","name":"두꺼비전자","industry":"철물/공구 소매업","coordinates":[127.41310328667,36.3641964154632],"sales":{"202602":699}},{"id":"MA010120220805852143","name":"우리이용원","industry":"미용실","coordinates":[127.412566800574,36.3638828590383],"sales":{"202602":693}},{"id":"MA010120220805852148","name":"위성전자","industry":"전기용품/조명장치 소매업","coordinates":[127.41053158968,36.3646108069094],"sales":{"202602":380}},{"id":"MA010120220805852163","name":"진미용실","industry":"미용실","coordinates":[127.412566800574,36.3638828590383],"sales":{"202602":450}},{"id":"MA010120220805852164","name":"공단이용원","industry":"미용실","coordinates":[127.415539187324,36.3675853848477],"sales":{"202602":433}},{"id":"MA010120220805852175","name":"왕손곱창식당","industry":"곱창 전골/구이","coordinates":[127.41208303628,36.3672278753292],"sales":{"202602":1204}},{"id":"MA010120220805852190","name":"하나지업사","industry":"벽지/장판/마루 소매업","coordinates":[127.412876874083,36.3635213191767],"sales":{"202602":138}},{"id":"MA010120220805852191","name":"한밭식당","industry":"백반/한정식","coordinates":[127.406861569178,36.3659480835336],"sales":{"202602":2595}},{"id":"MA010120220805852196","name":"대일건강원","industry":"건강보조식품 소매업","coordinates":[127.415269197817,36.3629092430636],"sales":{"202602":2150}},{"id":"MA010120220805852223","name":"해명이용원","industry":"미용실","coordinates":[127.406861569178,36.3659480835336],"sales":{"202602":648}},{"id":"MA010120220805852224","name":"오륙도식당","industry":"백반/한정식","coordinates":[127.415728515401,36.3675667027771],"sales":{"202602":1231}},{"id":"MA010120220805852225","name":"대마성","industry":"백반/한정식","coordinates":[127.406861569178,36.3659480835336],"sales":{"202602":908}},{"id":"MA010120220805852226","name":"장원철물","industry":"철물/공구 소매업","coordinates":[127.412911204692,36.3636924232008],"sales":{"202602":5059}},{"id":"MA010120220805852230","name":"아름지업사","industry":"벽지/장판/마루 소매업","coordinates":[127.413078668613,36.3637549263724],"sales":{"202602":435}},{"id":"MA010120220805852234","name":"해성식당","industry":"백반/한정식","coordinates":[127.416385111484,36.3674112171406],"sales":{"202602":838}},{"id":"MA010120220805852527","name":"덕산철물상회","industry":"철물/공구 소매업","coordinates":[127.41797864195,36.367432687966],"sales":{"202602":873}},{"id":"MA010120220805852541","name":"한일","industry":"슈퍼마켓","coordinates":[127.416834121419,36.365940742188],"sales":{"202602":8820}},{"id":"MA010120220805852585","name":"대금당","industry":"시계/귀금속 소매업","coordinates":[127.415884079932,36.3674850559554],"sales":{"202602":811}},{"id":"MA010120220805852594","name":"대성공업사","industry":"자동차 정비소","coordinates":[127.417906282564,36.3684873112625],"sales":{"202602":282}},{"id":"MA010120220805863112","name":"삼우자동차정비","industry":"자동차 정비소","coordinates":[127.408801047424,36.3660766388937],"sales":{"202602":2334}},{"id":"MA010120220805863173","name":"일보람주","industry":"소독, 구충 및 방제 서비스업","coordinates":[127.415539187324,36.3675853848477],"sales":{"202602":110}},{"id":"MA010120220805864154","name":"기아대전서비스센터주","industry":"자동차 정비소","coordinates":[127.419025385935,36.3693845623918],"sales":{"202602":1395}},{"id":"MA010120220805864156","name":"기아대전렌트주","industry":"자동차 대여업","coordinates":[127.419025385935,36.3693845623918],"sales":{"202602":180}},{"id":"MA010120220805952060","name":"리틀빅스튜디오","industry":"시각 디자인업","coordinates":[127.417132992752,36.3655702188059],"sales":{"202602":1483}},{"id":"MA010120220806054803","name":"KTSolution","industry":"광고물 설계/제작업","coordinates":[127.402936017244,36.3652945197826],"sales":{"202602":649}},{"id":"MA010120220806131709","name":"송암","industry":"환경 관련 엔지니어링 서비스업","coordinates":[127.407682530375,36.3695319474676],"sales":{}},{"id":"MA010120220806174614","name":"영진음향","industry":"가전제품 수리업","coordinates":[127.402936017244,36.3652945197826],"sales":{"202602":294}},{"id":"MA010120220806174825","name":"강산유통","industry":"슈퍼마켓","coordinates":[127.417474456571,36.3648300655107],"sales":{"202602":2045}},{"id":"MA010120220806183621","name":"영광기업","industry":"의류/이불 수선업","coordinates":[127.410928585509,36.3638254226133],"sales":{"202602":329}},{"id":"MA010120220806184420","name":"머찐거닷컴","industry":"컴퓨터/소프트웨어 소매업","coordinates":[127.402936017244,36.3652945197826],"sales":{"202602":970}},{"id":"MA010120220806185206","name":"행운샵","industry":"복권 발행/판매업","coordinates":[127.415728515401,36.3675667027771],"sales":{"202602":369}},{"id":"MA010120220806187687","name":"황해도식당","industry":"백반/한정식","coordinates":[127.402936017244,36.3652945197826],"sales":{"202602":1186}},{"id":"MA010120220806188683","name":"나노정보시스템","industry":"컴퓨터/소프트웨어 소매업","coordinates":[127.402731976479,36.366782141348],"sales":{"202602":1705}},{"id":"MA010120220806192653","name":"홍성식당","industry":"백반/한정식","coordinates":[127.40378157313,36.365048348723],"sales":{"202602":2293}},{"id":"MA010120220806194490","name":"우정공업사","industry":"자동차 정비소","coordinates":[127.417168361927,36.3680212812137],"sales":{"202602":520}},{"id":"MA010120220806194846","name":"이레컴퓨터","industry":"컴퓨터/소프트웨어 소매업","coordinates":[127.411919963126,36.3658856921413],"sales":{"202602":473}},{"id":"MA010120220806195041","name":"애드기획","industry":"기념품점","coordinates":[127.402936017244,36.3652945197826],"sales":{"202602":154}},{"id":"MA010120220806196933","name":"디자인뱅크","industry":"명함/간판/광고물 제작","coordinates":[127.401301953223,36.3682198161945],"sales":{"202602":554}},{"id":"MA010120220806214664","name":"샵KRC","industry":"자전거 소매업","coordinates":[127.402936017244,36.3652945197826],"sales":{"202602":237}},{"id":"MA010120220806219493","name":"시온테크","industry":"가전제품 수리업","coordinates":[127.402936017244,36.3652945197826],"sales":{"202602":83}},{"id":"MA010120220806220269","name":"한양식당","industry":"백반/한정식","coordinates":[127.402936017244,36.3652945197826],"sales":{"202602":1925}},{"id":"MA010120220806220941","name":"블루사이언스","industry":"컴퓨터/소프트웨어 소매업","coordinates":[127.407682530375,36.3695319474676],"sales":{"202602":2427}},{"id":"MA010120220806221793","name":"부길공인중개사사무소","industry":"부동산 중개/대리업","coordinates":[127.402936017244,36.3652945197826],"sales":{"202602":179}},{"id":"MA010120220806224236","name":"쌍마네트워크","industry":"고용 알선업","coordinates":[127.416385111484,36.3674112171406],"sales":{"202602":2749}},{"id":"MA010120220806224927","name":"대한보트","industry":"운동용품 소매업","coordinates":[127.402936017244,36.3652945197826],"sales":{"202602":3498}},{"id":"MA010120220806225546","name":"금강솔루션","industry":"기타 엔지니어링 서비스업","coordinates":[127.402936017244,36.3652945197826],"sales":{"202602":5715}},{"id":"MA010120220806231567","name":"스마트솔루션","industry":"컴퓨터/사무기기 대여업","coordinates":[127.402936017244,36.3652945197826],"sales":{"202602":203}},{"id":"MA010120220806237711","name":"메타미디어","industry":"사진촬영업","coordinates":[127.402936017244,36.3652945197826],"sales":{"202602":413}},{"id":"MA010120220806245946","name":"환경산업주","industry":"소독, 구충 및 방제 서비스업","coordinates":[127.407682530375,36.3695319474676],"sales":{"202602":128}},{"id":"MA010120220806246831","name":"케이디에프주","industry":"자동차 대여업","coordinates":[127.407682530375,36.3695319474676],"sales":{"202602":632}},{"id":"MA010120220806247394","name":"정수엔지니어링주","industry":"환경 관련 엔지니어링 서비스업","coordinates":[127.402936017244,36.3652945197826],"sales":{}},{"id":"MA010120220806252301","name":"승일정보통신","industry":"컴퓨터/사무기기 대여업","coordinates":[127.402936017244,36.3652945197826],"sales":{"202602":649}},{"id":"MA010120220806253299","name":"중소기업경영인증원","industry":"경영 컨설팅업","coordinates":[127.402936017244,36.3652945197826],"sales":{"202602":1381}},{"id":"MA010120220806253413","name":"명품","industry":"기타 의류 소매업","coordinates":[127.402936017244,36.3652945197826],"sales":{"202602":629}},{"id":"MA010120220806253618","name":"동그랑케이터링주","industry":"백반/한정식","coordinates":[127.402936017244,36.3652945197826],"sales":{"202602":2617}},{"id":"MA010120220806255687","name":"예가인주","industry":"인테리어 디자인업","coordinates":[127.407682530375,36.3695319474676],"sales":{"202602":509}},{"id":"MA010120220806256353","name":"그린브라우니","industry":"카페","coordinates":[127.407682530375,36.3695319474676],"sales":{"202602":470}},{"id":"MA010120220806350432","name":"화인종합상사","industry":"철물/공구 소매업","coordinates":[127.402936017244,36.3652945197826],"sales":{"202602":707}},{"id":"MA010120220806351212","name":"대화스크린골프매점","industry":"슈퍼마켓","coordinates":[127.416942047135,36.3673732279937],"sales":{"202602":7458}},{"id":"MA010120220806351625","name":"한반도1급자동차공업사","industry":"자동차 정비소","coordinates":[127.411678355569,36.3750153863468],"sales":{"202602":730}},{"id":"MA010120220806351651","name":"휴대폰1번지","industry":"핸드폰 소매업","coordinates":[127.411947093099,36.3668047935646],"sales":{"202602":202}},{"id":"MA010120220806353119","name":"메디칼케어","industry":"의료기기 소매업","coordinates":[127.402936017244,36.3652945197826],"sales":{"202602":2690}},{"id":"MA010120220806362206","name":"유영주","industry":"포장/충전업","coordinates":[127.408913353109,36.3683742419045],"sales":{}},{"id":"MA010120220806362210","name":"강동팩","industry":"포장/충전업","coordinates":[127.408913353109,36.3683742419045],"sales":{}},{"id":"MA010120220806362797","name":"동원홈푸드티알벨트랙","industry":"구내식당","coordinates":[127.405904119088,36.3682493278092],"sales":{"202602":5286}},{"id":"MA010120220806382308","name":"에이치지씨쇼","industry":"광고 대행업","coordinates":[127.407682530375,36.3695319474676],"sales":{"202602":4905}},{"id":"MA010120220806414441","name":"한국경영컨설팅연구소1","industry":"경영 컨설팅업","coordinates":[127.407232883053,36.3666407207014],"sales":{"202602":874}},{"id":"MA010120220806415764","name":"에스에이컨설팅","industry":"경영 컨설팅업","coordinates":[127.407682530375,36.3695319474676],"sales":{"202602":1075}},{"id":"MA010120220806465722","name":"덕산셀프세차","industry":"자동차 세차장","coordinates":[127.399781415183,36.3650437770992],"sales":{"202602":3353}},{"id":"MA010120220806493720","name":"썬스코","industry":"사업시설 유지·관리 서비스업","coordinates":[127.407682530375,36.3695319474676],"sales":{"202602":2313}},{"id":"MA010120220806519606","name":"제이제이","industry":"경영 컨설팅업","coordinates":[127.407232883053,36.3666407207014],"sales":{"202602":540}},{"id":"MA010120220806590509","name":"정혁시스템","industry":"광고 대행업","coordinates":[127.407682530375,36.3695319474676],"sales":{"202602":4596}},{"id":"MA010120220806629759","name":"삼정엔지니어링","industry":"기타 엔지니어링 서비스업","coordinates":[127.402936017244,36.3652945197826],"sales":{"202602":18385}},{"id":"MA010120220806801040","name":"우리푸른","industry":"가축 사료 소매업","coordinates":[127.402936017244,36.3652945197826],"sales":{"202602":5082}},{"id":"MA010120220806831403","name":"미소종합상사","industry":"주방/가정용품 소매업","coordinates":[127.402936017244,36.3652945197826],"sales":{"202602":880}},{"id":"MA010120220806843016","name":"밀앤돈까스","industry":"경양식","coordinates":[127.409561984773,36.3645690759867],"sales":{"202602":1047}},{"id":"MA010120220806850814","name":"대형트럭시트","industry":"자동차 정비소","coordinates":[127.402936017244,36.3652945197826],"sales":{"202602":897}},{"id":"MA010120220806851841","name":"청마","industry":"인테리어 디자인업","coordinates":[127.407682530375,36.3695319474676],"sales":{"202602":706}},{"id":"MA010120220806886975","name":"빛나리","industry":"광고물 설계/제작업","coordinates":[127.407682530375,36.3695319474676],"sales":{"202602":1414}},{"id":"MA010120220806931912","name":"스테이804","industry":"사업/무형 재산권 중개업","coordinates":[127.407143696399,36.3666320129451],"sales":{}},{"id":"MA010120220807010280","name":"블루오션텔레콤","industry":"핸드폰 소매업","coordinates":[127.415696861346,36.3679002462605],"sales":{"202602":110}},{"id":"MA010120220807150115","name":"케이투비특허","industry":"변리사","coordinates":[127.407682530375,36.3695319474676],"sales":{"202602":771}},{"id":"MA010120220807278447","name":"케이디에이치","industry":"광고 대행업","coordinates":[127.407682530375,36.3695319474676],"sales":{"202602":3880}},{"id":"MA010120220807282065","name":"예인인테리어","industry":"인테리어 디자인업","coordinates":[127.403134021569,36.3647982072375],"sales":{"202602":895}},{"id":"MA010120220807302511","name":"흥원닷컴","industry":"철물/공구 소매업","coordinates":[127.418365590538,36.3647818898412],"sales":{"202602":411}},{"id":"MA010120220807506777","name":"에이엔티시스템","industry":"포장/충전업","coordinates":[127.408913353109,36.3683742419045],"sales":{}},{"id":"MA010120220807563001","name":"엠지소방","industry":"그 외 기타 상품 전문 소매업","coordinates":[127.407232883053,36.3666407207014],"sales":{"202602":7357}},{"id":"MA010120220807565270","name":"세진환경산업","industry":"기타 사무 지원 서비스업","coordinates":[127.407682530375,36.3695319474676],"sales":{}},{"id":"MA010120220807673725","name":"에스디에이치","industry":"부동산 중개/대리업","coordinates":[127.405501933966,36.3637538462506],"sales":{"202602":167}},{"id":"MA010120220807751529","name":"빅센인테리어","industry":"인테리어 디자인업","coordinates":[127.407682530375,36.3695319474676],"sales":{"202602":639}},{"id":"MA010120220807795277","name":"포커스","industry":"광고 대행업","coordinates":[127.407682530375,36.3695319474676],"sales":{"202602":5731}},{"id":"MA010120220808042328","name":"귀사랑소리대장간","industry":"의료기기 소매업","coordinates":[127.402936017244,36.3652945197826],"sales":{"202602":1496}},{"id":"MA010120220808052095","name":"디엔에프에이","industry":"패션/섬유/기타 전문 디자인업","coordinates":[127.414266221348,36.3649764082884],"sales":{"202602":79}},{"id":"MA010120220808091511","name":"미호티앤씨","industry":"포장/충전업","coordinates":[127.408913353109,36.3683742419045],"sales":{}},{"id":"MA010120220808120848","name":"성신","industry":"슈퍼마켓","coordinates":[127.407682530375,36.3695319474676],"sales":{"202602":7968}},{"id":"MA010120220808140688","name":"시원테크","industry":"가전제품 수리업","coordinates":[127.402936017244,36.3652945197826],"sales":{"202602":338}},{"id":"MA010120220808143825","name":"하이클라쓰","industry":"인테리어 디자인업","coordinates":[127.407682530375,36.3695319474676],"sales":{"202602":291}},{"id":"MA010120220808259728","name":"더울림","industry":"건강보조식품 소매업","coordinates":[127.410629505187,36.370522154765],"sales":{"202602":1040}},{"id":"MA010120220808272042","name":"유니프","industry":"핸드폰 소매업","coordinates":[127.402936017244,36.3652945197826],"sales":{"202602":282}},{"id":"MA010120220808284022","name":"딸둘카페딸둘수제청","industry":"카페","coordinates":[127.402936017244,36.3652945197826],"sales":{"202602":476}},{"id":"MA010120220808326124","name":"네오Brain","industry":"경영 컨설팅업","coordinates":[127.407682530375,36.3695319474676],"sales":{"202602":1660}},{"id":"MA010120220808332002","name":"케이엠컴텍","industry":"기숙사/고시원","coordinates":[127.402936017244,36.3652945197826],"sales":{}},{"id":"MA010120220808344291","name":"우리밥상","industry":"백반/한정식","coordinates":[127.402936017244,36.3652945197826],"sales":{"202602":749}},{"id":"MA010120220808353358","name":"천북순대","industry":"국/탕/찌개류","coordinates":[127.415571035857,36.363097439705],"sales":{"202602":1437}},{"id":"MA010120220808417521","name":"가온컨설팅","industry":"반찬/식료품 소매업","coordinates":[127.407232883053,36.3666407207014],"sales":{"202602":2113}},{"id":"MA010120220808432227","name":"테라스","industry":"기타 건설/건축자재 소매업","coordinates":[127.402936017244,36.3652945197826],"sales":{"202602":68}},{"id":"MA010120220808471997","name":"미래솔루텍","industry":"중고 상품 소매업","coordinates":[127.416192704597,36.3689438784414],"sales":{"202602":503}},{"id":"MA010120220808498431","name":"한국경영컨설팅연구소","industry":"경영 컨설팅업","coordinates":[127.407232883053,36.3666407207014],"sales":{"202602":1175}},{"id":"MA010120220808515000","name":"엠케이테크","industry":"광고 대행업","coordinates":[127.407682530375,36.3695319474676],"sales":{"202602":5198}},{"id":"MA010120220808649302","name":"대산미술인쇄","industry":"명함/간판/광고물 제작","coordinates":[127.397808691496,36.3671320691206],"sales":{"202602":373}},{"id":"MA010120220808651605","name":"커피한잔","industry":"카페","coordinates":[127.419025385935,36.3693845623918],"sales":{"202602":741}},{"id":"MA010120220808694163","name":"웰빙보리밥","industry":"백반/한정식","coordinates":[127.416385111484,36.3674112171406],"sales":{"202602":474}},{"id":"MA010120220808700325","name":"에이스통신","industry":"핸드폰 소매업","coordinates":[127.402936017244,36.3652945197826],"sales":{"202602":297}},{"id":"MA010120220808771557","name":"세븐일레븐금강","industry":"편의점","coordinates":[127.415696861346,36.3679002462605],"sales":{"202602":1116}},{"id":"MA010120220808781649","name":"얼큰이네순두부밥상","industry":"백반/한정식","coordinates":[127.416385111484,36.3674112171406],"sales":{"202602":1022}},{"id":"MA010120220809291074","name":"아이엘피국제특허법률사무소","industry":"사업/무형 재산권 중개업","coordinates":[127.407232883053,36.3666407207014],"sales":{}},{"id":"MA010120220809293125","name":"버블비헤어","industry":"미용실","coordinates":[127.416385111484,36.3674112171406],"sales":{"202602":522}},{"id":"MA010120220809399913","name":"에스엠전기조명","industry":"가전제품 소매업","coordinates":[127.402936017244,36.3652945197826],"sales":{"202602":505}},{"id":"MA010120220809600028","name":"카인드푸드","industry":"백반/한정식","coordinates":[127.402936017244,36.3652945197826],"sales":{"202602":1090}},{"id":"MA010120220809630210","name":"행복자산관리","industry":"경영 컨설팅업","coordinates":[127.407682530375,36.3695319474676],"sales":{"202602":1396}},{"id":"MA010120220809633180","name":"흥국기계공업","industry":"철물/공구 소매업","coordinates":[127.402936017244,36.3652945197826],"sales":{"202602":1031}},{"id":"MA010120220809637198","name":"도안공조시스템","industry":"가전제품 수리업","coordinates":[127.407682530375,36.3695319474676],"sales":{"202602":143}},{"id":"MA010120220809657744","name":"애드엠","industry":"옥외/전시 광고 대행업","coordinates":[127.41811588247,36.3639266509238],"sales":{"202602":1123}},{"id":"MA010120220809690382","name":"하이파츠","industry":"자동차 부품 소매업","coordinates":[127.416385111484,36.3674112171406],"sales":{"202602":985}},{"id":"MA010120220809713536","name":"셀릭스","industry":"패션/섬유/기타 전문 디자인업","coordinates":[127.407682530375,36.3695319474676],"sales":{"202602":141}},{"id":"MA010120220809764719","name":"마일스톤에너지","industry":"기타 엔지니어링 서비스업","coordinates":[127.407682530375,36.3695319474676],"sales":{"202602":3775}},{"id":"MA010120220809787214","name":"하늘통신","industry":"핸드폰 소매업","coordinates":[127.402936017244,36.3652945197826],"sales":{"202602":202}},{"id":"MA010120220809788093","name":"동보환경","industry":"건축물 일반 청소업","coordinates":[127.402936017244,36.3652945197826],"sales":{"202602":615}},{"id":"MA010120220809836445","name":"지산415호","industry":"경영 컨설팅업","coordinates":[127.407232883053,36.3666407207014],"sales":{"202602":547}},{"id":"MA010120220809843071","name":"하하커뮤니케이션","industry":"경영 컨설팅업","coordinates":[127.407232883053,36.3666407207014],"sales":{"202602":2593}},{"id":"MA010120220809880796","name":"에이스경영","industry":"경영 컨설팅업","coordinates":[127.407682530375,36.3695319474676],"sales":{"202602":1118}},{"id":"MA010120220810019110","name":"블루퍼니처","industry":"가구 소매업","coordinates":[127.40444973093,36.3628201935715],"sales":{"202602":572}},{"id":"MA010120220810035462","name":"대동면옥","industry":"냉면/밀면","coordinates":[127.415728515401,36.3675667027771],"sales":{"202602":1736}},{"id":"MA010120220810111455","name":"꼬꼬마인형표현놀이","industry":"그 외 기타 교육기관","coordinates":[127.402936017244,36.3652945197826],"sales":{"202602":263}},{"id":"MA010120220810126580","name":"아이엠컴퍼니","industry":"경영 컨설팅업","coordinates":[127.407682530375,36.3695319474676],"sales":{"202602":984}},{"id":"MA010120220810166674","name":"에이스위생방역","industry":"소독, 구충 및 방제 서비스업","coordinates":[127.402936017244,36.3652945197826],"sales":{"202602":135}},{"id":"MA010120220810195558","name":"러블리블링","industry":"기념품점","coordinates":[127.414991271841,36.3630273610613],"sales":{"202602":200}},{"id":"MA010120220810195868","name":"공간인테리어","industry":"인테리어 디자인업","coordinates":[127.402936017244,36.3652945197826],"sales":{"202602":398}},{"id":"MA010120220810233484","name":"공구수리","industry":"그 외 기타 개인/가정용품 수리업","coordinates":[127.402936017244,36.3652945197826],"sales":{"202602":9516}},{"id":"MA010120220810236159","name":"에이치환경","industry":"환경 관련 엔지니어링 서비스업","coordinates":[127.407682530375,36.3695319474676],"sales":{}},{"id":"MA010120220810244332","name":"라인디자인","industry":"광고 대행업","coordinates":[127.402936017244,36.3652945197826],"sales":{"202602":2612}},{"id":"MA010120220810248233","name":"펀펀아트","industry":"예술품 소매업","coordinates":[127.415081220934,36.3631802478313],"sales":{"202602":42}},{"id":"MA010120220810255447","name":"수소영컨설팅","industry":"경영 컨설팅업","coordinates":[127.407232883053,36.3666407207014],"sales":{"202602":1397}},{"id":"MA010120220810285058","name":"정테크","industry":"자동차 부품 소매업","coordinates":[127.402936017244,36.3652945197826],"sales":{"202602":5299}},{"id":"MA010120220810299557","name":"라인인테리어","industry":"인테리어 디자인업","coordinates":[127.402936017244,36.3652945197826],"sales":{"202602":702}},{"id":"MA010120220810379474","name":"식풍경","industry":"백반/한정식","coordinates":[127.411881615614,36.3670663590305],"sales":{"202602":1967}},{"id":"MA010120220810420901","name":"동행","industry":"편의점","coordinates":[127.407143696399,36.3666320129451],"sales":{"202602":2299}},{"id":"MA010120220810449384","name":"대덕시스템","industry":"경영 컨설팅업","coordinates":[127.407682530375,36.3695319474676],"sales":{"202602":1145}},{"id":"MA010120220811043346","name":"펜타플렉스522호,626호","industry":"광고 대행업","coordinates":[127.407682530375,36.3695319474676],"sales":{"202602":6209}},{"id":"MA010120220811201251","name":"블랙팬서","industry":"가전제품 수리업","coordinates":[127.411238667518,36.3655816407498],"sales":{"202602":72}},{"id":"MA010120220811207678","name":"에스티켐","industry":"그 외 기타 상품 전문 소매업","coordinates":[127.402936017244,36.3652945197826],"sales":{"202602":8882}},{"id":"MA010120220811227967","name":"제이에스엘엔지니어링","industry":"기타 엔지니어링 서비스업","coordinates":[127.402936017244,36.3652945197826],"sales":{"202602":8975}},{"id":"MA010120220811491102","name":"김밥나라","industry":"김밥/만두/분식","coordinates":[127.415696861346,36.3679002462605],"sales":{"202602":1478}},{"id":"MA010120220811554766","name":"한국경영컨설팅연구소3","industry":"경영 컨설팅업","coordinates":[127.407232883053,36.3666407207014],"sales":{"202602":584}},{"id":"MA010120220811731578","name":"엠에스안전","industry":"명함/간판/광고물 제작","coordinates":[127.402936017244,36.3652945197826],"sales":{"202602":886}},{"id":"MA010120220811744605","name":"신도중앙OA","industry":"컴퓨터/소프트웨어 소매업","coordinates":[127.402936017244,36.3652945197826],"sales":{"202602":3809}},{"id":"MA010120220811809485","name":"대화스크린골프","industry":"골프 연습장","coordinates":[127.416729137207,36.36714867801],"sales":{"202602":543}},{"id":"MA010120220811843320","name":"약용약초","industry":"반찬/식료품 소매업","coordinates":[127.417558759301,36.3660103055517],"sales":{"202602":1455}},{"id":"MA010120220811921266","name":"빠른공인중개사사무소","industry":"부동산 중개/대리업","coordinates":[127.402936017244,36.3652945197826],"sales":{"202602":241}},{"id":"MA010120220811954061","name":"디에스컨설팅","industry":"경영 컨설팅업","coordinates":[127.407682530375,36.3695319474676],"sales":{"202602":2318}},{"id":"MA010120220811976475","name":"위어스에프엔비","industry":"경영 컨설팅업","coordinates":[127.415731576847,36.3639529944445],"sales":{"202602":821}},{"id":"MA010120220811982194","name":"전원슈퍼","industry":"슈퍼마켓","coordinates":[127.417558759301,36.3660103055517],"sales":{"202602":3745}},{"id":"MA010120220812002870","name":"주신테크","industry":"기타 사무 지원 서비스업","coordinates":[127.407682530375,36.3695319474676],"sales":{}},{"id":"MA010120220812037443","name":"연ENC기술사사무소","industry":"건축 설계 및 관련 서비스업","coordinates":[127.407682530375,36.3695319474676],"sales":{"202602":123}},{"id":"MA010120220812197750","name":"클래식","industry":"의류/이불 수선업","coordinates":[127.415988262145,36.3661239245553],"sales":{"202602":208}},{"id":"MA010120220812347741","name":"엠에이치소프트개발","industry":"경영 컨설팅업","coordinates":[127.407682530375,36.3695319474676],"sales":{"202602":663}},{"id":"MA010120220812374170","name":"예창","industry":"광고물 설계/제작업","coordinates":[127.407682530375,36.3695319474676],"sales":{"202602":1007}},{"id":"MA010120220812389682","name":"태양","industry":"광고물 설계/제작업","coordinates":[127.407682530375,36.3695319474676],"sales":{"202602":1052}},{"id":"MA010120220812442893","name":"세계조명","industry":"전기용품/조명장치 소매업","coordinates":[127.418492980097,36.3656826151791],"sales":{"202602":650}},{"id":"MA010120220812452824","name":"교은글로벌","industry":"경영 컨설팅업","coordinates":[127.407232883053,36.3666407207014],"sales":{"202602":896}},{"id":"MA010120220812479427","name":"형제기계공구","industry":"철물/공구 소매업","coordinates":[127.403380219885,36.3650046458463],"sales":{"202602":750}},{"id":"MA010120220812540100","name":"에브리데이","industry":"인테리어 디자인업","coordinates":[127.407682530375,36.3695319474676],"sales":{"202602":307}},{"id":"MA010120220812543631","name":"행복식당","industry":"백반/한정식","coordinates":[127.402936017244,36.3652945197826],"sales":{"202602":215}},{"id":"MA010120220812599825","name":"유일개발","industry":"부동산 중개/대리업","coordinates":[127.402936017244,36.3652945197826],"sales":{"202602":114}},{"id":"MA010120220812619645","name":"에브리데이시스템","industry":"제품 디자인업","coordinates":[127.407682530375,36.3695319474676],"sales":{"202602":52}},{"id":"MA010120220812643762","name":"정일모터스","industry":"자동차 정비소","coordinates":[127.410839115371,36.3764781710953],"sales":{"202602":1209}},{"id":"MA010120220812689063","name":"제일공인중개사사무소","industry":"부동산 중개/대리업","coordinates":[127.402936017244,36.3652945197826],"sales":{"202602":173}},{"id":"MA010120220812692037","name":"피읖리을티읕","industry":"명함/간판/광고물 제작","coordinates":[127.402936017244,36.3652945197826],"sales":{"202602":558}},{"id":"MA010120220812699428","name":"아이리스","industry":"패션/섬유/기타 전문 디자인업","coordinates":[127.407682530375,36.3695319474676],"sales":{"202602":449}},{"id":"MA010120220812700577","name":"송디자인커머셜","industry":"광고물 설계/제작업","coordinates":[127.407143696399,36.3666320129451],"sales":{"202602":974}},{"id":"MA010120220812708796","name":"꼼장어구이","industry":"횟집","coordinates":[127.413400262555,36.3634654390765],"sales":{"202602":1947}},{"id":"MA010120220812717045","name":"다연카페","industry":"카페","coordinates":[127.402936017244,36.3652945197826],"sales":{"202602":445}},{"id":"MA010120220812724591","name":"보은식당","industry":"백반/한정식","coordinates":[127.416072496048,36.3672951539801],"sales":{"202602":1279}},{"id":"MA010120220812752577","name":"해밀","industry":"전기용품/조명장치 소매업","coordinates":[127.41729307055,36.3705080774143],"sales":{"202602":293}},{"id":"MA010120220812805173","name":"에어쿨시스템","industry":"의류/이불 수선업","coordinates":[127.416475020938,36.3654643736135],"sales":{"202602":189}},{"id":"MA010120220812822803","name":"대산","industry":"부동산 중개/대리업","coordinates":[127.407682530375,36.3695319474676],"sales":{"202602":201}},{"id":"MA010120220812852140","name":"국민다안전교육협회대전대덕지부","industry":"직원 훈련기관","coordinates":[127.417351026254,36.364668285847],"sales":{"202602":313}},{"id":"MA010120220812858014","name":"누엘","industry":"카페","coordinates":[127.413215374769,36.3643221919123],"sales":{"202602":542}},{"id":"MA010120220812915015","name":"대호ENG","industry":"기타 광고 관련 서비스업","coordinates":[127.407682530375,36.3695319474676],"sales":{}},{"id":"MA010120220812951188","name":"특허법인케이투비","industry":"변리사","coordinates":[127.407682530375,36.3695319474676],"sales":{"202602":1271}},{"id":"MA010120220812953385","name":"플러스축산","industry":"정육점","coordinates":[127.416942047135,36.3673732279937],"sales":{"202602":7220}},{"id":"MA010120220812975383","name":"제일안전공사","industry":"철물/공구 소매업","coordinates":[127.402936017244,36.3652945197826],"sales":{"202602":1797}},{"id":"MA010120220812978340","name":"아름다운공예사랑","industry":"기타 기술/직업 훈련학원","coordinates":[127.413958174022,36.3636167066137],"sales":{"202602":270}},{"id":"MA010120220812981139","name":"성림환경","industry":"건축물 일반 청소업","coordinates":[127.402936017244,36.3652945197826],"sales":{"202602":151}},{"id":"MA010120220813001431","name":"필라상회","industry":"채소/과일 소매업","coordinates":[127.416358701133,36.3645455840122],"sales":{"202602":2164}},{"id":"MA010120220813003664","name":"갤러리PIM","industry":"예술품 소매업","coordinates":[127.402936017244,36.3652945197826],"sales":{"202602":139}},{"id":"MA010120220813023171","name":"디에스마켓","industry":"여성 의류 소매업","coordinates":[127.418607589034,36.3662769867782],"sales":{"202602":307}},{"id":"MA010120220813149437","name":"명민","industry":"환경 관련 엔지니어링 서비스업","coordinates":[127.402936017244,36.3652945197826],"sales":{}},{"id":"MA010120220813282280","name":"발전상회","industry":"슈퍼마켓","coordinates":[127.414312998979,36.3632910548499],"sales":{"202602":2265}},{"id":"MA010120220813318760","name":"원광","industry":"경영 컨설팅업","coordinates":[127.407232883053,36.3666407207014],"sales":{"202602":1186}},{"id":"MA010120220813323494","name":"미엘헤어","industry":"미용실","coordinates":[127.413022434549,36.3636559918708],"sales":{"202602":360}},{"id":"MA010120220813494461","name":"아호수","industry":"번역/통역 서비스업","coordinates":[127.407682530375,36.3695319474676],"sales":{"202602":319}},{"id":"MA010120220813518134","name":"건영자동차정비","industry":"자동차 정비소","coordinates":[127.403902228287,36.3646784603702],"sales":{"202602":541}},{"id":"MA010120220813529644","name":"부동산임대","industry":"백반/한정식","coordinates":[127.407232883053,36.3666407207014],"sales":{"202602":824}},{"id":"MA010120220813560415","name":"부여상회","industry":"채소/과일 소매업","coordinates":[127.409757827313,36.3657939981145],"sales":{"202602":3463}},{"id":"MA010120220813713854","name":"세이비드","industry":"사업시설 유지·관리 서비스업","coordinates":[127.405198413,36.365385997356],"sales":{"202602":1432}},{"id":"MA010120220813720065","name":"케이환경기술","industry":"환경 관련 엔지니어링 서비스업","coordinates":[127.407682530375,36.3695319474676],"sales":{}},{"id":"MA010120220813736956","name":"중부철물수도설비","industry":"철물/공구 소매업","coordinates":[127.415872522444,36.3653132731353],"sales":{"202602":609}},{"id":"MA010120220813739048","name":"마노아인테리어","industry":"인테리어 디자인업","coordinates":[127.402936017244,36.3652945197826],"sales":{"202602":275}},{"id":"MA010120220813775630","name":"순경영컨설팅","industry":"경영 컨설팅업","coordinates":[127.407232883053,36.3666407207014],"sales":{"202602":1251}},{"id":"MA010120220813837520","name":"태선엔지니어링","industry":"건물 및 토목 엔지니어링 서비스업","coordinates":[127.407143696399,36.3666320129451],"sales":{}},{"id":"MA010120220813855547","name":"루마그래픽스","industry":"시각 디자인업","coordinates":[127.407682530375,36.3695319474676],"sales":{"202602":1131}},{"id":"MA010120220813856583","name":"티엔티이엔지","industry":"건물 및 토목 엔지니어링 서비스업","coordinates":[127.407682530375,36.3695319474676],"sales":{}},{"id":"MA010120220813870954","name":"효성종합자재","industry":"전기용품/조명장치 소매업","coordinates":[127.402936017244,36.3652945197826],"sales":{"202602":154}},{"id":"MA010120220813890524","name":"웰빙컨설팅","industry":"경영 컨설팅업","coordinates":[127.407682530375,36.3695319474676],"sales":{"202602":1328}},{"id":"MA010120220813934392","name":"카페바이케일립","industry":"카페","coordinates":[127.402936017244,36.3652945197826],"sales":{"202602":468}},{"id":"MA010120220813940735","name":"나르다","industry":"기타 운송장비 대여업","coordinates":[127.416385111484,36.3674112171406],"sales":{}},{"id":"MA010120220813950010","name":"정성","industry":"포장/충전업","coordinates":[127.410629505187,36.370522154765],"sales":{}},{"id":"MA010120220813963620","name":"좋은커뮤니티","industry":"광고물 설계/제작업","coordinates":[127.407682530375,36.3695319474676],"sales":{"202602":1051}},{"id":"MA010120220814072131","name":"바이크리페어","industry":"자전거 소매업","coordinates":[127.402936017244,36.3652945197826],"sales":{"202602":333}},{"id":"MA010120220814086872","name":"바위섬아귀찜","industry":"해산물 구이/찜","coordinates":[127.416834121419,36.365940742188],"sales":{"202602":1900}},{"id":"MA010120220814114724","name":"하얀나라","industry":"세탁소","coordinates":[127.414991271841,36.3630273610613],"sales":{"202602":239}},{"id":"MA010120220814185410","name":"세탁킹","industry":"건축물 일반 청소업","coordinates":[127.402936017244,36.3652945197826],"sales":{"202602":214}},{"id":"MA010120220814333773","name":"봄봄봄","industry":"액세서리/잡화 소매업","coordinates":[127.416980558697,36.3662376177627],"sales":{"202602":244}},{"id":"MA010120220814335225","name":"비즈컨설팅","industry":"경영 컨설팅업","coordinates":[127.407232883053,36.3666407207014],"sales":{"202602":1568}},{"id":"MA010120220814351146","name":"뉴감동손세차장","industry":"자동차 세차장","coordinates":[127.413922987059,36.367491866331],"sales":{"202602":1631}},{"id":"MA010120220814367702","name":"제이앤","industry":"경영 컨설팅업","coordinates":[127.407143696399,36.3666320129451],"sales":{"202602":558}},{"id":"MA0101202209A0048580","name":"골드라인","industry":"자동차 정비소","coordinates":[127.417840197278,36.3686317297647],"sales":{"202602":1979}},{"id":"MA0101202209A0070976","name":"나무와대화협동조합","industry":"예술품 소매업","coordinates":[127.414692065207,36.3633347983759],"sales":{"202602":122}},{"id":"MA0101202210A0032105","name":"스마트건축인테리어","industry":"인테리어 디자인업","coordinates":[127.407682530375,36.3695319474676],"sales":{"202602":248}},{"id":"MA0101202210A0089286","name":"보웅","industry":"명함/간판/광고물 제작","coordinates":[127.41811588247,36.3639266509238],"sales":{"202602":980}},{"id":"MA0101202210A0090974","name":"청평컨설팅","industry":"경영 컨설팅업","coordinates":[127.407232883053,36.3666407207014],"sales":{"202602":622}},{"id":"MA0101202210A0092289","name":"애스톤아이에프엠","industry":"사업시설 유지·관리 서비스업","coordinates":[127.407232883053,36.3666407207014],"sales":{"202602":729}},{"id":"MA0101202211A0069488","name":"그린푸드","industry":"채소/과일 소매업","coordinates":[127.402936017244,36.3652945197826],"sales":{"202602":1405}},{"id":"MA0101202212A0070590","name":"다온존","industry":"철물/공구 소매업","coordinates":[127.402936017244,36.3652945197826],"sales":{"202602":905}},{"id":"MA0101202212A0074515","name":"장앤장스","industry":"경영 컨설팅업","coordinates":[127.407232883053,36.3666407207014],"sales":{"202602":749}},{"id":"MA0101202301A0088983","name":"가본웰딩공구","industry":"철물/공구 소매업","coordinates":[127.400904284334,36.3667252061972],"sales":{"202602":2093}},{"id":"MA0101202301A0094690","name":"휴먼팩터안전원","industry":"환경 관련 엔지니어링 서비스업","coordinates":[127.407232883053,36.3666407207014],"sales":{}},{"id":"MA0101202302A0061181","name":"다인푸드","industry":"김밥/만두/분식","coordinates":[127.414930926723,36.3642531643423],"sales":{"202602":997}},{"id":"MA0101202302A0093163","name":"디에스푸드","industry":"구내식당","coordinates":[127.407682530375,36.3695319474676],"sales":{"202602":4262}},{"id":"MA0101202302A0099952","name":"한국전기진단기술","industry":"기타 엔지니어링 서비스업","coordinates":[127.402936017244,36.3652945197826],"sales":{"202602":9119}},{"id":"MA0101202302A0107965","name":"현승노무사사무소","industry":"공인노무사","coordinates":[127.407682530375,36.3695319474676],"sales":{"202602":327}},{"id":"MA0101202303A0002952","name":"한밭세차","industry":"자동차 세차장","coordinates":[127.407232883053,36.3666407207014],"sales":{"202602":1375}},{"id":"MA0101202303A0016635","name":"준테크","industry":"사업시설 유지·관리 서비스업","coordinates":[127.40444973093,36.3628201935715],"sales":{"202602":893}},{"id":"MA0101202303A0039381","name":"펀펀아트투어","industry":"여행사","coordinates":[127.415081220934,36.3631802478313],"sales":{"202602":950}},{"id":"MA0101202303A0045983","name":"케이에이치비","industry":"반찬/식료품 소매업","coordinates":[127.407232883053,36.3666407207014],"sales":{"202602":981}},{"id":"MA0101202303A0073902","name":"일구팔디","industry":"시각 디자인업","coordinates":[127.407232883053,36.3666407207014],"sales":{"202602":2232}},{"id":"MA0101202303A0098729","name":"가온상가지점","industry":"슈퍼마켓","coordinates":[127.407232883053,36.3666407207014],"sales":{"202602":5114}},{"id":"MA0101202305A0085109","name":"벧엘컨설팅","industry":"기타 엔지니어링 서비스업","coordinates":[127.402936017244,36.3652945197826],"sales":{"202602":8073}},{"id":"MA0101202305A0145626","name":"맑음","industry":"경영 컨설팅업","coordinates":[127.402936017244,36.3652945197826],"sales":{"202602":916}},{"id":"MA0101202305A0165117","name":"존쿡푸드","industry":"백반/한정식","coordinates":[127.407682530375,36.3695319474676],"sales":{"202602":779}},{"id":"MA0101202305A0175684","name":"카페엘씨에르보","industry":"카페","coordinates":[127.407682530375,36.3695319474676],"sales":{"202602":595}},{"id":"MA0101202306A0057026","name":"해성피앤에스","industry":"포장/충전업","coordinates":[127.408913353109,36.3683742419045],"sales":{}},{"id":"MA0101202306A0057265","name":"마루CST","industry":"기타 사무 지원 서비스업","coordinates":[127.402936017244,36.3652945197826],"sales":{}},{"id":"MA0101202307A0025879","name":"빽다방대전가온비즈","industry":"카페","coordinates":[127.407232883053,36.3666407207014],"sales":{"202602":654}},{"id":"MA0101202307A0060096","name":"렛츠고캠핑대전지사","industry":"운동용품 소매업","coordinates":[127.413022434549,36.3636559918708],"sales":{"202602":7216}},{"id":"MA0101202307A0100857","name":"아날로그","industry":"카페","coordinates":[127.415696861346,36.3679002462605],"sales":{"202602":1483}},{"id":"MA0101202308A0010655","name":"오투헤어클럽","industry":"미용실","coordinates":[127.415537035084,36.3629894173318],"sales":{"202602":531}},{"id":"MA0101202308A0097136","name":"오닉스","industry":"경영 컨설팅업","coordinates":[127.407232883053,36.3666407207014],"sales":{"202602":1794}},{"id":"MA0101202309A0054639","name":"호야시스템","industry":"전시/컨벤션/행사 대행 서비스업","coordinates":[127.40427663422,36.3638210805826],"sales":{"202602":1831}},{"id":"MA0101202310A0015358","name":"마루디자인","industry":"광고물 설계/제작업","coordinates":[127.402936017244,36.3652945197826],"sales":{"202602":1297}},{"id":"MA0101202310A0016904","name":"신장금이밥상","industry":"백반/한정식","coordinates":[127.402936017244,36.3652945197826],"sales":{"202602":2083}},{"id":"MA0101202310A0082876","name":"리더스세무회계대화지점","industry":"세무사","coordinates":[127.407232883053,36.3666407207014],"sales":{"202602":805}},{"id":"MA0101202310A0089279","name":"현대세스원","industry":"건축물 일반 청소업","coordinates":[127.402936017244,36.3652945197826],"sales":{"202602":322}},{"id":"MA0101202311A0038543","name":"한끼식사밀키트","industry":"반찬/식료품 소매업","coordinates":[127.414991271841,36.3630273610613],"sales":{"202602":1167}},{"id":"MA0101202311A0053288","name":"아트그린","industry":"인테리어 디자인업","coordinates":[127.402936017244,36.3652945197826],"sales":{"202602":176}},{"id":"MA0101202311A0097193","name":"도심숲","industry":"기타 오락관련 서비스업","coordinates":[127.407232883053,36.3666407207014],"sales":{"202602":345}},{"id":"MA0101202406A0007696","name":"편사부짬뽕","industry":"중국집","coordinates":[127.407682530375,36.3695319474676],"sales":{"202602":1287}},{"id":"MA0101202406A0009930","name":"태진솔루션중부지사","industry":"사업시설 유지·관리 서비스업","coordinates":[127.402936017244,36.3652945197826],"sales":{"202602":1192}},{"id":"MA0101202406A0052016","name":"지와이시스템","industry":"가전제품 수리업","coordinates":[127.402936017244,36.3652945197826],"sales":{"202602":368}},{"id":"MA0101202406A0104115","name":"이상기획","industry":"전시/컨벤션/행사 대행 서비스업","coordinates":[127.402936017244,36.3652945197826],"sales":{"202602":4511}},{"id":"MA0101202406A0133300","name":"박가뼈해장국감자탕","industry":"백반/한정식","coordinates":[127.407107076752,36.3660193409759],"sales":{"202602":1413}},{"id":"MA0101202406A0180531","name":"1980김부동대전","industry":"백반/한정식","coordinates":[127.407232883053,36.3666407207014],"sales":{"202602":3955}},{"id":"MA0101202406A0212473","name":"빛나유클린","industry":"가전제품 수리업","coordinates":[127.402936017244,36.3652945197826],"sales":{"202602":223}},{"id":"MA0101202406A0217360","name":"시온모터스","industry":"자동차 정비소","coordinates":[127.417906282564,36.3684873112625],"sales":{"202602":1996}},{"id":"MA0101202406A0297354","name":"더퍼스트오컨설팅","industry":"경영 컨설팅업","coordinates":[127.402936017244,36.3652945197826],"sales":{"202602":781}},{"id":"MA0101202406A0324638","name":"이레종합유통당구마켓","industry":"운동용품 소매업","coordinates":[127.417900644024,36.3674329608149],"sales":{"202602":1610}},{"id":"MA0101202406A0367544","name":"모브스에듀","industry":"경영 컨설팅업","coordinates":[127.407232883053,36.3666407207014],"sales":{"202602":1268}},{"id":"MA0101202406A0377626","name":"산장대반점","industry":"중국집","coordinates":[127.416385111484,36.3674112171406],"sales":{"202602":3183}},{"id":"MA0101202406A0387506","name":"바르다컴퍼니","industry":"벽지/장판/마루 소매업","coordinates":[127.402936017244,36.3652945197826],"sales":{"202602":147}},{"id":"MA0101202406A0510673","name":"대운종합클린","industry":"건축물 일반 청소업","coordinates":[127.402936017244,36.3652945197826],"sales":{"202602":388}},{"id":"MA0101202406A0535225","name":"자란","industry":"부동산 중개/대리업","coordinates":[127.407232883053,36.3666407207014],"sales":{"202602":352}},{"id":"MA0101202406A0541924","name":"코코유통","industry":"화장품 소매업","coordinates":[127.414991271841,36.3630273610613],"sales":{"202602":1295}},{"id":"MA0101202406A0544165","name":"민트모바일","industry":"핸드폰 소매업","coordinates":[127.402936017244,36.3652945197826],"sales":{"202602":217}},{"id":"MA0101202406A0549116","name":"제이엔","industry":"명함/간판/광고물 제작","coordinates":[127.407232883053,36.3666407207014],"sales":{"202602":712}},{"id":"MA0101202406A0564724","name":"인사이트랩","industry":"경영 컨설팅업","coordinates":[127.407682530375,36.3695319474676],"sales":{"202602":989}},{"id":"MA0101202406A0565872","name":"대화마을관리사회적협동조합","industry":"사업시설 유지·관리 서비스업","coordinates":[127.414266221348,36.3649764082884],"sales":{"202602":774}},{"id":"MA0101202406A0587564","name":"에이치엠물류","industry":"임시/일용 인력 공급업","coordinates":[127.402936017244,36.3652945197826],"sales":{"202602":30642}},{"id":"MA0101202408A0033753","name":"영광축산정육점","industry":"정육점","coordinates":[127.410919338665,36.3641859231834],"sales":{"202602":2614}},{"id":"MA0101202409A0110837","name":"윤슬시스템교육원","industry":"기타 교육지원 서비스업","coordinates":[127.402936017244,36.3652945197826],"sales":{"202602":1337}},{"id":"MA0101202409A0130543","name":"길한사회적협동조합","industry":"건축물 일반 청소업","coordinates":[127.402936017244,36.3652945197826],"sales":{"202602":248}},{"id":"MA0101202409A0134723","name":"이지정보","industry":"컴퓨터/소프트웨어 소매업","coordinates":[127.402936017244,36.3652945197826],"sales":{"202602":1308}},{"id":"MA0101202409A0150924","name":"세븐일레븐","industry":"편의점","coordinates":[127.407682530375,36.3695319474676],"sales":{"202602":3579}},{"id":"MA0101202409A0166736","name":"피아노","industry":"중고 상품 소매업","coordinates":[127.417955239611,36.3693072055632],"sales":{"202602":1982}},{"id":"MA0101202409A0183548","name":"에코바이트","industry":"사업시설 유지·관리 서비스업","coordinates":[127.402936017244,36.3652945197826],"sales":{"202602":344}},{"id":"MA0101202409A0217390","name":"오늘의반찬","industry":"요리 주점","coordinates":[127.407232883053,36.3666407207014],"sales":{"202602":471}},{"id":"MA0101202409A0230764","name":"네유랩","industry":"제품 디자인업","coordinates":[127.407682530375,36.3695319474676],"sales":{"202602":26}},{"id":"MA0101202409A0251158","name":"글로벌펌프","industry":"기타 산업용 기계/장비 대여업","coordinates":[127.402936017244,36.3652945197826],"sales":{"202602":1547}},{"id":"MA0101202410A0485222","name":"남명","industry":"장례식장","coordinates":[127.402936017244,36.3652945197826],"sales":{"202602":27780}},{"id":"MA0101202410A0723144","name":"현대장묘","industry":"장례식장","coordinates":[127.402936017244,36.3652945197826],"sales":{"202602":13181}},{"id":"MA0101202411A0007477","name":"티에이솔루션","industry":"광고 대행업","coordinates":[127.407682530375,36.3695319474676],"sales":{"202602":3655}},{"id":"MA0101202411A0073040","name":"공단공판장","industry":"슈퍼마켓","coordinates":[127.416385111484,36.3674112171406],"sales":{"202602":12553}},{"id":"MA0101202411A0120246","name":"예다움공인중개사사무소","industry":"부동산 중개/대리업","coordinates":[127.406861569178,36.3659480835336],"sales":{"202602":216}},{"id":"MA0101202411A0140169","name":"가온혜유리공방","industry":"기타 예술/스포츠 교육기관","coordinates":[127.407232883053,36.3666407207014],"sales":{"202602":73}},{"id":"MA0101202412A0026060","name":"아베스","industry":"소독, 구충 및 방제 서비스업","coordinates":[127.402936017244,36.3652945197826],"sales":{"202602":123}},{"id":"MA0101202412A0057684","name":"에이치뷰티","industry":"화장품 소매업","coordinates":[127.402936017244,36.3652945197826],"sales":{"202602":833}},{"id":"MA0101202412A0083462","name":"이지스헬스카페","industry":"카페","coordinates":[127.407232883053,36.3666407207014],"sales":{"202602":353}},{"id":"MA0101202501A0071893","name":"케이비장식도배장판인테리어타일씽크대","industry":"인테리어 디자인업","coordinates":[127.416882824997,36.3667155796339],"sales":{"202602":276}},{"id":"MA0101202502A0000123","name":"윤이엔지","industry":"기타 엔지니어링 서비스업","coordinates":[127.402936017244,36.3652945197826],"sales":{"202602":3672}},{"id":"MA0101202502A0011119","name":"신우엔지니어링","industry":"환경 관련 엔지니어링 서비스업","coordinates":[127.415731576847,36.3639529944445],"sales":{}},{"id":"MA0101202502A0071626","name":"두리인테리어","industry":"인테리어 디자인업","coordinates":[127.411869694613,36.36480445942],"sales":{"202602":709}},{"id":"MA0101202502A0097660","name":"다담파트너스짬뽕관대전","industry":"중국집","coordinates":[127.407232883053,36.3666407207014],"sales":{"202602":904}},{"id":"MA0101202502A0107571","name":"에이머","industry":"운동용품 소매업","coordinates":[127.402936017244,36.3652945197826],"sales":{"202602":3012}},{"id":"MA0101202503A0024225","name":"태성","industry":"포장/충전업","coordinates":[127.411548310808,36.3714832460259],"sales":{}},{"id":"MA0101202503A0066817","name":"대덕충전소","industry":"가스 충전소","coordinates":[127.399890255465,36.3645387564469],"sales":{"202602":30651}},{"id":"MA0101202503A0074648","name":"컴퓨터수리","industry":"컴퓨터/노트북/프린터 수리업","coordinates":[127.411507924969,36.363814416945],"sales":{"202602":592}},{"id":"MA0101202504A0009633","name":"코맥","industry":"문구/회화용품 소매업","coordinates":[127.407682530375,36.3695319474676],"sales":{"202602":2805}},{"id":"MA0101202504A0010757","name":"티와이","industry":"그 외 기타 상품 전문 소매업","coordinates":[127.407682530375,36.3695319474676],"sales":{"202602":2324}},{"id":"MA0101202504A0051098","name":"하늘연에프디","industry":"횟집","coordinates":[127.417669732805,36.3680105178029],"sales":{"202602":1289}},{"id":"MA0101202504A0080581","name":"아이엠에듀컨설팅","industry":"경영 컨설팅업","coordinates":[127.407232883053,36.3666407207014],"sales":{"202602":896}},{"id":"MA0101202504A0109793","name":"한밭미용상사","industry":"화장품 소매업","coordinates":[127.412866303323,36.363629496335],"sales":{"202602":726}},{"id":"MA0103202406C0046654","name":"엘도라도케이알","industry":"고용 알선업","coordinates":[127.402936017244,36.3652945197826],"sales":{"202602":2475}},{"id":"MA0106202201A0899250","name":"삼성웰스토리아모레퍼시픽대전","industry":"구내식당","coordinates":[127.408913353109,36.3683742419045],"sales":{"202602":1669}},{"id":"MA0106202201A0899251","name":"삼성웰스토리아모레퍼시픽대전","industry":"구내식당","coordinates":[127.408913353109,36.3683742419045],"sales":{"202602":7377}},{"id":"MA0106202201A2111830","name":"태광ENC","industry":"전기용품/조명장치 소매업","coordinates":[127.403663541348,36.3637690831768],"sales":{"202602":513}},{"id":"MA0106202210A2413625","name":"현대모비스대전부품K","industry":"자동차 부품 소매업","coordinates":[127.419025385935,36.3693845623918],"sales":{"202602":2242}},{"id":"MA0106202506A1120948","name":"올바이오솔루션","industry":"그 외 기타 상품 전문 소매업","coordinates":[127.402936017244,36.3652945197826],"sales":{"202602":3417}},{"id":"MA0106202506A1298791","name":"(주) 하늘연에프디","industry":"백반/한정식","coordinates":[127.417669732805,36.3680105178029],"sales":{"202602":1014}},{"id":"MA0106202506A2285235","name":"디자인오호","industry":"광고 대행업","coordinates":[127.407682530375,36.3695319474676],"sales":{"202602":4568}},{"id":"MA0106202507A0778624","name":"에스피마트","industry":"슈퍼마켓","coordinates":[127.416942047135,36.3673732279937],"sales":{"202602":8200}},{"id":"MA0106202507A1865770","name":"케이와이켐","industry":"그 외 기타 상품 전문 소매업","coordinates":[127.402936017244,36.3652945197826],"sales":{"202602":6923}},{"id":"MA0106202507A2305362","name":"대전에어컨설치","industry":"그 외 기타 개인/가정용품 수리업","coordinates":[127.412878349857,36.3638006773672],"sales":{"202602":1654}},{"id":"MA0106202507A2386069","name":"한밭미용상사 대화점","industry":"미용실","coordinates":[127.412866303323,36.363629496335],"sales":{"202602":453}},{"id":"MA0106202508A0084368","name":"나노육성체육시설운영","industry":"수영장","coordinates":[127.403927027746,36.3651650094198],"sales":{"202602":2503}},{"id":"MA0106202508A0132168","name":"해피정닷컴","industry":"광고 대행업","coordinates":[127.402936017244,36.3652945197826],"sales":{"202602":4179}},{"id":"MA0106202508A0566268","name":"위버스","industry":"광고 대행업","coordinates":[127.407232883053,36.3666407207014],"sales":{"202602":2198}},{"id":"MA0106202508A0738211","name":"투투헤어","industry":"미용실","coordinates":[127.407232883053,36.3666407207014],"sales":{"202602":371}},{"id":"MA0106202508A1056540","name":"미훈식당","industry":"백반/한정식","coordinates":[127.416385111484,36.3674112171406],"sales":{"202602":3335}},{"id":"MA0106202509A0888012","name":"명성삼우가스","industry":"가정용 연료 소매업","coordinates":[127.408089017364,36.3662863425515],"sales":{"202602":186045}},{"id":"MA0106202510A0866912","name":"제이솔루션","industry":"그 외 기타 상품 전문 소매업","coordinates":[127.402936017244,36.3652945197826],"sales":{"202602":1126}},{"id":"MA0106202510A1017160","name":"대화동전자담배","industry":"그 외 기타 상품 전문 소매업","coordinates":[127.407232883053,36.3666407207014],"sales":{"202602":7313}},{"id":"MA0106202510A1272621","name":"보은방앗간","industry":"슈퍼마켓","coordinates":[127.416385111484,36.3674112171406],"sales":{"202602":15500}},{"id":"MA0106202510A2010625","name":"인터파트대전","industry":"자동차 부품 소매업","coordinates":[127.418017558368,36.3705415915113],"sales":{"202602":2116}},{"id":"MA0106202511A1634430","name":"케이랩메이트","industry":"그 외 기타 상품 전문 소매업","coordinates":[127.407232883053,36.3666407207014],"sales":{"202602":3914}},{"id":"MA0106202512A0665048","name":"정쿡식당","industry":"백반/한정식","coordinates":[127.402936017244,36.3652945197826],"sales":{"202602":413}},{"id":"MA0106202512A1294139","name":"밸류드","industry":"기타 의류 소매업","coordinates":[127.407682530375,36.3695319474676],"sales":{"202602":962}},{"id":"MA0106202512A1665625","name":"대덕종합상사","industry":"그 외 기타 상품 전문 소매업","coordinates":[127.402936017244,36.3652945197826],"sales":{"202602":4338}},{"id":"MA0106202601A0043387","name":"로드 에어시스템","industry":"그 외 기타 개인/가정용품 수리업","coordinates":[127.402936017244,36.3652945197826],"sales":{"202602":2292}},{"id":"MA0106202601A0871874","name":"재영환경기계","industry":"그 외 기타 개인/가정용품 수리업","coordinates":[127.402936017244,36.3652945197826],"sales":{"202602":3142}},{"id":"MA0106202601A0878296","name":"대신OA","industry":"사무기기 소매업","coordinates":[127.402936017244,36.3652945197826],"sales":{"202602":525}},{"id":"MA0106202601A1554608","name":"가온에어테크","industry":"그 외 기타 개인/가정용품 수리업","coordinates":[127.402936017244,36.3652945197826],"sales":{"202602":2303}},{"id":"MA0106202601A2170923","name":"참길애드","industry":"광고 대행업","coordinates":[127.402936017244,36.3652945197826],"sales":{"202602":2865}}]